time,distance(meters),speed(m/s), compass_heading(degrees), pitch(degrees), roll(degrees),height_above_takeoff(meters),North,East,Down
0.0,7.00584,0.449424,236.7,-12.9,11.5,14.9,0.0,0.0,0.0
0.0999999999999659,7.05018,0.67894,236.7,-13.3,10.8,14.9,0.04183765149039757,-0.042383031755919794,-3.877416027142644e-10
0.19999999999998863,7.1084,0.831999,237.1,-12.8,6.7,14.9,0.09275338425502393,-0.09792162739481003,1.7266442581265196e-09
0.30000000000001137,7.18228,0.853288,237.6,-12.2,1.8,14.9,0.15185963077597223,-0.16832405848859344,3.98678826063481e-09
0.39999999999997726,7.25191,0.823431,238.2,-10.3,-3.1,14.9,0.20439033832242856,-0.23452713729220087,7.910947216749342e-09
0.5,7.31759,0.67287,238.5,-8.1,-8.0,14.9,0.25133632309373755,-0.29690220707106263,1.2209673480589878e-08
0.5999999999999659,7.37361,0.615648,238.2,-8.3,-7.2,14.9,0.2878584116163989,-0.35020413360259667,1.568218874203886e-08
0.6999999999999886,7.4265,0.719867,237.2,-10.8,5.2,14.9,0.31372728281045215,-0.4011682077857443,2.0226591651573145e-08
0.8000000000000114,7.50134,1.02487,236.2,-11.8,18.5,14.9,0.3690042167479658,-0.47143746618593885,2.8341160251965647e-08
0.8999999999999773,7.61152,1.52054,235.8,-12.2,24.0,14.9,0.4606951891913108,-0.573221935500443,4.150772109356993e-08
1.0,7.74884,1.97029,235.4,-13.1,24.2,14.9,0.5826198700496864,-0.6979696788090376,6.483099984633256e-08
1.099999999999966,7.94387,2.45008,235.0,-14.4,23.8,14.9,0.7577400272740971,-0.8723378644722277,1.0421463736420833e-07
1.1999999999999886,8.14889,2.87734,234.6,-15.3,23.8,14.9,0.9351696953478655,-1.0535873910471536,1.562148843614608e-07
1.3000000000000114,8.40064,3.11712,234.3,-16.2,23.4,14.9,1.141994414931235,-1.2744477397293084,2.2909976027385426e-07
1.3999999999999773,8.67232,3.48343,234.7,-16.6,22.1,14.9,1.359449506522859,-1.5102053214629054,3.2387986881321496e-07
1.5,8.97246,3.65585,236.0,-17.4,14.6,14.9,1.5692533299628182,-1.7734973480920688,4.392513814899246e-07
1.599999999999966,9.2878,3.61149,238.2,-16.0,-1.3,14.9,1.8021052565129547,-2.044400989135919,5.819254432770649e-07
1.6999999999999886,9.61444,3.23784,239.6,-11.7,-18.5,14.9,2.028320613599605,-2.3256507456706172,7.472684731002488e-07
1.8000000000000114,9.89323,2.75823,239.3,-7.3,-27.3,14.9,2.205978504047766,-2.5678910844977185,8.989886262078528e-07
1.8999999999999773,10.1454,2.2471,239.3,-6.1,-27.0,15.0,2.350107837999645,-2.790490261921466,-0.09999895609856757
2.0,10.3569,1.7426,239.6,-6.0,-26.3,15.0,2.4645176898888135,-2.9784425841816518,-0.09999882649607517
2.099999999999966,10.5369,1.43886,239.7,-6.1,-27.7,15.0,2.5443836132725197,-3.1432607497944822,-0.09999871685992479
2.1999999999999886,10.672,1.05296,239.6,-6.0,-28.9,15.0,2.583012321399849,-3.272985359364985,-0.09999863632211015
2.3000000000000114,10.7732,0.894747,239.4,-5.7,-29.0,15.0,2.580709749445006,-3.3789553257612486,-0.09999858124184025
2.3999999999999773,10.887,0.923833,239.9,-6.0,-29.1,15.0,2.576373289611643,-3.4985925224569834,-0.09999851956286476
2.5,10.9113,1.10712,240.1,-6.6,-29.5,15.0,2.49151788747656,-3.5471194738085448,-0.09999852668402842
2.599999999999966,10.8913,1.46361,240.0,-6.8,-29.4,14.9,2.370465688589918,-3.558344782247085,1.4326359920602272e-06
2.6999999999999886,10.8278,1.82502,239.9,-7.3,-29.0,15.0,2.201206559715509,-3.5351506113913165,-0.09999864060602848
2.8000000000000114,10.7208,2.18233,239.9,-8.4,-27.6,14.9,2.010170197236935,-3.46972604486739,1.2597945863168647e-06
2.8999999999999773,10.5682,2.36606,239.8,-10.5,-19.9,15.0,1.7868785060942503,-3.3615491355300473,-0.09999886516290057
3.0,10.4304,2.38891,239.0,-12.6,-7.2,15.0,1.5640913703774908,-3.26446002011676,-0.09999897292553805
3.099999999999966,10.3155,2.15597,237.3,-12.7,7.2,15.0,1.337076545655793,-3.1874999315439165,-0.09999906460149321
3.1999999999999886,10.2009,1.74122,236.3,-10.3,19.4,15.0,1.1689946264349724,-3.097688792729935,-0.09999914040888602
3.3000000000000114,10.1407,1.27075,236.0,-8.5,25.3,15.0,1.0093807901598135,-3.0594669822393747,-0.0999991864510088
3.3999999999999773,10.1111,0.840052,235.8,-7.8,26.5,15.0,0.8934072856236085,-3.04448241814656,-0.09999921046648835
3.5,10.1092,0.591941,235.5,-8.0,26.4,14.9,0.8102786179186422,-3.05238470422432,7.813531616718272e-07
3.599999999999966,10.1424,0.676683,235.4,-8.4,26.4,14.9,0.7760795785817248,-3.0896805913874656,7.939710433557678e-07
3.6999999999999886,10.1708,0.87181,235.5,-8.5,25.8,14.9,0.7494870974022548,-3.12123542871847,8.06725893809368e-07
3.8000000000000114,10.2644,1.26574,235.6,-8.7,25.1,14.9,0.7942244245938569,-3.2106628563390336,8.568538849007545e-07
3.8999999999999773,10.3907,1.64515,235.9,-8.8,24.8,14.9,0.8812574139062243,-3.3280996497190825,9.288716641964179e-07
4.0,10.5403,2.05472,235.9,-9.2,24.6,14.9,1.002402849224406,-3.464140938840937,1.0193652074663717e-06
4.099999999999966,10.7345,2.41146,235.9,-11.6,22.5,14.9,1.1659714559144574,-3.6383811544372984,1.1437348461651453e-06
4.199999999999989,10.9427,2.61356,236.0,-16.9,12.6,14.9,1.3386349420065755,-3.8236003905704306,1.285730741651392e-06
4.300000000000011,11.1768,2.57692,237.9,-19.0,-2.1,14.9,1.5175915373803868,-4.032194343979682,1.4538436010624878e-06
4.399999999999977,11.3946,2.25614,239.7,-14.6,-18.5,14.9,1.662898264940171,-4.2283868938162845,1.6176328045958144e-06
4.5,11.6281,1.68389,239.4,-9.6,-27.4,14.9,1.7616464041842277,-4.448208092180242,1.7933028687577846e-06
4.599999999999966,11.7776,1.25144,239.5,-7.9,-27.6,14.9,1.820882180868784,-4.589522684485455,1.909689559598249e-06
4.699999999999989,11.8869,0.927873,240.0,-8.1,-26.0,14.9,1.8409296917662705,-4.697193767233842,1.9937139359438305e-06
4.800000000000011,11.9703,0.787012,240.2,-8.4,-27.1,14.9,1.832210406661679,-4.783865236396937,2.0558630366984687e-06
4.899999999999977,12.0693,0.871805,240.5,-8.7,-28.2,14.9,1.8248756841205092,-4.886065426900968,2.1311269118307052e-06
5.0,12.1042,1.11161,240.4,-8.5,-28.6,14.9,1.749986185577828,-4.935008614650294,2.148456849093705e-06
5.099999999999966,12.103,1.44267,240.4,-8.6,-28.6,14.9,1.6266647495315163,-4.954827447543835,2.1312643684323618e-06
5.199999999999989,12.0705,1.85247,240.1,-8.4,-28.6,14.9,1.4713977154965798,-4.946446002608855,2.086016066438212e-06
5.300000000000011,12.0039,2.2397,239.9,-8.3,-28.7,14.9,1.2685052762731552,-4.908145964487273,2.012293227049433e-06
5.399999999999977,11.9184,2.63945,240.0,-8.8,-28.3,14.9,1.0570021310005773,-4.848613370211776,1.9292963204797786e-06
5.5,11.7967,3.00954,240.3,-10.4,-27.6,14.9,0.7779477123503616,-4.755807673465818,1.8182365985608406e-06
5.599999999999966,11.6664,3.26985,240.4,-14.4,-21.7,14.9,0.48318540257255366,-4.649197287176245,1.7103983593891314e-06
5.699999999999989,11.5359,3.26328,239.4,-22.0,-7.4,14.9,0.15494452496903877,-4.536739885074874,1.6127952978117754e-06
5.800000000000011,11.4169,3.06384,236.5,-25.7,8.9,14.9,-0.1584127194064799,-4.426462811703367,1.5366086525830935e-06
5.899999999999977,11.37,2.81127,235.4,-23.8,16.3,14.9,-0.4614399608439722,-4.3800256608626755,1.5177562047163917e-06
6.0,11.3685,2.58222,234.7,-23.4,17.0,14.9,-0.7307216437290502,-4.372199840836782,1.538296611702794e-06
6.099999999999966,11.409,2.47992,234.2,-24.5,16.6,14.9,-0.9941616183113062,-4.400435579356138,1.5933099049014743e-06
6.199999999999989,11.4755,2.44643,234.1,-25.0,16.6,14.9,-1.2293447014270977,-4.450955872124406,1.6704020791014074e-06
6.300000000000011,11.5728,2.47573,234.3,-25.1,16.3,14.8,-1.4619840409655696,-4.528093643791933,0.1000017750811909
6.399999999999977,11.7161,2.56321,234.3,-25.7,16.2,14.8,-1.6652528555819062,-4.650688380419801,0.10000191145842341
6.5,11.9238,2.69597,234.3,-25.9,16.0,14.8,-1.8586572277056443,-4.836588474359706,0.100002103282402
6.599999999999966,12.1577,2.91488,234.1,-25.8,16.2,14.8,-2.0196194715495714,-5.051216769819538,0.1000023195857116
6.699999999999989,12.4459,3.14816,234.1,-25.5,16.9,14.8,-2.1640169232996582,-5.322019445571417,0.10000258714914056
6.800000000000011,12.7546,3.39932,233.9,-24.6,18.2,14.8,-2.2889961849088136,-5.615750074903411,0.10000288189003492
6.899999999999977,13.1146,3.68324,234.0,-24.9,18.1,14.8,-2.408876610556554,-5.961895824302215,0.10000323999205141
7.0,13.4852,3.85781,236.2,-25.8,8.4,14.8,-2.514257937326603,-6.32087446552222,0.1000036264427302
7.099999999999966,13.9106,3.93197,239.5,-21.4,-10.8,14.8,-2.649792106276011,-6.730302690499917,0.10000409962352297
7.199999999999989,14.2924,3.9265,240.3,-16.6,-24.4,14.8,-2.7985848253164862,-7.092718951335936,0.10000455608393533
7.300000000000011,14.681,3.94442,240.2,-13.7,-26.5,14.8,-2.998168344174428,-7.4521912314635195,0.10000505664580572
7.399999999999977,15.0418,3.9607,240.6,-11.9,-25.8,14.8,-3.22525574843963,-7.776586178327584,0.10000555445652748
7.5,15.4544,3.9535,240.7,-10.6,-27.0,14.8,-3.5129891030468245,-8.139573448213477,0.10000616043080202
7.599999999999966,15.7823,4.04041,240.5,-10.1,-28.7,14.8,-3.802097602407615,-8.412430671463348,0.10000667959846687
7.699999999999989,16.1028,4.15243,240.3,-9.5,-28.6,14.8,-4.137520255486641,-8.663075929056271,0.10000722471645362
7.800000000000011,16.393,4.28501,240.0,-9.3,-27.2,14.8,-4.490161095942891,-8.873172948149989,0.10000775152252572
7.899999999999977,16.7258,4.35522,239.4,-12.4,-16.7,14.8,-4.876091736061673,-9.11298339561693,0.10000837507528093
8.0,17.0048,4.22842,237.4,-14.1,3.9,14.8,-5.249295756776029,-9.294315015381002,0.10000893308176773
8.099999999999966,17.3,3.97041,236.1,-11.7,21.2,14.7,-5.612382239410641,-9.490283612359345,0.2000095319414239
8.199999999999989,17.5926,3.74481,236.6,-8.6,26.3,14.8,-5.912528576686021,-9.6998003812676,0.10001011943143201
8.300000000000011,17.8693,3.54099,236.3,-7.5,25.6,14.8,-6.152782649449021,-9.9104920871724,0.10001067088267757
8.399999999999977,18.175,3.41373,236.1,-7.0,27.1,14.8,-6.367053792783967,-10.159746457583186,0.10001127282251687
8.5,18.5005,3.31998,236.6,-6.0,27.6,14.8,-6.552669168755475,-10.43954471795636,0.10001191439368862
8.599999999999966,18.8179,3.31825,236.7,-5.8,26.9,14.8,-6.684113296352361,-10.730002179081119,0.10001253166561819
8.699999999999989,19.1599,3.34302,236.7,-5.7,26.0,14.8,-6.775529082126155,-11.061114808498328,0.10001319457136937
8.800000000000011,19.4825,3.41498,236.6,-5.7,25.8,14.7,-6.866566242062055,-11.37175264324086,0.20001383745814083
8.899999999999977,19.8251,3.55752,236.6,-5.8,25.9,14.7,-6.874418915723213,-11.73308451811992,0.2000144998728839
9.0,20.1533,3.72891,236.6,-5.6,25.5,14.8,-6.838898721940325,-12.0935688244837,0.10001513489582559
9.099999999999966,20.5015,3.9264,236.4,-6.9,23.8,14.7,-6.759847106200203,-12.488409342871481,0.20001580968281418
9.199999999999989,20.8583,3.96021,237.3,-10.0,11.4,14.7,-6.671553318920523,-12.89331933146877,0.2000165206847213
9.300000000000011,21.2059,3.77118,239.0,-9.6,-10.5,14.7,-6.568479454042721,-13.290987567411932,0.2000172293342981
9.399999999999977,21.5238,3.45286,238.8,-7.1,-24.4,14.7,-6.495889729622993,-13.646163955654401,0.2000179035483871
9.5,21.8389,3.08148,238.8,-5.9,-25.7,14.8,-6.455732476692329,-13.987355463289557,0.10001860079700764
9.599999999999966,22.1304,2.7517,238.8,-5.1,-26.3,14.8,-6.435790486710448,-14.297340383875413,0.10001926793316729
9.699999999999989,22.389,2.47323,239.0,-5.1,-28.2,14.8,-6.469548789392918,-14.55724620761415,0.10001989012923973
9.800000000000011,22.6304,2.28794,239.2,-5.6,-28.9,14.8,-6.530715994216164,-14.791201777787887,0.10002049079021669
9.899999999999977,22.8778,2.22953,239.4,-5.8,-28.7,14.8,-6.628110288737796,-15.021083101842517,0.10002112808928887
10.0,23.1279,2.22193,239.8,-6.5,-29.1,14.8,-6.7076507311985925,-15.258889622437014,0.10002177452226135
10.099999999999966,23.3195,2.31786,240.1,-7.1,-29.4,14.7,-6.884604613956301,-15.40705376196808,0.20002231952578242
10.199999999999989,23.4717,2.49946,239.9,-6.8,-29.3,14.8,-7.091847114169153,-15.504243827592873,0.10002278288917887
10.300000000000011,23.6021,2.69412,240.0,-7.4,-28.9,14.8,-7.349757213098914,-15.561341754321266,0.10002321536489278
10.399999999999977,23.7144,2.90173,239.7,-9.4,-23.5,14.8,-7.6217481549975,-15.59243022958067,0.10002361112676184
10.5,23.7981,2.91093,239.0,-13.6,-8.9,14.8,-7.915860870146638,-15.583041084990551,0.10002394830372197
10.599999999999966,23.9166,2.7891,236.8,-17.9,8.0,14.8,-8.194928330596177,-15.612296695430596,0.10002437413005483
10.699999999999989,24.0575,2.54459,235.0,-18.0,19.7,14.8,-8.465696234268767,-15.665564730233339,0.10002485861731758
10.800000000000011,24.2097,2.34126,234.8,-15.8,23.4,14.8,-8.687626261874632,-15.746583399164603,0.10002535838173277
10.899999999999977,24.3503,2.21196,234.3,-14.9,24.0,14.8,-8.882714497824047,-15.823842736701177,0.10002581902360319
11.0,24.5303,2.17031,234.0,-14.7,25.0,14.8,-9.03360037679912,-15.959348904055126,0.10002636771789675
11.099999999999966,24.7302,2.17379,234.2,-14.2,25.5,14.8,-9.157356882162713,-16.126313466332515,0.10002696520311272
11.199999999999989,24.936,2.31734,234.6,-13.7,25.4,14.8,-9.236242888185531,-16.31677107596617,0.10002756309604965
11.300000000000011,25.1344,2.45269,234.9,-13.5,24.5,14.8,-9.302843948043165,-16.503954333100175,0.10002814203188404
11.399999999999977,25.3689,2.68897,234.8,-13.3,24.4,14.8,-9.310450278858099,-16.75254989518905,0.10002880012628612
11.5,25.6299,2.94539,234.7,-13.3,24.8,14.8,-9.282618311439624,-17.042633035286674,0.10002952619919725
11.599999999999966,25.8927,3.24822,234.9,-12.8,25.2,14.9,-9.21948979983886,-17.346829436528793,3.025407824530646e-05
11.699999999999989,26.2078,3.55584,234.9,-12.7,25.1,14.9,-9.115652959013547,-17.720319207671597,3.1129364818305305e-05
11.800000000000011,26.4938,3.8625,234.7,-13.7,24.3,14.9,-8.983117066066079,-18.071005036057038,3.192480574298884e-05
11.899999999999977,26.8045,4.00922,236.3,-16.1,13.2,14.9,-8.821778015958198,-18.455129111298174,3.279770677977467e-05
12.0,27.1088,3.84353,239.1,-15.5,-9.2,14.9,-8.676241232524024,-18.82443755840156,3.367430022072071e-05
12.099999999999966,27.4283,3.52545,239.6,-11.6,-25.1,14.9,-8.558525074017968,-19.198408393357525,3.462839872891976e-05
12.199999999999989,27.7456,3.1635,239.6,-9.3,-26.6,14.9,-8.485303748268418,-19.554419152666583,3.561070805435662e-05
12.300000000000011,28.0409,2.80174,239.9,-8.2,-25.9,14.9,-8.454278678239064,-19.873322131949564,3.655484341891224e-05
12.399999999999977,28.3032,2.52867,239.6,-7.2,-27.5,14.9,-8.453726941300289,-20.148087524110686,3.741539482193801e-05
12.5,28.5584,2.39327,239.6,-7.0,-28.1,14.9,-8.481682860356925,-20.406593932678817,3.827254112120926e-05
12.599999999999966,28.8011,2.25137,239.9,-7.3,-28.5,14.9,-8.506107044135586,-20.653102722469285,3.9097396415499475e-05
12.699999999999989,29.0225,2.20112,239.9,-7.3,-28.7,14.8,-8.61372944128697,-20.85236930152528,0.10003989183157325
12.800000000000011,29.2162,2.22315,240.1,-7.5,-29.1,14.8,-8.75342105757392,-21.01281391402845,0.10004060863497521
12.899999999999977,29.3999,2.32562,240.0,-7.4,-29.3,14.8,-8.938263483028903,-21.148675350826167,0.1000413145612633
13.0,29.5507,2.52355,239.9,-7.3,-29.2,14.8,-9.148975464936228,-21.24122970201821,0.10004192179018379
13.099999999999966,29.6863,2.76385,240.0,-8.2,-28.5,14.8,-9.406789438234767,-21.301394017774342,0.10004249911785479
13.199999999999989,29.8015,2.95082,239.7,-11.1,-21.0,14.8,-9.68325699909063,-21.33205689941068,0.1000430169550297
13.300000000000011,29.9182,2.92787,238.4,-14.1,-5.0,14.8,-9.989885058574004,-21.351653939834968,0.10004355564254741
13.399999999999977,30.0094,2.70602,236.4,-14.8,12.4,14.8,-10.275126823935185,-21.348922432735463,0.10004400283693027
13.5,30.1492,2.3979,235.5,-12.5,23.0,14.8,-10.53088561627715,-21.406028167338192,0.10004461146106536
13.599999999999966,30.2958,2.15142,235.4,-10.8,25.0,14.8,-10.736813232418166,-21.487029753676886,0.1000452293184182
13.699999999999989,30.463,1.98994,234.8,-11.0,25.6,14.8,-10.912261747308259,-21.60049589253088,0.10004591110601524
13.800000000000011,30.6288,1.93802,234.9,-10.8,26.8,14.8,-11.03596333984973,-21.73146386772801,0.10004656847667892
13.899999999999977,30.7629,1.91446,235.1,-10.2,26.8,14.8,-11.130624225576174,-21.839358686891238,0.10004710309697895
14.0,30.9423,2.02846,235.4,-10.0,26.5,14.8,-11.17714568860014,-22.013824568310312,0.10004778385307844
14.099999999999966,31.1466,2.24369,235.6,-10.0,25.7,14.8,-11.192968414762422,-22.226387227531994,0.10004854792140883
14.199999999999989,31.3522,2.51607,235.5,-10.3,25.4,14.8,-11.171731121485646,-22.454147306013972,0.10004930659472233
14.300000000000011,31.5963,2.76566,235.5,-10.4,25.3,14.8,-11.152699166165737,-22.721730187039345,0.10005021893270971
14.399999999999977,31.8213,3.11408,235.4,-10.7,25.1,14.8,-11.056615027359612,-22.99660234256296,0.10005103597449327
14.5,32.0698,3.45992,235.2,-13.8,22.9,14.8,-10.919064939485239,-23.309786987194148,0.1000519345292128
14.599999999999966,32.3215,3.61301,236.2,-18.9,10.5,14.8,-10.766925461524826,-23.629718809856698,0.10005285106219386
14.699999999999989,32.6276,3.50876,239.1,-19.3,-9.2,14.8,-10.59777502059596,-24.01075561829018,0.10005398732505277
14.800000000000011,32.895,3.1867,240.1,-15.2,-23.7,14.8,-10.480009670482227,-24.33176240918688,0.10005500783495691
14.899999999999977,33.1696,2.81589,240.1,-12.5,-26.8,14.8,-10.403526690853464,-24.645642125131097,0.10005608572247038
15.0,33.4191,2.51122,240.6,-12.1,-25.4,14.9,-10.3739002776172,-24.91739511372326,5.7092025611993336e-05
15.099999999999966,33.6818,2.29326,240.8,-12.1,-25.4,14.9,-10.3609760255171,-25.197418544616394,5.817025536192233e-05
15.199999999999989,33.9046,2.13188,240.8,-12.2,-26.8,14.9,-10.391869143606403,-25.421591285431596,5.911008177683641e-05
15.300000000000011,34.1255,2.17179,240.8,-12.3,-27.3,14.8,-10.45121412078346,-25.63492689137027,0.10006006048968707
15.399999999999977,34.3281,2.17834,241.0,-12.3,-27.8,14.8,-10.550615809983263,-25.816415075024413,0.10006095536199755
15.5,34.5317,2.30365,241.2,-12.3,-27.9,14.8,-10.70338040267821,-25.982033857100426,0.10006188309126784
15.599999999999966,34.7446,2.5472,241.3,-12.5,-28.0,14.8,-10.846986518626526,-26.15999008219247,0.10006285305791618
15.699999999999989,34.9205,2.7749,241.3,-12.4,-27.6,14.8,-11.095860067601688,-26.264685475376552,0.100063712658506
15.800000000000011,35.0772,3.04859,241.1,-12.2,-27.6,14.8,-11.368748063098431,-26.33987564355226,0.10006450515303555
15.899999999999977,35.2356,3.22661,240.8,-14.3,-23.1,14.8,-11.687639983069367,-26.399345313336177,0.10006532895925968
16.0,35.3637,3.22698,239.1,-17.5,-7.3,14.8,-12.014474682796482,-26.421439839508814,0.10006603014279314
16.099999999999966,35.5277,3.0591,236.5,-17.9,12.4,14.8,-12.327825156191256,-26.483964268167103,0.10006688925121487
16.19999999999999,35.7,2.82377,235.4,-15.3,23.2,14.9,-12.594544109634484,-26.570201670002042,6.777082669540135e-05
16.30000000000001,35.8978,2.61492,235.1,-13.4,24.8,14.9,-12.832669182377057,-26.693046251165015,6.875867563049809e-05
16.399999999999977,36.0636,2.49045,234.4,-13.5,24.9,14.9,-13.041186475259146,-26.79191077401785,6.959718842658447e-05
16.5,36.2993,2.4505,234.5,-13.1,25.3,14.8,-13.218376218808315,-26.97695762341111,0.1000707433009449
16.599999999999966,36.5348,2.49114,234.9,-12.5,25.8,14.9,-13.350619283376547,-27.17877591214869,7.187445621958943e-05
16.69999999999999,36.7927,2.57,235.0,-12.4,25.4,14.8,-13.44982697398031,-27.417323109638417,0.10007310487891985
16.80000000000001,37.0517,2.72704,235.1,-12.4,24.9,14.8,-13.516856742489306,-27.669422390151475,0.10007433486845496
16.899999999999977,37.3268,2.92832,235.2,-12.1,24.6,14.8,-13.519382824438491,-27.96343682554837,0.10007562074651588
17.0,37.5974,3.17852,235.2,-12.6,24.2,14.8,-13.485149398272888,-28.266153435739113,0.1000768828000993
17.099999999999966,37.8936,3.47324,234.6,-14.0,24.0,14.8,-13.41343253282991,-28.60954044954675,0.10007825972001427
17.19999999999999,38.1893,3.77201,234.5,-15.4,23.3,14.8,-13.317586392139813,-28.96026648027869,0.10007963923348573
17.30000000000001,38.5411,3.99912,235.2,-20.3,15.5,14.8,-13.196767059301058,-29.37837312157445,0.10008129760827078
17.399999999999977,38.8669,3.98703,238.2,-21.7,-3.5,14.8,-13.087026367865022,-29.763297296055832,0.10008285242029746
17.5,39.2117,3.74201,240.0,-16.8,-21.7,14.8,-13.00246087403088,-30.158191558861567,0.10008453254818317
17.599999999999966,39.5344,3.42791,239.5,-11.8,-27.4,14.8,-12.967853033037404,-30.511598315306383,0.10008614028673612
17.69999999999999,39.8794,3.10819,240.2,-11.0,-26.0,14.8,-12.973586226331156,-30.874410079095057,0.10008789625089776
17.80000000000001,40.1794,2.93573,240.7,-11.2,-26.0,14.8,-13.017493529149261,-31.176676335884867,0.10008945540798742
17.899999999999977,40.4802,2.80623,240.8,-11.1,-26.7,14.8,-13.098089542274007,-31.467380394143284,0.10009104653328205
18.0,40.7468,2.72019,240.4,-10.6,-27.7,14.8,-13.211222087053637,-31.71109066453935,0.10009248804453907
18.099999999999966,41.0055,2.82987,240.7,-11.1,-27.9,14.8,-13.324753420921384,-31.946255214813476,0.10009389710254979
18.19999999999999,41.2506,2.89845,241.0,-11.2,-27.9,14.8,-13.511249045913905,-32.14225779701401,0.10009527407042906
18.30000000000001,41.5068,3.04154,241.1,-11.6,-28.3,14.8,-13.749326136570158,-32.332013533284226,0.10009674351156228
18.399999999999977,41.7396,3.24421,241.3,-12.3,-27.8,14.8,-14.012569932143197,-32.48744134127925,0.10009810697759836
18.5,42.0023,3.44197,241.3,-12.9,-27.0,14.8,-14.320805501593973,-32.657707872363346,0.1000996642621832
18.599999999999966,42.2171,3.69298,241.5,-16.4,-24.8,14.8,-14.650515000233543,-32.7676732226405,0.10010097827892572
18.69999999999999,42.4421,3.80493,240.7,-22.2,-13.4,14.8,-15.019833095828316,-32.87201410303872,0.10010237741437678
18.80000000000001,42.6656,3.82585,237.5,-24.4,4.3,14.8,-15.369139564117841,-32.979852652532315,0.10010376788603192
18.899999999999977,42.9146,3.72058,235.4,-22.7,18.0,14.8,-15.709313488149121,-33.116486248382444,0.10010530684490604
19.0,43.13,3.58423,234.8,-20.2,21.9,14.8,-15.99322204631438,-33.237322654192745,0.10010664336020181
19.099999999999966,43.449,3.54097,233.7,-20.7,21.3,14.8,-16.29555116245628,-33.4612081719216,0.10010858104509968
19.19999999999999,43.7671,3.56991,233.7,-20.1,21.7,14.8,-16.551673337987822,-33.701845160183396,0.10011050919545372
19.30000000000001,44.1177,3.64021,233.8,-19.8,21.8,14.8,-16.78828218466228,-33.98492439446436,0.10011263087685762
19.399999999999977,44.4705,3.73987,233.4,-20.8,22.2,14.8,-17.049294805725744,-34.26009185308331,0.10011479607097762
19.5,44.8592,3.87165,233.6,-20.5,22.4,14.8,-17.222107801420556,-34.60990246320843,0.10011714832508112
19.599999999999966,45.2418,4.06661,233.8,-20.0,22.7,14.8,-17.348135932611115,-34.97221841082573,0.10011946639200708
19.69999999999999,45.657,4.25979,233.8,-19.9,22.2,14.8,-17.4406667127422,-35.38358249883332,0.10012198545126072
19.80000000000001,46.0653,4.48025,233.7,-19.9,22.0,14.8,-17.49819193588601,-35.80145694944567,0.1001244734895188
19.899999999999977,46.509,4.71639,233.9,-20.1,21.9,14.9,-17.528247670032435,-36.26833811573119,0.00012718992646654215
20.0,46.9525,4.95535,233.9,-23.2,20.2,14.9,-17.538063184132863,-36.742676129902904,0.00012993000342209626
20.099999999999966,47.4452,5.2006,235.5,-27.8,9.9,14.9,-17.542164370407452,-37.27140439747769,0.0001330072978120711
20.19999999999999,47.9684,5.26746,239.1,-27.6,-7.3,14.9,-17.572254119831868,-37.822108063792086,0.00013632830488674585
20.30000000000001,48.4976,5.216,240.7,-21.8,-20.4,14.9,-17.626971530166855,-38.3691117331763,0.00013974378019199207
20.399999999999977,48.9989,5.1176,240.7,-18.2,-23.9,14.9,-17.720715424677614,-38.87075977657686,0.00014303777182078647
20.5,49.518,4.98167,241.3,-17.5,-23.9,14.9,-17.859386102598265,-39.3743057885346,0.00014651326022985245
20.599999999999966,50.0058,4.91257,241.7,-17.1,-24.5,14.9,-18.024159733784714,-39.83426026434852,0.00014983096147958008
20.69999999999999,50.5293,4.89282,241.6,-16.3,-24.7,14.9,-18.219472949811674,-40.320844890911275,0.00015344326799926478
20.80000000000001,51.0109,4.86626,241.7,-16.4,-25.4,14.9,-18.44472794176932,-40.75106139279636,0.00015682398842109535
20.899999999999977,51.5131,4.87838,241.7,-16.4,-26.1,14.9,-18.71408040880221,-41.1863490419417,0.00016040531446748219
21.0,51.9743,4.88517,241.8,-16.7,-26.1,14.8,-19.00628772698913,-41.56849831182464,0.10016374908990322
21.099999999999966,52.4637,4.97532,242.0,-17.1,-25.7,14.8,-19.337492698625436,-41.96538771628093,0.10016734441887643
21.19999999999999,52.8962,5.1197,242.0,-17.5,-25.1,14.8,-19.69564740012052,-42.289753050732116,0.10017058596929651
21.30000000000001,53.3455,5.26908,242.4,-23.4,-21.0,14.8,-20.102975123145487,-42.611575512788065,0.10017400070098681
21.399999999999977,53.7913,5.43517,240.4,-29.7,-8.4,14.8,-20.508427528487417,-42.92893419902418,0.10017742172978394
21.5,54.2651,5.54118,236.5,-28.3,8.2,14.8,-20.930633482830352,-43.26838285021539,0.10018109095538819
21.599999999999966,54.7495,5.60668,235.3,-24.0,18.0,14.8,-21.306248087662212,-43.63743211019007,0.10018485162077617
21.69999999999999,55.2565,5.63785,234.6,-22.3,20.9,14.8,-21.65667427344445,-44.04099262820645,0.1001888075499533
21.80000000000001,55.7772,5.70042,233.8,-22.1,20.8,14.8,-21.97886069047076,-44.470698122048645,0.10019289264132603
21.899999999999977,56.355,5.73598,233.9,-21.0,20.8,14.8,-22.330513116928728,-44.94981098888586,0.10019747361831932
22.0,56.9184,5.72062,234.1,-20.0,21.1,14.8,-22.605586434598855,-45.44572098887911,0.10020195733536319
22.099999999999966,57.5129,5.8217,234.1,-19.4,21.1,14.8,-22.855552171938704,-45.986158113535794,0.10020671952766236
22.19999999999999,58.0892,5.96911,234.1,-19.0,21.3,14.8,-23.059428015490912,-46.5265492133111,0.10021137284910964
22.30000000000001,58.7053,6.07153,234.1,-18.5,21.3,14.8,-23.237310581899735,-47.12149854713625,0.10021638445057768
22.399999999999977,59.3061,6.23594,234.2,-18.3,21.6,14.8,-23.387147113780344,-47.711472301133036,0.10022131528491052
22.5,59.9321,6.36098,234.3,-18.3,21.7,14.8,-23.50275805130155,-48.343307807509646,0.10022649440886156
22.599999999999966,60.524,6.5397,234.1,-18.7,21.4,14.8,-23.581546016886954,-48.95322129960003,0.1002314346921267
22.69999999999999,61.1409,6.69749,234.0,-20.6,20.2,14.8,-23.63462248377669,-49.60040297102843,0.10023662550483614
22.80000000000001,61.7283,6.84505,235.1,-24.0,13.4,14.8,-23.67082403429461,-50.22195878750152,0.10024162002637205
22.899999999999977,62.429,6.87111,237.7,-25.7,0.0,14.8,-23.72410223173872,-50.958359070048445,0.10024765404229363
23.0,63.0846,6.64418,240.5,-23.1,-15.2,14.8,-23.79604286946972,-51.6376198352673,0.1002533807574224
23.099999999999966,63.754,6.56048,240.8,-18.6,-23.5,14.8,-23.90964652934366,-52.31436828338275,0.10025931750517003
23.19999999999999,64.3972,6.40176,241.1,-17.0,-24.2,14.8,-24.06402056931637,-52.94643701686145,0.10026511049292353
23.30000000000001,65.0793,6.21738,241.5,-16.4,-24.4,14.8,-24.27215752503648,-53.5987401448294,0.10027134516263914
23.399999999999977,65.7021,6.10101,241.6,-15.8,-25.5,14.8,-24.496823092764124,-54.180535293607136,0.10027711791576799
23.5,66.3236,6.05171,241.5,-15.2,-25.9,14.8,-24.759674183446755,-54.74575087577531,0.10028295803089549
23.599999999999966,66.9509,5.99611,241.5,-15.2,-26.4,14.8,-25.023559681018895,-55.31676675344425,0.10028891283186603
23.69999999999999,67.5672,5.93571,241.5,-15.0,-26.7,14.8,-25.35087109688231,-55.85037725514948,0.10029485699297958
23.80000000000001,68.1335,5.9204,241.6,-15.0,-26.7,14.8,-25.695132960297215,-56.323064162354456,0.10030039248945144
23.899999999999977,68.7085,5.91649,241.6,-15.3,-26.8,14.9,-26.091017199556966,-56.78368971603974,0.0003060849226574902
24.0,69.2317,5.93374,241.7,-16.0,-26.4,14.9,-26.496497577229412,-57.18378022978261,0.00031133448248610307
24.099999999999966,69.7234,6.05565,241.8,-21.8,-20.8,14.9,-26.94119817252045,-57.53258890134106,0.00031633803000197247
24.19999999999999,70.24,6.16258,239.8,-27.5,-6.9,14.9,-27.38594772332156,-57.907233408976055,0.0003216256958431529
24.30000000000001,70.8059,6.22731,236.5,-27.2,9.6,14.9,-27.848496663296515,-58.32678711490621,0.00032745552001856026
24.399999999999977,71.3676,6.28151,235.4,-23.1,18.7,14.9,-28.262587646449457,-58.761568645914956,0.0003332709064363115
24.5,71.9636,6.26673,234.4,-21.7,20.3,14.9,-28.667113925220406,-59.23714674027096,0.0003394775080565182
24.599999999999966,72.5615,6.32186,233.5,-21.8,20.4,14.9,-29.032333462969834,-59.73133587829895,0.000345740804418071
24.69999999999999,73.2049,6.36976,233.6,-20.9,21.4,14.9,-29.395888267551292,-60.27572271116949,0.00035252828853771234
24.80000000000001,73.8176,6.47688,233.9,-20.0,22.2,14.9,-29.700204320173683,-60.812243162114356,0.000359031106954788
24.899999999999977,74.4515,6.56612,233.9,-19.9,22.0,14.9,-30.011761449141012,-61.36864266971412,0.0003658190305344533
25.0,75.0714,6.57285,234.1,-19.4,21.5,14.9,-30.23998073124927,-61.94634877727556,0.00037247957091324224
25.099999999999966,75.7256,6.69772,234.2,-18.9,20.8,14.9,-30.443606667231332,-62.572190454363955,0.0003795560241020013
25.19999999999999,76.3789,6.8818,234.2,-18.8,21.2,14.9,-30.624144963805982,-63.207097064049904,0.00038667739585385164
25.30000000000001,77.1236,7.03364,234.4,-19.1,21.1,14.9,-30.822938836552225,-63.933715952344045,0.00039487348559852364
25.399999999999977,77.8217,7.2314,234.5,-21.0,18.9,14.8,-30.967914376048956,-64.63264956555847,0.1004026155350406
25.5,78.559,7.30984,236.3,-24.3,9.6,14.8,-31.100210655250343,-65.3793226925379,0.10041086536633514
25.599999999999966,79.2624,7.3292,239.7,-24.7,-7.0,14.8,-31.229241936188394,-66.09024723994477,0.10041881753079096
25.69999999999999,79.9986,7.21861,240.8,-18.9,-21.3,14.8,-31.393048822602445,-66.82164671589128,0.10042723834895284
25.80000000000001,80.7229,7.10456,240.4,-15.8,-25.1,14.8,-31.612231346066004,-67.51645032752293,0.1004356339570851
25.899999999999977,81.4459,6.89666,241.8,-16.8,-24.9,14.9,-31.85376510610261,-68.20037253568469,0.00044410873113065463
26.0,82.1189,6.71361,241.5,-15.3,-25.3,14.9,-32.112196875903265,-68.82274764452663,0.00045208848558786485
26.099999999999966,82.8105,6.63062,241.4,-14.8,-26.2,14.9,-32.414093293877634,-69.44690250672085,0.0004603799204705439
26.19999999999999,83.4502,6.57723,241.7,-15.5,-26.5,14.9,-32.7262826922604,-70.01021388120374,0.00046813228799180706
26.30000000000001,84.1136,6.55463,241.5,-15.4,-26.3,14.9,-33.08588385256506,-70.57907769831623,0.0004762572437186918
26.399999999999977,84.7368,6.5661,241.4,-15.5,-26.5,14.9,-33.462291003081084,-71.09688865001837,0.0004839745459168654
26.5,85.3856,6.57243,241.7,-15.8,-26.3,14.9,-33.89379324997897,-71.61851850996666,0.0004920916452810786
26.599999999999966,85.9913,6.64609,241.8,-16.1,-26.4,14.9,-34.32934698916454,-72.09088247108616,0.0004997459268469839
26.69999999999999,86.6205,6.72795,241.9,-20.4,-24.1,14.9,-34.81227782967083,-72.56772207265244,0.0005077761568266226
26.80000000000001,87.2186,6.84657,241.3,-27.2,-13.5,14.9,-35.29204482411083,-73.01098964640924,0.0005154765265302785
26.899999999999977,87.8563,6.92718,237.7,-28.4,3.4,14.9,-35.80221838028771,-73.48334664922811,0.0005237499570540649
27.0,88.4726,6.8115,235.5,-24.5,16.1,14.9,-36.28163267281273,-73.94504228881061,0.0005317988112878425
27.099999999999966,89.1531,6.83878,234.6,-21.7,20.8,14.9,-36.739478710626386,-74.48620795381305,0.0005407207499494859
27.19999999999999,89.8037,6.88895,233.7,-21.0,20.7,14.9,-37.142593692537275,-75.01885041035398,0.0005493012616319959
27.30000000000001,90.4877,6.88865,233.9,-19.1,21.0,14.9,-37.53052660277075,-75.59478670270514,0.0005583737442798054
27.399999999999977,91.147,6.94578,233.9,-18.4,21.8,14.9,-37.86768135380073,-76.16663687125683,0.0005671701644018867
27.5,91.8279,6.94731,234.1,-18.0,22.0,14.9,-38.21310003538264,-76.75830504901788,0.0005763240841147876
27.599999999999966,92.5045,7.02148,234.4,-17.3,21.6,14.9,-38.48740939788092,-77.37777122052098,0.0005854577428507923
27.69999999999999,93.2251,7.06446,234.3,-17.3,21.9,14.9,-38.74345049853268,-78.05397223698583,0.0005952453295066107
27.80000000000001,93.9129,7.16682,234.4,-16.8,22.3,14.9,-38.95261729893602,-78.71534195182127,0.0006046449604220072
27.899999999999977,94.6563,7.24844,234.4,-17.1,22.2,14.9,-39.15351652353542,-79.44158756787229,0.0006148743931717604
28.0,95.3365,7.22619,234.5,-18.8,20.7,14.9,-39.29653246056443,-80.12436319364978,0.0006242881032356706
28.099999999999966,96.0397,7.35075,235.6,-23.4,12.4,14.9,-39.42366420253544,-80.83924446873998,0.0006340885647659888
28.19999999999999,96.7427,7.4296,238.7,-25.3,-3.0,14.9,-39.55746791206333,-81.55060517757761,0.0006439677229828078
28.30000000000001,97.544,7.33044,240.7,-21.5,-18.1,14.9,-39.76717380006188,-82.33552571040656,0.0006553499730657109
28.399999999999977,98.2742,7.24974,240.5,-17.6,-24.0,14.9,-39.97100290848415,-83.04506946804679,0.0006658200588951502
28.5,99.0242,7.06932,241.2,-16.7,-24.5,14.9,-40.21796432862054,-83.75704979988596,0.0006766778775677551
28.599999999999966,99.7212,6.968,241.5,-16.0,-25.0,14.9,-40.482491881586895,-84.40314628784105,0.0006868668924795429
28.69999999999999,100.451,6.85473,241.4,-15.2,-25.8,14.9,-40.79552045572188,-85.06377635185402,0.0006976362994244312
28.80000000000001,101.115,6.79081,241.5,-15.3,-26.2,14.9,-41.1174379120645,-85.64775439037415,0.0007075186799205824
28.899999999999977,101.798,6.74531,241.4,-15.4,-26.5,14.9,-41.48618637269418,-86.23198489997841,0.0007177796794159974
29.0,102.436,6.59125,241.5,-15.7,-26.6,14.9,-41.87051576665968,-86.76080181073735,0.0007274647486461561
29.099999999999966,103.097,6.60729,241.6,-16.0,-26.3,14.9,-42.30968021854142,-87.28932904714216,0.0007375778292910695
29.19999999999999,103.71,6.68699,241.7,-16.3,-26.1,14.9,-42.734437751782544,-87.77081252584235,0.0007470227343766567
29.30000000000001,104.344,6.73786,241.9,-17.3,-25.7,14.9,-43.22957334561015,-88.24343780769196,0.0007568866846412448
29.399999999999977,104.942,6.85559,242.3,-19.5,-24.4,14.9,-43.729436618831194,-88.67294489707905,0.0007662574365454589
29.5,105.57,6.92887,241.6,-22.8,-18.2,14.9,-44.28086680029438,-89.11191468630119,0.0007761880263892351
29.599999999999966,106.176,6.98574,239.3,-25.3,-5.3,14.9,-44.81684089476888,-89.53186072480122,0.0007858204730055718
29.69999999999999,106.831,6.92346,236.1,-24.9,10.7,14.9,-45.368467277767635,-89.99771272070407,0.0007962855085601461
29.80000000000001,107.46,6.8669,234.9,-21.8,20.1,14.9,-45.8619442329278,-90.46243395885791,0.0008063952995378543
29.899999999999977,108.127,6.76588,234.1,-20.1,21.6,14.9,-46.34084870633007,-90.97372531526295,0.0008171351449099973
30.0,108.742,6.64201,233.4,-19.8,22.2,14.9,-46.75361146767003,-91.45942464751172,0.0008270985158524979
30.099999999999966,109.367,6.63254,233.8,-18.4,23.1,15.0,-47.14196377516228,-91.96741752584867,-0.09916273554187782
30.19999999999999,109.982,6.63062,234.2,-17.5,23.7,15.0,-47.478268502711984,-92.48977364720653,-0.09915268372157371
30.30000000000001,110.657,6.63146,234.3,-17.1,23.1,14.9,-47.79820531969503,-93.08547359589164,0.0008583713418701677
30.399999999999977,111.32,6.67644,234.5,-16.5,23.0,14.9,-48.07157757919783,-93.69085061644762,0.0008692879789293784
30.5,112.005,6.73554,234.6,-16.4,23.0,14.9,-48.30352760071851,-94.339536504759,0.0008805994498608527
30.599999999999966,112.661,6.7965,235.2,-16.0,21.0,14.9,-48.492573560620855,-94.97716368167447,0.0008914930267707177
30.69999999999999,113.355,6.84334,236.2,-15.7,13.9,14.9,-48.666165670742394,-95.6641408001667,0.0009030778575862541
30.80000000000001,114.013,6.82555,236.9,-16.8,5.3,14.9,-48.814855804789815,-96.32298311766428,0.0009141235249998658
30.899999999999977,114.741,6.80188,237.7,-17.0,-0.8,14.9,-48.97311540511109,-97.05413233457493,0.0009264142162805911
31.0,115.393,6.67227,238.1,-15.5,-4.0,14.9,-49.116361574492956,-97.7080564384637,0.0009374942044324541
31.099999999999966,116.073,6.56859,238.1,-13.2,-5.0,14.9,-49.270021405830235,-98.38751867686696,0.0009491185226551124
31.19999999999999,116.691,6.43966,238.1,-10.2,-5.3,14.9,-49.4107481630688,-99.0050679248109,0.0009597585833986955
31.30000000000001,117.264,6.16371,238.0,-4.3,-6.4,14.9,-49.50495910159067,-99.59393993039862,0.0009696503538485501
31.399999999999977,117.812,5.47815,234.4,22.2,-13.3,14.9,-49.61969200146362,-100.14658239324095,0.0009791901288451754
31.5,118.359,4.93584,234.5,24.5,-14.1,14.9,-49.73227505529417,-100.69776619236603,0.0009887396818903937
31.599999999999966,118.824,4.32537,235.2,22.2,-13.3,14.9,-49.82675296374157,-101.16656987373528,0.0009968917342142447
31.69999999999999,119.324,3.62715,234.1,28.0,-13.2,14.9,-49.89498737667503,-101.68631184940946,0.0010056844039070256
31.80000000000001,119.671,3.05294,235.1,23.7,-13.9,14.9,-49.96880615610388,-102.03482549967237,0.0010118247389243606
31.899999999999977,119.978,2.45164,234.0,28.4,-14.2,14.9,-50.03543613429167,-102.34213001883501,0.0010172670088124391
32.0,120.206,1.82472,235.4,23.7,-12.2,14.9,-50.08678695729303,-102.56997939739523,0.0010213287523086478
32.099999999999966,120.428,1.4432,236.7,16.2,-11.5,14.9,-50.13990625490301,-102.79060423275129,0.001025295834914175
32.19999999999999,120.559,1.08605,236.4,16.4,-9.9,14.8,-50.16627417892036,-102.92263837899283,0.10102763144154991
32.30000000000001,120.659,0.806042,237.2,9.1,-8.3,14.8,-50.18133924286204,-103.02622632863873,0.10102942111710433
32.39999999999998,120.731,0.581047,237.2,4.6,-7.6,14.8,-50.19256728362154,-103.09990788344406,0.10103069932836917
32.5,120.789,0.421699,237.3,0.3,-6.0,14.8,-50.204298280214545,-103.15831551825642,0.10103173507490837
32.599999999999966,120.823,0.316308,237.5,-3.8,-4.9,14.8,-50.1927685056882,-103.2008303832242,0.10103233163440706
32.69999999999999,120.852,0.247977,237.5,-5.4,-4.1,14.8,-50.20139642124708,-103.22891159262451,0.10103285411206286
32.80000000000001,120.868,0.184934,237.4,-6.6,-4.1,14.8,-50.20787466138416,-103.24321568687034,0.10103313562073879
