time,distance(meters),speed(m/s), compass_heading(degrees), pitch(degrees), roll(degrees),height_above_takeoff(meters),North,East,Down
0.0,134.891,1.75308,243.7,-7.8,-21.0,17.0,0.0,0.0,0.0
0.09999999999999432,134.876,2.06359,243.8,-7.8,-22.2,17.0,-0.15674688244315918,0.08560278479183914,1.8850183358676276e-09
0.20000000000001705,134.857,2.34672,244.0,-7.7,-23.1,17.0,-0.3473824759516455,0.19126024503733394,1.235102006780231e-08
0.30000000000001137,134.835,2.64109,244.1,-7.6,-23.5,17.0,-0.5420056614614934,0.3016984595331867,2.9240758619986096e-08
0.4000000000000057,134.815,2.95156,244.2,-7.7,-23.2,17.0,-0.7939576380937663,0.4359334797335371,6.430427151871143e-08
0.5,134.791,3.23624,244.2,-7.7,-22.2,17.0,-1.0570690893891788,0.579982005503492,1.1378285147412015e-07
0.5999999999999943,134.761,3.47885,244.1,-7.7,-21.1,17.0,-1.356739196084622,0.7476058695004495,1.886452505317493e-07
0.700000000000017,134.733,3.6981,244.2,-8.1,-20.6,17.1,-1.6862468848013008,0.9283882582104866,-0.09999970832436567
0.8000000000000114,134.704,3.89913,244.1,-8.1,-19.8,17.1,-2.0341263524034616,1.1198547804724275,-0.09999957626342282
0.9000000000000057,134.673,4.09118,244.0,-8.1,-19.2,17.1,-2.3788561963940356,1.312665413919194,-0.09999941900554288
1.0,134.639,4.27148,243.9,-8.4,-18.4,17.1,-2.7547412276831014,1.5254772962484298,-0.09999922111719162
1.0999999999999943,134.604,4.41838,243.8,-8.3,-16.9,17.1,-3.1381044354106327,1.7446278767961685,-0.09999898601667234
1.200000000000017,134.569,4.5233,243.6,-8.2,-15.0,17.1,-3.5421048417274013,1.9744778821132845,-0.09999870645535647
1.3000000000000114,134.532,4.56569,243.2,-7.8,-12.0,17.1,-3.9287332294249078,2.1999748209164083,-0.09999840632012291
1.4000000000000057,134.488,4.57911,242.9,-5.5,-7.7,17.1,-4.332282851931056,2.443311751237949,-0.09999805597940248
1.5,134.444,4.53578,242.7,-2.6,-5.2,17.1,-4.712704464414564,2.676835192649114,-0.09999769097808198
1.5999999999999943,134.396,4.43286,242.5,-0.5,-2.5,17.1,-5.11004152350675,2.925372941845943,-0.09999727462584662
1.700000000000017,134.336,4.21495,242.4,-0.4,4.0,17.1,-5.463324400849935,3.166724295189338,-0.09999686461013857
1.8000000000000114,134.264,3.87159,242.2,-1.1,14.6,17.1,-5.802910770711115,3.4171254844692482,-0.09999643678013914
1.9000000000000057,134.191,3.41795,242.1,-1.4,22.7,17.1,-6.078453030205223,3.6364212771021243,-0.09999605678022538
2.0,134.114,2.91525,241.7,-2.3,26.3,17.1,-6.305196449070186,3.837678521560965,-0.09999571784220418
2.0999999999999943,134.036,2.35322,242.6,-0.8,29.2,17.0,-6.495854981826351,4.021966345779623,4.5865281950163705e-06
2.200000000000017,133.948,1.86342,243.0,-0.3,30.1,17.0,-6.652578676958508,4.200404299806823,4.8646876349423e-06
2.3000000000000114,133.858,1.43031,242.9,-0.9,29.7,17.0,-6.746581657128252,4.349775916085842,5.063749624056868e-06
2.4000000000000057,133.741,1.24481,243.4,-0.3,29.0,17.0,-6.8309797468369515,4.525525636849431,5.276216301641767e-06
2.5,133.633,1.18755,243.2,-0.5,26.9,16.9,-6.817375546880762,4.6392477324180375,0.1000053419359439
2.5999999999999943,133.514,1.29048,242.3,-1.6,23.4,16.9,-6.753926627423275,4.740422326851056,0.10000534896220126
2.700000000000017,133.395,1.48267,241.3,-3.3,20.7,16.8,-6.648839089082561,4.820457685367935,0.20000529824477464
2.8000000000000114,133.286,1.7076,240.0,-6.7,21.2,16.9,-6.489376122252308,4.86210209936462,0.10000516429872253
2.9000000000000057,133.17,1.98275,239.8,-8.0,21.2,16.8,-6.306871619288058,4.89862194555425,0.20000500909740726
3.0,133.051,2.27463,240.5,-7.0,19.2,16.8,-6.07875270050468,4.915629367651365,0.20000479964400641
3.0999999999999943,132.935,2.55005,241.0,-6.2,18.2,16.8,-5.830643826640576,4.92031834495313,0.20000457082072698
3.200000000000017,132.809,2.84774,241.4,-5.9,18.3,16.8,-5.540393683953047,4.914781400081377,0.2000043061154413
3.3000000000000114,132.685,3.12198,241.6,-5.8,18.4,16.9,-5.207667136025479,4.8862190326912565,0.10000400300008128
3.4000000000000057,132.57,3.40773,241.8,-5.7,18.2,16.9,-4.8668266468745225,4.844421714745975,0.10000370174558704
3.5,132.459,3.65507,241.8,-5.9,18.0,16.9,-4.517687351628444,4.795216531764744,0.1000034069769411
3.5999999999999943,132.341,3.90869,241.8,-6.0,17.8,16.9,-4.1269037697632225,4.7340747456231,0.10000309471069602
3.700000000000017,132.228,4.16032,242.0,-5.7,17.9,16.9,-3.720094725692112,4.6617066079455975,0.10000278966418152
3.8000000000000114,132.116,4.40648,242.0,-5.6,17.8,16.9,-3.2874299204678272,4.576241063621351,0.10000249074087075
3.9000000000000057,132.008,4.62105,242.0,-5.3,17.2,17.0,-2.8542103764664386,4.486995295092528,2.2171538225368437e-06
4.0,131.894,4.78818,242.1,-5.2,16.1,17.0,-2.3789246202943017,4.38637035581898,1.95195634233869e-06
4.099999999999994,131.797,4.85886,242.4,-5.7,12.3,17.0,-1.92193553780809,4.277612063841529,1.7227222751659e-06
4.200000000000017,131.692,4.81762,242.7,-7.0,3.4,17.0,-1.4366576927066987,4.166707777138637,1.5214917775674408e-06
4.300000000000011,131.593,4.58583,243.3,-7.2,-6.6,17.1,-0.983974057462311,4.065082500447562,-0.09999862983995755
4.400000000000006,131.491,4.19761,243.6,-6.3,-16.7,17.1,-0.5323942115725768,3.9701471557375827,-0.0999987435538795
4.5,131.391,3.71143,243.6,-5.3,-23.2,17.0,-0.12001407429476542,3.89182217517358,1.1872844637786373e-06
4.599999999999994,131.284,3.27264,243.9,-5.1,-25.2,17.0,0.24563038586060723,3.8438618678775804,1.161883482730941e-06
4.700000000000017,131.179,2.77404,244.6,-6.4,-25.0,17.0,0.5508715566863103,3.8223178600507746,1.1669357065646757e-06
4.800000000000011,131.066,2.37796,245.1,-7.9,-25.2,16.9,0.8255816731585219,3.823020292206855,0.10000119781882899
4.900000000000006,130.963,1.94835,244.9,-8.3,-24.4,16.9,1.0453960185292974,3.838530890721965,0.10000123903101865
5.0,130.862,1.59953,244.8,-8.6,-23.3,16.9,1.2579171212853,3.85414840591305,0.10000128645168371
5.099999999999994,130.769,1.28338,244.4,-8.3,-22.6,16.9,1.3971764218879126,3.8944868209048558,0.10000134100846292
5.200000000000017,130.674,1.08297,244.1,-8.0,-22.5,16.9,1.5027088238094684,3.952565914060197,0.10000140085413556
5.300000000000011,130.576,0.976263,243.8,-8.2,-22.5,16.9,1.5731966923808178,4.027797651082482,0.10000146544995325
5.400000000000006,130.442,1.04574,243.5,-7.9,-22.5,17.0,1.6226833107143641,4.152570468899969,1.5569716513841314e-06
5.5,130.339,1.1729,243.4,-7.6,-22.1,17.0,1.6306527575765752,4.262412959016025,1.6324393607991539e-06
5.599999999999994,130.231,1.35918,243.5,-8.0,-21.8,17.0,1.605883529759343,4.390920227306937,1.7132910929973377e-06
5.700000000000017,130.131,1.6066,243.6,-8.3,-22.7,17.0,1.549282966579344,4.525636351534424,1.7929454790843735e-06
5.800000000000011,130.029,1.88023,243.5,-8.0,-23.2,17.0,1.4339608439298215,4.6884030933776195,1.8820252658535708e-06
5.900000000000006,129.926,2.13166,243.7,-8.5,-22.4,17.0,1.3206209598084926,4.851826619251,1.9803401003493093e-06
6.0,129.816,2.38932,244.1,-9.3,-21.7,17.0,1.176622890419334,5.037489011373833,2.0964155830194287e-06
6.099999999999994,129.708,2.62828,244.1,-9.3,-21.5,17.0,1.014172130061754,5.228382740363653,2.2214986935553682e-06
6.200000000000017,129.579,2.85765,244.1,-9.0,-21.5,17.1,0.8078059278817928,5.463525187222801,-0.09999761038007288
6.300000000000011,129.472,3.0872,244.1,-9.0,-21.6,17.1,0.5999429055415928,5.674931854747923,-0.09999744917582565
6.400000000000006,129.362,3.33389,244.0,-8.8,-21.6,17.1,0.35906960775775426,5.905873919564074,-0.09999725878109489
6.5,129.258,3.55282,244.0,-8.9,-21.5,17.1,0.10866078175925327,6.135555905203211,-0.09999705130961113
6.599999999999994,129.15,3.77451,243.9,-9.0,-20.9,17.1,-0.17559629183085948,6.386499236738832,-0.09999680345643266
6.700000000000017,129.037,3.95493,243.7,-8.6,-19.3,17.1,-0.4693368698555619,6.648035074241779,-0.09999652165188555
6.800000000000011,128.935,4.05471,243.1,-7.1,-15.3,17.1,-0.7897827233847703,6.912045322764751,-0.09999620897060468
6.900000000000006,128.833,4.01695,242.4,-4.8,-8.0,17.1,-1.0944516036320608,7.169579419337674,-0.09999588036642992
7.0,128.719,3.80554,242.2,-1.9,3.1,17.1,-1.3986581281073152,7.440730252028182,-0.09999550962541259
7.099999999999994,128.61,3.42984,242.1,-0.1,15.4,17.1,-1.6702069016653698,7.692108969623378,-0.09999514623619254
7.200000000000017,128.488,3.03742,242.3,0.5,22.0,17.2,-1.8988111118227977,7.938561928986797,-0.1999947817505633
7.300000000000011,128.363,2.61188,242.5,1.5,24.3,17.2,-2.073403715518977,8.162783523353525,-0.19999444436797986
7.400000000000006,128.22,2.22567,243.4,3.4,28.2,17.2,-2.2054100220539286,8.386646157866748,-0.19999410926190553
7.5,128.08,1.94058,244.0,4.6,29.6,17.1,-2.309612999334295,8.594310614708922,-0.0999937947434264
7.599999999999994,127.92,1.84806,244.4,5.5,28.5,17.1,-2.3408142587919336,8.788618086337102,-0.0999935199434534
7.700000000000017,127.75,1.87171,244.8,6.0,26.8,17.0,-2.3106413163464867,8.962717933769305,6.711653732338618e-06
7.800000000000011,127.555,2.03295,244.3,5.2,24.2,17.0,-2.2217930795077745,9.1371538917294,6.926409219731866e-06
7.900000000000006,127.371,2.24785,244.1,5.0,21.3,17.0,-2.0919015982803453,9.278666833480028,7.086400428346629e-06
8.0,127.151,2.51781,242.9,2.6,21.1,16.9,-1.910697343381224,9.434659268918987,0.10000725770049801
8.099999999999994,126.928,2.82243,242.6,2.5,20.8,16.9,-1.6934545699859056,9.576867074033682,0.10000740838020739
8.200000000000017,126.681,3.12831,242.0,1.1,19.8,16.9,-1.4197556551532151,9.717295407725114,0.10000755227466152
8.300000000000011,126.439,3.40788,241.3,-1.0,20.0,16.9,-1.120432165088152,9.841036926630542,0.10000768251287373
8.400000000000006,126.171,3.72527,241.3,-1.3,19.4,16.9,-0.746633246987048,9.958554239406677,0.10000781017653265
8.5,125.916,3.99766,241.7,-0.3,18.1,16.9,-0.3751517775281084,10.061736946210013,0.10000793964789345
8.599999999999994,125.643,4.28571,242.1,0.4,17.8,16.9,0.04945707939756923,10.161986999743792,0.10000808779527459
8.700000000000017,125.373,4.56629,242.3,0.6,18.2,16.9,0.48090840409411323,10.255875444492286,0.10000825532183749
8.800000000000011,125.055,4.8648,242.5,1.0,18.8,16.9,0.9957523416855418,10.364014371536289,0.10000849009918683
8.900000000000006,124.779,5.13529,242.6,1.3,18.3,16.9,1.4806142193715526,10.443064115377783,0.10000871319336557
9.0,124.488,5.40083,242.6,1.2,17.4,16.9,2.016390060401007,10.514805214202386,0.1000089779957759
9.099999999999994,124.201,5.64411,242.6,0.9,17.1,16.9,2.555581361946629,10.583506794879467,0.10000928592977143
9.200000000000017,123.897,5.88889,242.5,0.8,16.8,16.9,3.1621975628146424,10.641791469682326,0.10000965618191637
9.300000000000011,123.601,6.10102,242.5,0.8,16.2,16.8,3.7454025304577567,10.704726914604281,0.20001007797103476
9.400000000000006,123.29,6.22565,242.5,0.4,14.2,16.8,4.374759528258425,10.765745580595212,0.2000105829365908
9.5,122.995,6.19609,242.3,-2.9,6.9,16.9,4.97985589056846,10.822464824881507,0.10001112410674962
9.599999999999994,122.701,5.98668,242.7,-7.4,-4.6,16.9,5.60736935570043,10.871569825270225,0.10001173008661723
9.700000000000017,122.415,5.66677,243.1,-7.7,-13.9,16.9,6.176935682699273,10.937964956789648,0.10001237104930816
9.800000000000011,122.12,5.27157,243.1,-7.0,-19.6,16.9,6.737879585163014,11.021436343484664,0.10001308548906707
9.900000000000006,121.843,4.84996,243.8,-8.1,-22.2,17.0,7.232453389713622,11.114438907402306,1.3790015810144496e-05
10.0,121.558,4.51707,244.5,-9.4,-22.0,17.0,7.710380379704446,11.225021590127486,1.454594880856419e-05
10.099999999999994,121.278,4.17956,244.6,-9.8,-20.7,17.0,8.151662032100987,11.346517525582522,1.531102557406072e-05
10.200000000000017,121.001,3.91833,244.5,-9.8,-19.9,17.0,8.56949493960506,11.475115846767498,1.6090433821336347e-05
10.300000000000011,120.751,3.60808,244.3,-9.5,-19.9,17.0,8.919119860517888,11.603637866638323,1.6803903140960585e-05
10.400000000000006,120.499,3.35784,244.0,-9.2,-19.9,17.0,9.23965563811806,11.74621956985891,1.7522200918662634e-05
10.5,120.261,3.11667,243.9,-9.4,-19.4,17.0,9.533896454524116,11.884998076439903,1.8214249800863058e-05
10.599999999999994,120.014,2.89302,243.9,-10.2,-19.3,16.9,9.793112835289385,12.047977967980376,0.10001891383157346
10.700000000000017,119.783,2.67849,243.8,-10.6,-19.2,16.9,10.009274973109557,12.21101917767982,0.10001955999809553
10.800000000000011,119.545,2.48238,243.8,-10.7,-18.8,16.9,10.205184233733144,12.389922374916239,0.10002021705038544
10.900000000000006,119.316,2.32996,243.6,-10.3,-18.8,16.8,10.349107335289455,12.579127695811644,0.20002081896948898
11.0,119.093,2.22031,243.5,-10.1,-18.6,16.8,10.480336787730378,12.768295037529214,0.20002141085647107
11.099999999999994,118.878,2.14376,243.5,-9.8,-17.9,16.8,10.584595119340397,12.958187919627076,0.20002196655079096
11.200000000000017,118.653,2.12954,243.6,-9.9,-17.2,16.8,10.673174743536217,13.16582146787838,0.2000225387056318
11.300000000000011,118.429,2.114,243.7,-10.0,-16.8,16.8,10.732321362120928,13.383413666250313,0.2000230909496441
11.400000000000006,118.217,2.10939,243.7,-9.9,-16.8,16.9,10.76494491457368,13.599028126352032,0.10002360044646608
11.5,118.022,2.13558,243.7,-10.0,-16.9,16.9,10.77270366672574,13.805516241334285,0.10002405837872352
11.599999999999994,117.824,2.20034,243.8,-9.8,-16.7,16.9,10.757568469855077,14.024689382511832,0.1000245088380014
11.700000000000017,117.634,2.26261,243.7,-9.7,-16.4,16.9,10.72491390610159,14.242808652916036,0.10002493670805457
11.800000000000011,117.427,2.3357,243.6,-9.8,-16.3,17.0,10.66021148529656,14.491453125766235,2.5388997842767935e-05
11.900000000000006,117.245,2.42522,243.6,-10.0,-16.4,17.0,10.593642211139391,14.714353188772646,2.5786645418968135e-05
12.0,117.062,2.53477,243.6,-9.6,-16.5,17.0,10.505109441164517,14.946791854270984,2.6179786080327005e-05
12.099999999999994,116.889,2.62257,243.6,-9.8,-16.3,17.0,10.40408511740379,15.174518529445622,2.6550439907957468e-05
12.200000000000017,116.715,2.66711,243.4,-10.2,-13.6,17.1,10.284330858043887,15.411058545091224,-0.09997307698726132
12.300000000000011,116.547,2.65319,243.0,-10.0,-7.9,17.0,10.160423988534031,15.643466485332397,2.7287343836057687e-05
12.400000000000006,116.373,2.58323,242.5,-8.3,-2.8,17.0,10.028911995170409,15.885397981278604,2.7676642573304377e-05
12.5,116.21,2.42014,242.1,-6.3,3.9,17.1,9.916540539869041,16.10728267381227,-0.09997194258475695
12.599999999999994,116.032,2.16014,242.1,-4.0,12.5,17.0,9.817411641960405,16.341492900666452,2.8497198239385568e-05
12.700000000000017,115.869,1.9149,242.2,-2.2,18.9,17.0,9.758421685841283,16.542849121630418,2.8924824748699507e-05
12.800000000000011,115.695,1.7456,242.2,-1.4,22.1,17.1,9.734297261687281,16.741494413830775,-0.09997059335034653
12.900000000000006,115.531,1.68032,242.1,-1.0,22.8,17.0,9.755934402965172,16.90955308361441,2.9881594476144357e-05
13.0,115.361,1.70074,241.9,-0.9,21.9,17.0,9.804583255109467,17.073915674424597,3.0394722445592492e-05
13.099999999999994,115.197,1.83025,241.2,-2.2,20.9,16.9,9.904322153570405,17.21026553417674,0.10003091419928989
13.200000000000017,115.024,1.98629,241.0,-3.4,20.2,16.9,10.045561006444087,17.339352836235467,0.10003148516641858
13.300000000000011,114.864,2.20288,241.0,-3.6,19.4,16.9,10.21770651032994,17.441840547635415,0.10003203926530979
13.400000000000006,114.698,2.42836,241.1,-3.3,18.2,16.9,10.434830834404645,17.531704279894836,0.10003263786515504
13.5,114.543,2.66204,241.6,-2.0,16.6,16.9,10.666775658979459,17.603483654874836,0.10003322133725412
13.599999999999994,114.364,2.92413,242.0,-1.7,16.8,16.9,10.951712075556383,17.681288500574723,0.10003392032435965
13.700000000000017,114.191,3.20194,242.0,-2.5,18.5,16.9,11.250847742120119,17.745827911277726,0.10003462302474464
13.800000000000011,114.01,3.47126,242.2,-2.3,18.9,16.9,11.594751289748134,17.80340233892295,0.10003540128890354
13.900000000000006,113.828,3.73978,242.3,-2.3,18.2,16.9,11.97704257445206,17.84555766049412,0.10003622828437653
14.0,113.64,4.00752,242.3,-2.5,18.0,17.0,12.378399353394737,17.8893551822227,3.712028131097611e-05
14.099999999999994,113.461,4.25966,242.3,-2.5,18.1,17.0,12.785121826966822,17.92175805905336,3.801672490943986e-05
14.200000000000017,113.274,4.50823,242.3,-2.4,18.2,17.0,13.238533744710814,17.946646085131913,3.9015735391778605e-05
14.300000000000011,113.096,4.75797,242.3,-2.5,18.3,17.0,13.703347822296504,17.95803958396001,4.0031669980677975e-05
14.400000000000006,112.903,5.02139,242.3,-2.8,18.2,17.0,14.205390960773869,17.974206116606396,4.118002215580674e-05
14.5,112.717,5.22647,242.2,-2.9,17.0,17.0,14.706613448325172,17.984026328765566,4.234877491615663e-05
14.599999999999994,112.522,5.36696,242.2,-3.3,14.6,17.0,15.254204648307347,17.98983705962436,4.3655654955898626e-05
14.700000000000017,112.334,5.44338,242.3,-3.7,10.5,17.0,15.79538102929621,17.992096618977897,4.4983635694606505e-05
14.800000000000011,112.138,5.46396,242.5,-3.3,5.5,17.1,16.358992188781457,17.997922874395478,-0.09995357360096513
14.900000000000006,111.949,5.39478,242.7,-3.2,0.6,17.1,16.895603089280996,18.007819389073127,-0.09995214070671388
15.0,111.75,5.23603,243.0,-4.9,-5.1,17.1,17.450756278012744,18.025352827351703,-0.09995059190572864
15.099999999999994,111.56,4.93004,243.6,-7.1,-13.6,17.1,17.95690262272238,18.05180631729899,-0.09994910602405938
15.200000000000017,111.359,4.53254,244.1,-7.8,-21.7,17.0,18.481070844448347,18.08563678896779,5.249208168223163e-05
15.300000000000011,111.166,4.07084,244.1,-7.5,-26.2,17.0,18.906419456907372,18.146716369309786,5.391602286941577e-05
15.400000000000006,110.96,3.65787,244.5,-7.8,-26.6,17.0,19.302444893412158,18.23293685469412,5.5353217932818666e-05
15.5,110.761,3.2387,245.0,-8.7,-26.7,17.0,19.633374439841734,18.333843304232477,5.665598707871311e-05
15.599999999999994,110.54,2.91733,245.0,-9.2,-27.3,16.9,19.950630325978178,18.46278474658923,0.10005801561328376
15.700000000000017,110.339,2.57874,245.0,-9.7,-27.7,16.9,20.187776484608754,18.598279124927995,0.10005915872170945
15.800000000000011,110.126,2.32148,244.8,-10.0,-27.5,16.9,20.38663029034167,18.75804380188152,0.10006026033774518
15.900000000000006,109.924,2.12948,244.6,-10.2,-27.6,17.0,20.53339149765029,18.922780524385658,6.121774645428957e-05
16.0,109.716,2.03781,244.7,-10.7,-28.0,17.0,20.649433546883632,19.10481470693074,6.21380380945169e-05
16.099999999999994,109.513,2.06422,244.7,-10.8,-27.8,17.0,20.70950202563664,19.299037577074067,6.291666772462179e-05
16.200000000000017,109.297,2.19262,244.5,-10.5,-27.1,16.9,20.726547632061994,19.520951808967606,0.10006364559472836
16.30000000000001,109.092,2.37048,244.4,-10.3,-26.5,16.9,20.699325558000922,19.745165149582018,0.10006424685959736
16.400000000000006,108.87,2.59382,244.5,-10.3,-25.8,16.9,20.615528945138674,20.005906149824703,0.10006478634733895
16.5,108.665,2.82176,244.7,-10.4,-25.4,16.9,20.51549012003018,20.253954574520698,0.10006524459632438
16.599999999999994,108.45,3.08586,244.7,-10.4,-25.5,17.0,20.375656688671324,20.52645693575292,6.566484827885688e-05
16.700000000000017,108.245,3.34278,244.7,-10.3,-25.5,17.0,20.209236141700302,20.79731709744548,6.601149255303085e-05
16.80000000000001,108.029,3.59532,244.6,-10.0,-25.5,17.0,20.00030160599939,21.094456109577475,6.632445634124906e-05
16.900000000000006,107.824,3.86618,244.6,-9.8,-25.4,17.0,19.750549208641203,21.394222335650525,6.654068776867916e-05
17.0,107.609,4.16038,244.6,-9.9,-25.0,17.0,19.48640107876794,21.710698259653242,6.67939269511919e-05
17.099999999999994,107.401,4.41097,244.7,-10.1,-24.6,17.1,19.203479826798322,22.027632809335167,-0.0999329818080561
17.200000000000017,107.18,4.65811,244.5,-10.1,-23.9,17.1,18.87650127192601,22.37467201146906,-0.09993275491009967
17.30000000000001,106.963,4.8423,244.3,-9.9,-21.5,17.1,18.52748119935016,22.727431367832,-0.09993253646262268
17.400000000000006,106.751,4.92396,243.6,-8.8,-15.9,17.2,18.161199229066895,23.082696068974887,-0.19993231959693247
17.5,106.546,4.89661,242.6,-6.1,-7.7,17.2,17.814811551225084,23.426054373617596,-0.1999320489466978
17.599999999999994,106.325,4.71702,242.1,-2.4,1.8,17.2,17.467363454505367,23.788444000458014,-0.19993167463959427
17.700000000000017,106.116,4.42123,242.3,0.1,12.3,17.2,17.148608618629606,24.12902244198126,-0.19993126386619942
17.80000000000001,105.894,4.14273,242.4,0.8,17.6,17.2,16.863418891860505,24.47259450793759,-0.19993072008231927
17.900000000000006,105.683,3.83196,242.2,1.2,18.2,17.2,16.629718113297322,24.786939832694046,-0.1999301230007413
18.0,105.458,3.52156,243.0,3.4,22.1,17.2,16.428328381182858,25.105340314041285,-0.1999294024866236
18.099999999999994,105.254,3.27365,243.6,5.0,23.4,17.2,16.236323875129244,25.398019519289747,-0.19992873848706427
18.200000000000017,105.013,3.12157,243.7,5.7,22.5,17.1,16.10349727436197,25.707629305692926,-0.09992783596664623
18.30000000000001,104.775,2.95596,244.0,6.2,23.4,17.0,16.03260249827362,25.99094489334887,7.313067141634377e-05
18.400000000000006,104.511,2.90006,244.6,7.5,21.2,17.0,16.014664899868084,26.281729692990325,7.427565022766203e-05
18.5,104.247,2.94632,244.1,6.9,18.0,17.0,16.0398798977702,26.55605672676583,7.547618808079193e-05
18.599999999999994,103.973,3.03433,243.8,6.5,15.9,16.9,16.114936588702328,26.82185273105315,0.10007677579008512
18.700000000000017,103.679,3.14457,243.1,5.3,15.3,16.9,16.216828882496173,27.09789022355398,0.10007819955108754
18.80000000000001,103.357,3.25067,242.3,2.7,16.8,16.9,16.364824095465632,27.38613908452382,0.10007980945173944
18.900000000000006,103.04,3.37621,241.9,1.2,16.3,16.9,16.541587692736776,27.65793784811243,0.10008143959463212
19.0,102.682,3.49926,241.7,0.6,13.9,16.9,16.7808235564352,27.9486302615612,0.10008333083031484
19.099999999999994,102.351,3.64024,241.6,0.2,13.1,16.8,17.018085521627725,28.212592874427678,0.2000851247145521
19.200000000000017,101.997,3.80321,241.9,1.0,13.0,16.9,17.295206596269463,28.48506381046256,0.1000870825355662
19.30000000000001,101.652,3.97232,242.2,1.8,12.7,16.9,17.586159666832494,28.74358917013458,0.10008903867834462
19.400000000000006,101.252,4.19447,242.3,2.3,12.8,16.9,17.95104214207106,29.031799144821264,0.1000913634966718
19.5,100.894,4.38129,242.4,2.3,12.7,16.9,18.288638450395382,29.28662805060933,0.10009349121101252
19.599999999999994,100.515,4.57506,242.5,2.3,12.7,16.9,18.664954840156003,29.550964829572713,0.1000958030673278
19.700000000000017,100.152,4.75226,242.4,2.0,12.3,16.9,19.043842891607405,29.796193927399983,0.10009806550185907
19.80000000000001,99.7944,4.91405,242.4,1.6,12.0,16.8,19.47156408536155,30.019580688890585,0.20010040935921936
19.900000000000006,99.4249,5.08035,242.4,1.2,12.0,16.8,19.891556060917374,30.259165910819668,0.20010284215296537
20.0,99.0296,5.24277,242.5,1.2,11.9,16.8,20.35332818462482,30.512222563828793,0.20010550785190517
20.099999999999994,98.6481,5.33157,242.5,0.7,10.2,16.7,20.80926305089878,30.753968397006588,0.30010814437301825
20.200000000000017,98.2458,5.3161,242.3,-2.8,4.0,16.7,21.295030064465244,31.008605773246483,0.3001109858228137
20.30000000000001,97.8631,5.16214,242.6,-7.2,-4.0,16.7,21.7646848708491,31.249588310619217,0.30011375201617163
20.400000000000006,97.4724,4.91945,243.2,-8.9,-11.8,16.7,22.225174063063257,31.503584207935724,0.30011659416904557
20.5,97.1093,4.63793,243.6,-9.1,-18.4,16.6,22.628617239853753,31.749278414266143,0.40011923678937755
20.599999999999994,96.7353,4.37463,243.9,-9.0,-21.6,16.7,23.01051956839233,32.01488318831182,0.3001219331384064
20.700000000000017,96.379,4.10819,244.2,-9.5,-23.0,16.7,23.35442675010951,32.27531734758299,0.3001244990822052
20.80000000000001,96.0112,3.94532,244.4,-10.0,-23.5,16.7,23.654265400968207,32.563336302522416,0.3001270711276476
20.900000000000006,95.6648,3.73737,244.5,-10.4,-23.8,16.7,23.90248790203175,32.846307396359336,0.30012944999143265
21.0,95.3049,3.56592,244.5,-10.5,-23.4,16.7,24.124950098612466,33.1522886813704,0.30013187190756163
21.099999999999994,94.9333,3.4333,244.4,-10.3,-23.2,16.7,24.35735528650491,33.46743426141883,0.30013440235947364
21.200000000000017,94.5761,3.32394,244.3,-10.3,-23.0,16.7,24.512066131168844,33.79311907395186,0.3001367135044415
21.30000000000001,94.2474,3.27846,244.3,-10.3,-22.7,16.7,24.615065445204024,34.1058670725611,0.30013877443576575
21.400000000000006,93.912,3.2929,244.3,-10.1,-22.7,16.7,24.67999782363912,34.438158146546,0.30014080935436915
21.5,93.6004,3.3387,244.3,-10.1,-22.8,16.7,24.696483865884723,34.761346144000925,0.30014262619047827
21.599999999999994,93.2725,3.42212,244.3,-10.1,-22.6,16.8,24.696398795361,35.107285220450514,0.20014451812374645
21.700000000000017,92.9636,3.5042,244.2,-10.1,-22.5,16.8,24.663375253383073,35.44438028422128,0.20014625277397258
21.80000000000001,92.6426,3.58704,244.3,-10.4,-22.0,16.9,24.596555945960212,35.805723341042864,0.10014800866118989
21.900000000000006,92.3488,3.69684,244.4,-10.4,-21.8,16.9,24.503906442072562,36.147438989034896,0.10014957708423111
22.0,92.0664,3.82434,244.4,-10.4,-21.7,16.9,24.357378313723665,36.49588298894653,0.10015099497233138
22.099999999999994,91.7861,3.95075,244.5,-10.4,-21.6,17.0,24.212809691974616,36.84215104902596,0.00015243160743771966
22.200000000000017,91.494,4.09666,244.5,-10.1,-21.6,17.0,24.036519231809898,37.21262015193035,0.00015391111046270112
22.30000000000001,91.2134,4.24054,244.4,-9.7,-21.2,17.0,23.845136610110714,37.577155416278465,0.0001553266676896925
22.400000000000006,90.8999,4.39249,244.3,-9.4,-20.9,17.1,23.617392384968067,37.990728289084274,-0.09984307683191318
22.5,90.6269,4.53959,244.3,-9.4,-20.9,17.2,23.379956439530176,38.36610120457357,-0.19984171135841322
22.599999999999994,90.3478,4.70334,244.3,-9.4,-20.9,17.2,23.107420778376245,38.7622079990132,-0.19984031579742734
22.700000000000017,90.0875,4.84742,244.2,-9.2,-20.8,17.2,22.829380461400547,39.14210159091198,-0.19983900287081902
22.80000000000001,89.8074,4.99351,244.1,-9.4,-20.8,17.2,22.509597781327194,39.560653615075935,-0.19983756242857886
22.900000000000006,89.5607,5.06315,243.9,-9.7,-18.4,17.3,22.195553992530627,39.94355698868398,-0.29983628237773274
23.0,89.3107,5.02939,243.2,-9.4,-10.3,17.3,21.85651236040296,40.34202396706557,-0.2998349544599588
23.099999999999994,89.0791,4.82908,242.4,-6.6,0.6,17.3,21.54795833613105,40.71111150105547,-0.29983366445369164
23.200000000000017,88.8487,4.46079,242.2,-3.4,12.9,17.2,21.250231161688433,41.07692210630624,-0.19983232415819785
23.30000000000001,88.6249,4.06292,242.2,-1.8,22.1,17.3,21.003687261240103,41.416867452850894,-0.2998309478412171
23.400000000000006,88.392,3.65145,242.1,-1.4,24.7,17.3,20.78309126800057,41.75776668602833,-0.2998294519794751
23.5,88.1742,3.20919,242.6,0.0,27.9,17.3,20.619118874900135,42.06034345830139,-0.29982800030416534
23.599999999999994,87.9469,2.82954,243.0,0.8,30.5,17.3,20.501220445338856,42.355046344526684,-0.2998264338575076
23.700000000000017,87.7407,2.54199,243.3,1.9,29.4,17.2,20.41684039394476,42.613549263838934,-0.1998249853548142
23.80000000000001,87.5155,2.42484,243.2,2.1,27.6,17.2,20.408187246727824,42.86148299208714,-0.19982335348931102
23.900000000000006,87.2964,2.40459,243.9,3.0,25.4,17.1,20.454972683333512,43.0796622231763,-0.09982173544426942
24.0,87.0611,2.45865,243.8,3.3,21.5,17.1,20.555382816355785,43.29303061400306,-0.09981996716594566
24.099999999999994,86.8443,2.60827,242.8,1.7,20.8,17.0,20.693428941633567,43.47064957635107,0.00018168678174035335
24.200000000000017,86.58,2.80505,242.6,2.2,20.5,17.0,20.87689070093421,43.68096280637356,0.00018372386554688092
24.30000000000001,86.3216,2.99401,241.7,0.0,19.3,17.0,21.092310879765183,43.871717646241066,0.0001857423386386614
24.400000000000006,86.0494,3.18028,240.8,-3.1,20.2,17.0,21.357078879355555,44.057378424313896,0.0001879049449922121
24.5,85.7756,3.39076,241.0,-3.1,19.4,16.9,21.662132678793018,44.228688479348406,0.10019012232500835
24.599999999999994,85.5147,3.61621,241.6,-1.9,18.2,16.9,21.999321455482534,44.37360575896406,0.10019228619711207
24.700000000000017,85.2657,3.84947,241.9,-1.3,18.1,17.0,22.350227223546526,44.50094340784615,0.00019439740264104444
24.80000000000001,85.0027,4.10429,242.0,-1.3,18.4,16.9,22.750133390708474,44.62507955260348,0.10019668297542061
24.900000000000006,84.7499,4.3729,242.3,-0.9,18.5,16.9,23.177155406788017,44.72884087160463,0.10019895139858193
25.0,84.4848,4.63229,242.4,-0.6,18.4,16.9,23.63443976450269,44.83580193536836,0.10020138688523517
25.099999999999994,84.2328,4.8715,242.3,-1.0,17.4,16.8,24.097297635071598,44.92858043701565,0.2002037777611978
25.200000000000017,83.9681,5.09697,242.2,-1.3,16.4,16.8,24.61038502587648,45.0180449675544,0.20020637532517505
25.30000000000001,83.7177,5.29404,242.2,-1.3,15.5,16.8,25.11831162422863,45.0968941600333,0.20020891923075013
25.400000000000006,83.4609,5.4267,242.2,-1.6,13.7,16.8,25.68106172011158,45.165143007151386,0.20021165096187588
25.5,83.212,5.49651,242.2,-1.9,8.2,16.8,26.21606055175501,45.238180331705294,0.20021435272716204
25.599999999999994,82.9478,5.51983,242.4,-0.7,1.7,16.8,26.781937217986258,45.31970216322415,0.2002172902999746
25.700000000000017,82.6906,5.45494,242.4,-0.1,-1.7,16.8,27.31559824941163,45.40808211559114,0.20022019119299728
25.80000000000001,82.4091,5.30575,242.5,-3.0,-5.1,16.9,27.877704606126834,45.51553208982952,0.10022339712217843
25.900000000000006,82.1508,5.03952,243.2,-6.4,-12.9,16.9,28.38132878527078,45.620850906985495,0.1002263783968349
26.0,81.8818,4.71284,243.6,-7.1,-20.9,17.0,28.878625362535253,45.74215458548393,0.0002294873964672206
26.099999999999994,81.6269,4.31201,243.7,-7.0,-25.7,17.0,29.307129871987883,45.87292003336251,0.00023238648147660967
26.200000000000017,81.3595,3.93416,243.8,-7.0,-26.3,16.9,29.72958326122255,46.02045550832599,0.10023541028393268
26.30000000000001,81.0975,3.60635,243.9,-7.2,-26.3,16.9,30.076863952054197,46.187191313442085,0.10023824947564108
26.400000000000006,80.8164,3.38906,244.0,-7.8,-26.7,16.9,30.4029787648858,46.38141258532924,0.10024120778527035
26.5,80.5504,3.12523,244.3,-8.9,-26.8,16.9,30.664972899129545,46.58017047853836,0.10024391556678047
26.599999999999994,80.264,2.88994,244.9,-10.6,-26.9,16.9,30.9290562794955,46.80010560369677,0.10024680175899903
26.700000000000017,80.0033,2.71825,245.0,-11.0,-27.8,16.8,31.095001194111394,47.02295776621186,0.2002492523232391
26.80000000000001,79.7301,2.62835,244.7,-10.5,-28.4,16.9,31.21794772442252,47.27177719846312,0.10025169062282657
26.900000000000006,79.4677,2.62905,244.8,-10.4,-27.8,16.8,31.291837282915502,47.52403965103781,0.2002539268580783
27.0,79.1916,2.70919,245.1,-10.7,-27.8,16.8,31.32615933147533,47.80239082663325,0.20025617488876968
27.099999999999994,78.9257,2.83998,245.3,-10.6,-27.7,16.8,31.29584494388142,48.08961644949042,0.20025818231599146
27.200000000000017,78.6654,3.00266,244.9,-9.8,-27.3,16.9,31.23891969414213,48.37907294739681,0.10026008953282073
27.30000000000001,78.4192,3.20892,244.8,-9.6,-27.9,16.9,31.147369826906157,48.66458819567106,0.10026180946564622
27.400000000000006,78.16,3.44996,244.6,-9.2,-28.1,17.0,31.01150058563906,48.97788765392109,0.000263541153438851
27.5,77.9345,3.70553,244.7,-9.6,-27.7,17.0,30.81132369033451,49.27641681399099,0.00026486415391602236
27.599999999999994,77.6634,3.94789,244.7,-9.8,-27.1,17.1,30.62284589556677,49.62027198002103,-0.09973338410002874
27.700000000000017,77.3996,4.20033,244.9,-10.3,-27.2,17.1,30.412028469771407,49.964661083329716,-0.09973170997232295
27.80000000000001,77.1197,4.44599,244.9,-10.5,-26.6,17.2,30.158498261806596,50.341164562615404,-0.19972996037725643
27.900000000000006,76.834,4.67432,244.9,-10.7,-25.8,17.2,29.885555631179464,50.73198665321813,-0.19972815715228265
28.0,76.5673,4.92953,245.0,-11.0,-25.5,17.2,29.571952583538135,51.118356633010734,-0.19972654327913553
28.099999999999994,76.314,5.15301,245.0,-11.0,-25.4,17.2,29.248127707367434,51.496578072760414,-0.19972500197019905
28.200000000000017,76.0491,5.37147,244.9,-10.9,-25.2,17.2,28.882231055578686,51.90443874738165,-0.1997233733998396
28.30000000000001,75.7982,5.57646,244.8,-11.0,-24.7,17.2,28.499161756216367,52.30672456754531,-0.19972181850093307
28.400000000000006,75.5486,5.76327,244.7,-11.4,-23.4,17.2,28.08609605826043,52.72206213273697,-0.19972024132539268
28.5,75.3145,5.88022,244.5,-11.8,-20.3,17.2,27.6793815397914,53.122469455477514,-0.19971870782471157
28.599999999999994,75.072,5.89245,243.7,-11.0,-14.9,17.2,27.245199042409276,53.5462918394708,-0.19971704352902364
28.700000000000017,74.8488,5.78459,242.8,-8.7,-6.5,17.3,26.836780128012492,53.9436834987323,-0.2997154366644832
28.80000000000001,74.613,5.50012,241.9,-5.6,4.7,17.3,26.44032073836406,54.353881440093005,-0.29971361978942745
28.900000000000006,74.4001,5.07931,242.0,-2.8,18.0,17.3,26.079009751692965,54.72891106926939,-0.2997119080066888
29.0,74.1816,4.65365,241.8,-2.1,24.0,17.3,25.73528173033325,55.106155351649676,-0.2997100652681546
29.099999999999994,73.9773,4.18754,242.0,-0.4,25.6,17.3,25.450699862155954,55.44618446602181,-0.2997082671918321
29.200000000000017,73.7737,3.72571,243.4,2.3,29.3,17.3,25.173486363765655,55.78468616780438,-0.2997064239396785
29.30000000000001,73.5703,3.2897,243.3,2.6,29.7,17.3,24.987550873597165,56.08569759603694,-0.29970451926905106
29.400000000000006,73.3518,2.95225,243.5,3.1,30.5,17.2,24.848139738116302,56.384363335580105,-0.1997024363495612
29.5,73.1323,2.69009,244.4,4.5,31.3,17.2,24.77471187680311,56.65609406231723,-0.19970031673882005
29.599999999999994,72.9039,2.59789,244.7,5.1,29.5,17.2,24.733831965705097,56.9236242790453,-0.19969809654747372
29.700000000000017,72.6584,2.62837,244.2,4.0,25.3,17.1,24.77582404773511,57.1737485255005,-0.0996956979779604
29.80000000000001,72.3882,2.73464,243.3,2.9,20.6,17.1,24.869845914704555,57.42797439407478,-0.09969304854097416
29.900000000000006,72.128,2.84675,242.0,0.8,18.0,17.1,25.00715028142944,57.652133336291925,-0.09969048907409572
30.0,71.8735,2.95054,241.2,-2.0,19.6,17.0,25.22852854386162,57.833203210859104,0.0003120224532295879
30.099999999999994,71.6057,3.11725,241.2,-2.6,20.1,17.0,25.446535175226337,58.030609429396634,0.0003146833858984621
30.200000000000017,71.3153,3.32119,241.5,-1.8,18.8,17.0,25.707122364235595,58.23436933279242,0.00031758817135063566
30.30000000000001,71.0296,3.53703,241.7,-1.2,17.7,17.0,25.992149338762395,58.422839907875954,0.0003204682860307173
30.400000000000006,70.7201,3.75969,241.9,-1.0,17.6,17.0,26.328468858671165,58.61602216614663,0.00032362439094768547
30.5,70.3961,3.99861,242.0,-1.1,17.4,16.9,26.698598669354958,58.81141037257669,0.10032696566617716
30.599999999999994,70.0853,4.24658,242.0,-1.5,17.2,17.0,27.086133013770556,58.986402009755096,0.0003302195263561458
30.700000000000017,69.7842,4.47528,242.0,-1.7,17.5,17.0,27.4853493364091,59.147371213893706,0.00033342315063400463
30.80000000000001,69.4635,4.6947,242.1,-1.8,17.8,17.0,27.936528551648514,59.309920930704195,0.00033689893277788485
30.900000000000006,69.1481,4.92376,242.1,-1.9,17.4,16.9,28.399395541525717,59.4640384449795,0.10034038474674922
31.0,68.8411,5.14313,242.2,-1.7,16.7,16.9,28.891588976673496,59.599797484831015,0.10034386992110811
31.099999999999994,68.5417,5.31029,242.4,-1.7,16.0,16.9,29.38598709197023,59.72922546949248,0.10034734641152099
31.200000000000017,68.2214,5.33436,242.5,-3.8,8.6,16.9,29.920826066593882,59.86839029370038,0.10035114469890694
31.30000000000001,67.9128,5.11699,243.0,-7.2,-6.6,16.9,30.444177577811402,60.002552975288495,0.10035488994668107
31.400000000000006,67.5965,4.76057,243.7,-7.9,-21.4,16.8,30.946052099047073,60.155761381463726,0.20035875707939432
31.5,67.301,4.37025,243.8,-6.9,-26.3,16.8,31.368828425864677,60.317990410051806,0.20036236085763193
31.599999999999994,66.9939,4.00824,244.1,-6.9,-25.9,16.8,31.75714263288277,60.50649836491871,0.20036607438956722
31.700000000000017,66.6893,3.73023,244.6,-8.0,-26.3,16.9,32.12105940851174,60.70230069393064,0.10036976000528064
31.80000000000001,66.3685,3.56162,244.6,-8.5,-26.7,16.9,32.44113699918281,60.931544500307965,0.10037356995599822
31.900000000000006,66.0664,3.3345,244.6,-8.9,-27.5,16.9,32.69842888509979,61.16330505372245,0.10037710595034532
32.0,65.752,3.1316,244.6,-9.4,-27.9,16.9,32.91825493420364,61.42116889930804,0.10038071596058273
32.099999999999994,65.4489,3.028,244.6,-9.6,-27.8,16.8,33.08078928454326,61.686596511425535,0.20038411961917824
32.20000000000002,65.1236,3.00635,244.6,-9.8,-27.9,16.8,33.20478637467849,61.98855663677706,0.20038769086560926
32.30000000000001,64.83,3.05548,244.6,-9.8,-28.3,16.7,33.26563161903433,62.27841543977838,0.3003908303570437
32.400000000000006,64.5285,3.15867,244.6,-9.8,-28.4,16.7,33.27606635730581,62.593706548266745,0.3003939679387866
32.5,64.2451,3.32289,244.7,-10.0,-28.6,16.7,33.24465740167237,62.90417901298905,0.30039685449610687
32.599999999999994,63.9853,3.53157,244.8,-10.1,-28.5,16.7,33.12623093570572,63.219986445959606,0.3003993566587475
32.70000000000002,63.7052,3.76369,245.0,-10.3,-28.4,16.8,33.012676934501904,63.55639167748491,0.20040210521145774
32.80000000000001,63.4106,4.02054,245.2,-10.5,-28.5,16.8,32.851712239218315,63.925761096151646,0.2004049582431051
32.900000000000006,63.1292,4.27882,245.2,-10.6,-28.5,16.8,32.66558237465917,64.29133894985509,0.20040767102864265
33.0,62.819,4.55122,245.1,-10.5,-28.1,16.9,32.42205524118906,64.7102202535725,0.10041065497802393
33.099999999999994,62.5347,4.80399,245.1,-10.5,-27.5,16.9,32.175361939465674,65.10484184055518,0.1004134125313989
33.20000000000002,62.2382,5.07251,245.0,-10.6,-26.7,16.9,31.88631518579355,65.53096612181848,0.10041631441747079
33.30000000000001,61.9648,5.30105,244.9,-10.6,-26.4,17.0,31.577276007990985,65.94316180497742,0.00041901600288341
33.400000000000006,61.6631,5.5361,245.0,-10.8,-26.2,17.0,31.208224991203775,66.41305781984731,0.0004220623199646667
33.5,61.4067,5.69504,244.9,-11.3,-24.9,17.1,30.845090519590208,66.8361938754606,-0.09957529346970695
33.599999999999994,61.1499,5.64842,243.9,-12.8,-16.3,17.1,30.451548896691094,67.27690172855498,-0.09957256298910622
33.70000000000002,60.9232,5.33062,242.2,-14.5,4.1,17.2,30.085914834958132,67.6778601922047,-0.19957006632655805
33.80000000000001,60.7052,4.82195,241.3,-10.8,19.6,17.2,29.733247111661008,68.067980704501,-0.19956757965966254
33.900000000000006,60.5226,4.29236,241.0,-8.4,25.0,17.2,29.426657346918795,68.4030461984924,-0.19956542545875244
34.0,60.3442,3.76062,240.4,-7.2,25.6,17.2,29.166634085182693,68.71545256012058,-0.19956327136030616
34.099999999999994,60.1775,3.231,241.4,-4.2,29.1,17.2,28.950962425218627,68.99707791112137,-0.19956122024940015
34.20000000000002,60.0032,2.7811,242.1,-2.3,30.2,17.2,28.763651756403988,69.2757246766084,-0.19955905268854046
34.30000000000001,59.8554,2.35928,242.3,-1.6,30.9,17.2,28.62761012343843,69.50250857841738,-0.1995572028051793
34.400000000000006,59.6911,2.00548,242.8,-0.6,32.1,17.1,28.561009779953,69.71557877262106,-0.09955517844241335
34.5,59.5287,1.82103,243.2,0.0,31.0,17.1,28.5552695185341,69.89812856597368,-0.09955320776603749
34.599999999999994,59.351,1.82924,242.8,-0.9,27.7,17.0,28.604959112690928,70.071516360296,0.00044891495521959257
34.70000000000002,59.1873,1.95789,242.3,-1.3,24.0,17.0,28.661196755136643,70.2261755805616,0.0004508682122139618
34.80000000000001,58.9969,2.12812,241.4,-2.7,22.6,16.9,28.801577769956236,70.37057286950817,0.10045309305893824
34.900000000000006,58.8214,2.36663,240.5,-5.1,24.0,16.9,28.9805692458543,70.48036032782124,0.1004551172001058
35.0,58.6435,2.6181,240.4,-5.6,23.8,16.9,29.214930229481467,70.56716019158713,0.10045714969312947
35.099999999999994,58.4793,2.91085,240.8,-5.4,23.2,16.9,29.510436818615382,70.61116598345065,0.10045900146356423
35.20000000000002,58.3007,3.16135,240.9,-5.1,22.3,16.9,29.824722706651144,70.66362955937997,0.10046104930068012
35.30000000000001,58.1293,3.46371,241.2,-4.7,21.7,16.9,30.154068856613996,70.70276272540744,0.10046303674461221
35.400000000000006,57.9471,3.74552,241.6,-4.1,20.9,16.9,30.530136196186312,70.73441517962672,0.10046518390670478
35.5,57.7774,4.02038,241.8,-3.7,19.4,16.9,30.912755508318895,70.75175213133515,0.10046722585924073
35.599999999999994,57.5885,4.29525,241.9,-3.4,18.0,16.9,31.34176955813404,70.77228861954288,0.10046955535377045
35.70000000000002,57.4256,4.53076,242.1,-2.9,16.9,16.9,31.775724549601406,70.76523662041124,0.10047163117189051
35.80000000000001,57.257,4.72603,242.1,-2.8,16.3,16.9,32.25943040774828,70.74716796833928,0.10047386918727597
35.900000000000006,57.0996,4.92155,242.2,-2.6,15.5,16.9,32.73220505241662,70.72520838284727,0.10047604264950394
36.0,56.9482,5.07786,242.2,-2.2,12.8,16.9,33.23193770932838,70.69003286863955,0.10047824746065537
36.099999999999994,56.788,5.1333,242.3,-1.2,9.1,16.9,33.73100298392323,70.66876805544793,0.10048064288767478
36.20000000000002,56.6133,5.09462,242.5,-1.1,1.2,16.9,34.262860439811305,70.65516286771647,0.10048333578349222
36.30000000000001,56.4431,4.91844,242.8,-1.7,-7.1,16.9,34.75971101893088,70.6541856080527,0.10048602460495637
36.400000000000006,56.2562,4.60893,243.0,-2.9,-16.0,16.9,35.27971281135567,70.66697759407839,0.10048903169762724
36.5,56.0758,4.20149,243.4,-4.2,-23.4,16.9,35.72497351609867,70.70298259284684,0.10049191938422197
36.599999999999994,55.8789,3.81831,243.5,-4.7,-26.7,16.9,36.15173979341637,70.7659346608977,0.10049502977653191
36.70000000000002,55.6853,3.41032,243.7,-5.3,-27.1,17.0,36.51252377255231,70.84988226019539,0.0004980236449299014
36.80000000000001,55.4634,3.10247,244.1,-6.4,-27.2,16.9,36.885434286044365,70.96171382368561,0.10050141919462519
36.900000000000006,55.2682,2.75755,244.2,-7.1,-27.8,16.8,37.14657968601045,71.08298926632719,0.20050429008884052
37.0,55.0647,2.48914,244.1,-7.2,-27.6,16.8,37.36465555496349,71.22741368107486,0.2005071791169648
37.099999999999994,54.8617,2.29062,244.2,-7.8,-27.9,16.8,37.53596261403019,71.38655862505581,0.20050996673642985
37.20000000000002,54.6391,2.18182,244.2,-8.1,-28.4,16.9,37.67791259927449,71.5757524441513,0.10051292319620586
37.30000000000001,54.4302,2.18268,244.2,-8.0,-28.4,16.9,37.750853646035274,71.77217781632315,0.10051556076824042
37.400000000000006,54.1968,2.26605,244.1,-7.7,-28.1,16.8,37.80305743849555,72.00076135527476,0.20051844592839885
37.5,53.9765,2.4331,244.0,-7.7,-27.2,16.8,37.80376995744163,72.23175203899261,0.20052105931828024
37.599999999999994,53.7447,2.66285,244.0,-7.7,-26.6,16.8,37.758452032565145,72.48947997595084,0.20052371109121125
37.70000000000002,53.5217,2.9059,244.0,-7.5,-26.5,16.8,37.65932919284074,72.75546002728221,0.20052614850561312
37.80000000000001,53.2764,3.16466,244.1,-7.9,-26.3,16.9,37.54509768088451,73.05045788533077,0.10052884054562838
37.900000000000006,53.0393,3.42803,244.2,-8.2,-25.8,16.9,37.40292212244444,73.34675309667026,0.10053139867454064
38.0,52.7874,3.6939,244.1,-8.1,-25.9,16.9,37.21956918249836,73.67343982934207,0.10053408404345987
38.099999999999994,52.5636,3.96936,244.0,-8.2,-25.7,17.0,36.98398947587863,73.98982971750635,0.0005363685170998167
38.20000000000002,52.3223,4.23136,244.0,-8.2,-24.2,17.0,36.73857330865278,74.33027870485205,0.0005388978976270664
38.30000000000001,52.087,4.42598,243.9,-8.4,-21.7,17.0,36.484398915047784,74.66996027080953,0.0005413987182443236
38.400000000000006,51.8356,4.5349,243.6,-8.8,-17.1,17.0,36.202838979730195,75.0393001206854,0.000544117463316951
38.5,51.582,4.51213,242.9,-7.7,-8.0,17.0,35.91586552354137,75.41620060668205,0.0005469290814659189
38.599999999999994,51.3347,4.40722,242.4,-2.8,0.8,17.1,35.630909527275335,75.78895160877038,-0.09945025941484431
38.70000000000002,51.0977,4.16624,242.5,2.2,10.2,17.1,35.38039922092567,76.14042466797045,-0.09944747788184571
38.80000000000001,50.8451,3.86381,242.7,3.5,19.0,17.1,35.15204757828324,76.50258928500833,-0.09944441591181175
38.900000000000006,50.6023,3.56808,242.9,4.6,23.0,17.2,34.983953616684865,76.83227474580936,-0.19944138395857536
39.0,50.3473,3.36471,243.6,6.2,23.9,17.2,34.84144906011329,77.16640733679752,-0.19943813865516447
39.099999999999994,50.0871,3.17866,243.9,7.0,24.9,17.1,34.765058310435116,77.47989937453121,-0.09943475755664011
39.20000000000002,49.7994,3.09721,244.0,7.1,25.2,17.1,34.73333064098237,77.80542045889499,-0.09943097338229023
39.30000000000001,49.5155,3.11457,244.4,7.8,22.7,17.0,34.755243952391766,78.10457334420519,0.0005727986277115349
39.400000000000006,49.2298,3.18527,244.1,7.1,19.9,17.0,34.79481586451747,78.39836618381341,0.000576616441652078
39.5,48.9213,3.3025,242.9,4.4,20.1,16.9,34.90903454025602,78.68553214948096,0.10058077506057828
39.599999999999994,48.5801,3.45639,243.1,4.7,18.7,16.9,35.078119325600625,78.98492181944346,0.10058540178232
39.70000000000002,48.2462,3.60173,242.4,2.8,16.8,16.9,35.275807683187026,79.26432537860299,0.10058995996110554
39.80000000000001,47.8842,3.72031,241.5,-0.2,17.1,16.9,35.53132046173664,79.55026568450242,0.10059493904699579
39.900000000000006,47.535,3.89483,241.5,-0.3,17.2,16.9,35.79980576148724,79.817231881322,0.10059977951273069
40.0,47.1605,4.12427,241.8,0.5,16.9,16.9,36.11910108061515,80.09124655322802,0.10060501788967358
40.099999999999994,46.7997,4.32619,241.9,1.1,16.9,16.9,36.459160584988105,80.34299172947196,0.10061012244310419
40.20000000000002,46.3768,4.54734,241.9,1.4,15.4,16.9,36.88765668727429,80.6275979132934,0.10061618404990469
40.30000000000001,46.0175,4.74588,242.0,2.0,13.9,16.9,37.27935675987834,80.86021208837465,0.10062141159280458
40.400000000000006,45.6446,4.94689,242.0,1.9,14.3,16.9,37.71171435767134,81.09370034199404,0.10062692421635688
40.5,45.2836,5.15559,242.1,1.9,15.0,16.9,38.14880205459128,81.31519090127198,0.10063235108885848
40.599999999999994,44.898,5.33759,242.3,1.9,13.4,16.8,38.633250523311304,81.54821919553893,0.20063824980026368
40.70000000000002,44.5503,5.40675,242.3,0.2,7.4,16.8,39.107874837067314,81.74794412481091,0.20064370745023652
40.80000000000001,44.1687,5.36064,242.3,-2.5,-0.2,16.7,39.61584424399481,81.97543538673169,0.30064977085580225
40.900000000000006,43.8161,5.23835,242.8,-5.5,-4.8,16.7,40.08257151326538,82.19021274657769,0.30065545943294225
41.0,43.4564,5.02226,243.3,-7.4,-11.4,16.7,40.54483309967193,82.41717867224997,0.3006613172594328
41.099999999999994,43.1262,4.70609,243.8,-8.2,-20.7,16.7,40.95796778025837,82.63212064083747,0.300666745844719
41.20000000000002,42.752,4.44703,243.9,-8.0,-25.6,16.6,41.36774024343721,82.89679304498867,0.40067283323539016
41.30000000000001,42.4006,4.14881,244.0,-8.1,-26.7,16.6,41.71187849953637,83.15977950247557,0.4006785017750758
41.400000000000006,42.0367,3.90967,244.4,-8.7,-27.8,16.6,42.023700187814974,83.44702494300444,0.4006843047477453
41.5,41.6394,3.70571,244.5,-9.2,-28.2,16.6,42.36243254306048,83.76249244087616,0.40069068467490254
41.599999999999994,41.2737,3.55255,244.4,-9.1,-27.5,16.6,42.59114867010068,84.07784628613575,0.4006963592574948
41.70000000000002,40.9315,3.45332,244.2,-8.8,-28.0,16.6,42.75944122938641,84.38628539396963,0.4007015589583425
41.80000000000001,40.5771,3.39317,244.3,-8.7,-28.5,16.6,42.88614751955647,84.7193119650196,0.40070682242664546
41.900000000000006,40.2622,3.4031,244.7,-8.9,-28.7,16.6,42.95388280825327,85.0279810270005,0.40071138422586117
42.0,39.9202,3.48278,244.7,-8.5,-29.5,16.7,42.986952390205765,85.37472183226956,0.3007162342363614
42.099999999999994,39.5954,3.59188,244.9,-8.5,-29.7,16.7,42.97336359741935,85.71707429969578,0.3007207288783782
42.20000000000002,39.2547,3.73593,245.0,-8.7,-29.0,16.8,42.91481353545295,86.08950275348795,0.20072534506793716
42.30000000000001,38.9337,3.93519,244.8,-8.0,-29.2,16.8,42.81917887504807,86.45303316412662,0.2007296121351274
42.400000000000006,38.6114,4.16921,244.6,-7.5,-29.5,16.8,42.645532941662445,86.84279332045045,0.20073373414189533
42.5,38.2871,4.41399,244.9,-8.1,-29.4,16.8,42.4747101573372,87.2358793470301,0.2007379491854131
42.599999999999994,37.9433,4.6785,244.8,-8.1,-29.7,16.9,42.25962253537824,87.66590701346223,0.10074240439170268
42.70000000000002,37.6282,4.95946,244.6,-7.9,-30.0,17.0,42.021856786587406,88.07639963699143,0.0007464782553583404
42.80000000000001,37.3073,5.25197,244.6,-8.4,-29.8,17.0,41.71329800544018,88.5211088250571,0.0007505951452806414
42.900000000000006,37.0033,5.48683,244.8,-9.7,-28.8,17.1,41.41041557251674,88.95125575061567,-0.09924540680382421
43.0,36.6896,5.62268,244.9,-11.4,-23.7,17.1,41.066835552588586,89.41235037516739,-0.09924119567913081
43.099999999999994,36.4025,5.66575,244.6,-12.3,-17.7,17.1,40.72842474877834,89.8497475597324,-0.09923723390158656
43.20000000000002,36.1057,5.64634,243.7,-11.3,-12.2,17.1,40.365574334557905,90.31410720711,-0.09923299747799064
43.30000000000001,35.8446,5.56148,243.0,-9.0,-6.8,17.2,40.0176112411844,90.74132210646862,-0.19922914187110052
43.400000000000006,35.5799,5.41139,242.4,-5.4,-2.3,17.2,39.65691484359441,91.18534845713128,-0.19922507556730906
43.50000000000003,35.3368,5.1571,241.9,-3.3,5.3,17.3,39.338588332861086,91.59427652001537,-0.29922119981888073
43.599999999999994,35.1026,4.82876,241.8,-3.2,16.2,17.3,39.02585967922841,91.99727304104613,-0.29921733482911606
43.70000000000002,34.8711,4.40474,241.6,-3.2,23.4,17.3,38.779379634648265,92.37164572540308,-0.2992134382748013
43.79999999999998,34.6302,3.95655,241.9,-2.5,26.6,17.3,38.56634333625957,92.74464727922594,-0.2992093274638101
43.900000000000006,34.4065,3.4877,242.3,-1.7,30.1,17.3,38.41582360353803,93.07078036779706,-0.2992054933056849
44.00000000000003,34.1736,3.08644,242.6,-1.1,31.7,17.2,38.31655666481582,93.38332730876952,-0.1992015282403905
44.099999999999994,33.9569,2.75161,242.6,-0.8,30.9,17.2,38.263362502441296,93.65524485509616,-0.19919786631281866
44.20000000000002,33.7137,2.55942,242.8,-0.4,29.2,17.1,38.25348948529691,93.93534541781217,-0.09919381040430508
44.29999999999998,33.4745,2.51253,243.3,0.1,26.4,17.1,38.30248424659304,94.18019476223773,-0.09918990794581717
44.400000000000006,33.2142,2.57645,243.0,0.0,23.3,17.0,38.41127915634235,94.417408942581,0.0008142522764238436
44.50000000000003,32.9507,2.70806,242.5,-0.5,21.7,17.0,38.52911464281429,94.65352096599632,0.000818461491530087
44.599999999999994,32.6787,2.88979,241.8,-2.1,22.3,16.9,38.735927281053904,94.85213137355024,0.10082266538833906
44.70000000000002,32.4184,3.10333,241.0,-4.0,22.7,16.9,38.97486778187531,95.02107534557692,0.10082663961621208
44.79999999999998,32.1456,3.34317,240.8,-5.1,22.1,16.9,39.267512011226714,95.17700735897196,0.10083076384777812
44.900000000000006,31.8879,3.59879,240.8,-5.3,21.3,16.9,39.61104527425988,95.29163258746553,0.10083460692768753
45.00000000000003,31.6221,3.87836,240.9,-5.3,20.1,16.9,39.98135314187143,95.40434639980936,0.10083860865072936
45.099999999999994,31.3663,4.12662,240.9,-5.5,18.9,16.8,40.369727171745055,95.50014654119042,0.20084249732120085
45.20000000000002,31.0984,4.3882,241.1,-5.5,18.5,16.8,40.81035795111703,95.588150344745,0.20084662843526502
45.29999999999998,30.8377,4.63503,241.2,-5.3,18.4,16.8,41.2756292722827,95.66184229513988,0.20085073742420434
45.400000000000006,30.5938,4.87551,241.4,-5.4,17.2,16.8,41.762838621194675,95.71329335083647,0.2008546924705179
45.50000000000003,30.3711,5.09987,241.5,-5.6,16.7,16.8,42.25006152793949,95.74812070409814,0.20085843477178855
45.599999999999994,30.1481,5.34077,241.7,-5.4,17.0,16.8,42.78651658347218,95.77042109388748,0.20086236021021264
45.70000000000002,29.9479,5.5562,241.7,-5.6,16.9,16.7,43.32061727787436,95.77782988341315,0.3008660891503716
45.79999999999998,29.7594,5.77176,241.7,-5.8,16.7,16.7,43.919185105620414,95.75840527487767,0.3008699071469003
45.900000000000006,29.5869,5.96141,241.8,-5.6,16.3,16.7,44.490776077480206,95.74283376263517,0.3008736499258262
46.00000000000003,29.4213,6.05697,242.1,-6.1,12.6,16.7,45.10133262492758,95.71841640495163,0.3008775876093708
46.099999999999994,29.2744,5.9244,242.6,-8.4,0.9,16.7,45.68824754664769,95.69370525006764,0.3008814098997341
46.20000000000002,29.1307,5.54588,243.7,-9.4,-14.9,16.7,46.30273245168044,95.66990071487075,0.3008855027497468
46.29999999999998,28.9989,5.07295,243.8,-7.6,-25.3,16.7,46.83246182808886,95.66775725449925,0.30088935188724264
46.400000000000006,28.862,4.59353,243.6,-6.0,-26.0,16.7,47.34091847865317,95.68538983699855,0.30089338400754073
46.50000000000003,28.7286,4.13905,244.3,-6.9,-25.9,16.8,47.78150291565174,95.72266675210386,0.2008972409853449
46.599999999999994,28.5822,3.85391,244.6,-7.6,-27.2,16.8,48.23198025777961,95.77762157201258,0.20090146852184887
46.70000000000002,28.4372,3.43553,244.5,-8.0,-27.8,16.8,48.58981068928033,95.85538688919524,0.2009053615362255
46.79999999999998,28.2779,3.06516,244.6,-8.9,-27.6,16.8,48.92182172326639,95.95629234130303,0.2009094249527159
46.900000000000006,28.1257,2.70177,244.8,-9.5,-27.8,16.8,49.18110449609331,96.06577286091978,0.20091307308670991
47.00000000000003,27.98,2.42854,244.5,-9.4,-27.9,16.8,49.38436784622807,96.17983990011837,0.20091636695951465
47.099999999999994,27.8106,2.20104,244.1,-8.9,-27.9,16.9,49.555296695320564,96.32419491127536,0.10091987324426555
47.20000000000002,27.6156,2.04671,244.2,-9.2,-28.4,16.8,49.70197909969965,96.49912539921033,0.20092366127169825
47.29999999999998,27.4208,2.00605,244.3,-9.1,-28.7,16.8,49.802753079800596,96.68118883326648,0.20092720529646968
47.400000000000006,27.2075,2.0786,244.3,-9.0,-28.7,16.8,49.86552096558498,96.8878569114022,0.20093082951119712
47.50000000000003,26.9806,2.22445,244.5,-9.1,-28.9,16.8,49.900080451418916,97.11249113085886,0.2009345148374173
47.599999999999994,26.7531,2.44906,244.7,-9.3,-29.0,16.8,49.85999306958671,97.34907788858777,0.20093780207923473
47.70000000000002,26.5235,2.69871,244.9,-9.5,-28.9,16.8,49.78622184605311,97.59334390769494,0.20094095307337767
47.79999999999998,26.2714,2.97401,244.9,-9.3,-29.0,16.8,49.672724209687814,97.86728934602715,0.2009442587698551
47.900000000000006,26.0221,3.27674,244.9,-9.3,-29.2,16.8,49.49699285154223,98.1498746830237,0.2009472256452156
48.00000000000003,25.7674,3.59621,244.9,-9.2,-29.3,16.9,49.29565261314929,98.44469619324981,0.10095019838868424
48.099999999999994,25.5155,3.90082,245.0,-9.3,-29.6,16.9,49.07293253462085,98.74315347332023,0.10095308318661722
48.20000000000002,25.2432,4.2114,245.0,-9.4,-29.6,17.0,48.80884269140998,99.07398378029171,0.0009561750820346049
48.29999999999998,24.9796,4.51585,245.0,-9.6,-29.6,17.0,48.49719402580361,99.41077938404302,0.0009590252491484819
48.400000000000006,24.7055,4.8128,245.2,-10.2,-29.5,17.0,48.17211887369016,99.7673796141533,0.0009621139479811802
48.50000000000003,24.4463,5.10246,245.1,-10.7,-29.6,17.1,47.83139207811192,100.11935552937356,-0.09903494903549515
48.599999999999994,24.1816,5.2955,245.2,-12.7,-27.4,17.0,47.44321970029884,100.49754258234552,0.0009680815028758616
48.70000000000002,23.9467,5.28899,244.5,-13.3,-16.6,17.1,47.04828382493048,100.85650308642632,-0.09902919446946612
48.79999999999998,23.7201,5.07642,242.8,-10.3,-2.3,17.1,46.65101246877312,101.2176118624181,-0.09902640897870185
48.900000000000006,23.5195,4.72074,242.0,-5.9,10.8,17.1,46.304831757092046,101.54422411690717,-0.09902375429259891
49.00000000000003,23.3227,4.29862,241.8,-4.5,18.4,17.2,45.981575311682604,101.86710711617852,-0.19902095800524577
49.099999999999994,23.143,3.86349,241.5,-3.6,21.1,17.2,45.70573692578698,102.16143928514941,-0.1990182449060569
49.20000000000002,22.9599,3.48657,242.1,-1.2,24.7,17.3,45.45130727395927,102.45696421574854,-0.29901533413783454
49.29999999999998,22.7853,3.05006,242.7,0.5,26.6,17.3,45.24736517090745,102.72812712090078,-0.29901243301769753
49.400000000000006,22.6002,2.66774,242.9,1.3,26.8,17.2,45.077837717989354,103.00002885717151,-0.1990092570084201
49.50000000000003,22.4238,2.33578,243.4,2.2,28.3,17.2,44.968783284991844,103.23934668931165,-0.19900616462603793
49.599999999999994,22.2355,2.14623,243.6,2.8,27.7,17.1,44.85677808073553,103.49487996630756,-0.09900281803688671
49.70000000000002,22.0468,2.09941,243.8,3.2,25.2,17.1,44.86165563387988,103.69982658678458,-0.09899945805674193
49.79999999999998,21.8384,2.1631,243.3,2.8,22.3,17.0,44.92369726055055,103.90081696215918,0.001004248156821319
49.900000000000006,21.6321,2.28603,242.2,0.5,20.6,17.0,45.028663723524275,104.07993251088718,0.0010079079262155233
50.00000000000003,21.4232,2.40526,241.4,-2.1,19.8,16.9,45.20040686702984,104.2322076189187,0.10101161138802439
50.099999999999994,21.2102,2.57003,241.0,-3.5,18.5,16.9,45.38594110588646,104.38317256817501,0.1010153990843321
50.20000000000002,20.9858,2.72732,241.0,-3.9,16.3,16.9,45.61502740396078,104.5285086291787,0.10101941857895724
50.29999999999998,20.769,2.88598,241.2,-3.8,13.2,16.9,45.85937042398853,104.66025077848934,0.10102333472005043
50.400000000000006,20.5251,3.04632,241.4,-3.9,11.4,16.9,46.16826908102129,104.79652667285575,0.10102780809084067
50.50000000000003,20.3102,3.20511,241.5,-3.9,11.6,16.8,46.456473237989584,104.91269881143637,0.20103181597609776
50.599999999999994,20.0883,3.349,241.6,-3.5,12.3,16.8,46.782034259033324,105.02478834354932,0.20103604851905388
50.70000000000002,19.8866,3.53036,241.7,-3.1,12.5,16.8,47.10747734944161,105.11924038167594,0.20104000569141078
50.79999999999998,19.6832,3.75112,241.8,-2.8,12.5,16.8,47.46721507702455,105.20746984699412,0.20104413776456553
50.900000000000006,19.5128,3.94357,241.9,-2.9,12.5,16.7,47.83476796582383,105.26360910068658,0.3010478183858325
51.00000000000003,19.3179,4.12383,242.0,-3.2,12.3,16.7,48.237332762973644,105.34063281986475,0.3010521326242177
51.099999999999994,19.1373,4.27804,242.1,-3.4,11.4,16.6,48.64297662134861,105.40893155953034,0.4010563516656198
51.20000000000002,18.9551,4.38517,242.2,-4.2,9.7,16.6,49.08843099294164,105.47590842173565,0.4010608839212928
51.29999999999998,18.7973,4.39194,242.3,-6.1,5.9,16.6,49.529481899887536,105.5282911506932,0.4010651726043406
51.400000000000006,18.64,4.20603,242.7,-8.7,-0.2,16.6,49.97515689598353,105.58854750010188,0.40106965846040765
51.50000000000003,18.5097,3.84149,244.7,-17.1,-14.8,16.6,50.36845824068733,105.64128584735614,0.4010736362637388
51.599999999999994,18.3907,3.40339,245.8,-18.7,-21.0,16.6,50.73636147601295,105.69476906232626,0.40107744838851644
51.70000000000002,18.2751,2.99,244.9,-15.0,-18.1,16.6,51.05585988815541,105.75924996645523,0.4010810750708629
51.79999999999998,18.1731,2.61787,244.9,-12.8,-19.1,16.6,51.34752224516956,105.81901154602147,0.40108441590609445
51.900000000000006,18.0766,2.23854,245.0,-11.5,-23.4,16.6,51.58710292961553,105.88435626239395,0.4010874396935158
52.00000000000003,17.9698,2.03262,244.9,-10.6,-26.2,16.7,51.79590145718828,105.9665080418375,0.3010905017429977
52.099999999999994,17.8559,1.73704,244.7,-10.1,-27.2,16.7,51.987895061349676,106.05980824515879,0.3010936188015201
52.20000000000002,17.73,1.45122,244.5,-10.2,-27.5,16.7,52.11535299544043,106.17345391036343,0.30109655071878905
52.29999999999998,17.6018,1.39884,244.6,-10.2,-27.8,16.7,52.19071609750188,106.29513036585116,0.3010991952722364
52.400000000000006,17.4571,1.45985,244.6,-9.8,-28.0,16.7,52.221959518297275,106.43775347969085,0.301101827403528
52.50000000000003,17.3116,1.65723,244.6,-9.8,-28.0,16.6,52.20954494597781,106.58548641109617,0.40110419057494084
52.599999999999994,17.1625,1.91268,244.6,-9.8,-27.0,16.6,52.163196858650494,106.7401366101905,0.4011063940566224
52.70000000000002,16.9981,2.18995,244.5,-9.6,-26.1,16.7,52.073362000026506,106.91505353944063,0.3011085821282471
52.79999999999998,16.8152,2.53175,244.6,-9.5,-26.0,16.7,51.94075138343878,107.114315796543,0.30111083762593793
52.900000000000006,16.6278,2.82554,244.5,-9.4,-25.9,16.7,51.77649139513686,107.32356941029948,0.3011130111407887
53.00000000000003,16.4088,3.09538,244.5,-9.3,-25.4,16.7,51.531535793033385,107.57844118458834,0.3011153082923883
53.099999999999994,16.2128,3.37536,244.6,-9.2,-24.7,16.7,51.30768348454241,107.8113451262945,0.3011174260043532
53.20000000000002,16.0075,3.6322,244.6,-9.3,-23.9,16.7,51.0459854301716,108.0647279163561,0.30111960186455633
53.29999999999998,15.813,3.88203,244.6,-9.2,-23.3,16.8,50.77111810635451,108.315666830184,0.2011216533086575
53.400000000000006,15.6147,4.1049,244.5,-9.3,-23.3,16.8,50.43366786646612,108.5911307458677,0.20112364445469666
53.50000000000003,15.4292,4.33721,244.5,-9.3,-23.3,16.8,50.11487830828167,108.85871030460181,0.20112567916864066
53.599999999999994,15.2417,4.5601,244.4,-9.2,-23.0,16.8,49.759352262895376,109.14825314856142,0.20112782889425063
53.70000000000002,15.0703,4.75722,244.3,-9.3,-22.1,16.8,49.400403868686794,109.43411599907014,0.20112992124980877
53.79999999999998,14.8967,4.86361,244.1,-9.7,-19.4,16.8,48.99798316835121,109.75045356755321,0.20113223598259466
53.900000000000006,14.7561,4.78099,243.4,-10.1,-12.3,16.8,48.62599854651864,110.03642161054289,0.2011343002757897
