time,distance(meters),speed(m/s), compass_heading(degrees), pitch(degrees), roll(degrees),height_above_takeoff(meters),North,East,Down
0.0,110.435,2.89083,251.9,0.7,-5.2,17.2,0.0,0.0,0.0
0.10000000000002274,110.209,2.74622,252.8,-3.5,-16.4,17.1,0.23616345055685706,0.13748829097668822,0.10000000628139799
0.19999999999998863,109.97,2.53736,252.8,-2.0,-25.0,17.2,0.45629565457052357,0.2985289853863931,2.2971026247819992e-08
0.30000000000001137,109.734,2.46314,252.0,1.4,-26.8,17.2,0.6322263124666445,0.4761571568207127,4.946544229778027e-08
0.4000000000000341,109.461,2.60538,251.8,2.7,-26.6,17.2,0.8051749635460403,0.6969418110160425,8.97900765406412e-08
0.5,109.2,2.6883,252.0,2.3,-28.0,17.2,0.9192575595326454,0.9319464870499825,1.3532203879673688e-07
0.6000000000000227,108.916,2.85121,252.4,1.6,-29.0,17.2,1.0043001313828128,1.2056934913481898,1.9326830036359155e-07
0.6999999999999886,108.644,3.02882,252.7,0.5,-29.6,17.2,1.0497789029439315,1.4860235561968531,2.598060016567594e-07
0.8000000000000114,108.354,3.1474,253.0,-0.5,-30.0,17.2,1.0952461185726268,1.7863319237456223,3.437673247730366e-07
0.9000000000000341,108.085,3.36884,253.0,-1.0,-29.8,17.2,1.0637731293363824,2.099096191766051,4.344803012923393e-07
1.0,107.805,3.51524,253.3,-2.6,-24.7,17.2,0.9937361369452855,2.4436684273064273,5.45509144800338e-07
1.1000000000000227,107.534,3.53259,253.3,-4.8,-12.7,17.2,0.9174057038098752,2.7813368562665417,6.732168702505703e-07
1.1999999999999886,107.242,3.43965,252.6,-4.9,2.4,17.2,0.8508939950896476,3.1392203364910545,8.286884655150928e-07
1.3000000000000114,106.92,3.33001,252.5,-2.4,16.5,17.2,0.8384141214946575,3.5033202891579585,1.0169692372108408e-06
1.400000000000034,106.617,3.2248,253.3,0.1,23.6,17.3,0.8463345397916834,3.837223733904464,-0.0999987900607126
1.5,106.318,3.20485,253.1,0.5,24.1,17.3,0.8947434004367469,4.1463146059300415,-0.0999985897788162
1.6000000000000227,105.995,3.27846,252.5,-0.2,22.8,17.3,0.9841175284813216,4.462439106837422,-0.09999836272583645
1.6999999999999886,105.693,3.31046,251.9,-2.9,19.5,17.3,1.0761500471844778,4.754094757908874,-0.09999813781860523
1.8000000000000114,105.355,3.21575,251.5,-7.3,6.4,17.3,1.2120373708784054,5.064690053193313,-0.09999787593090093
1.900000000000034,105.045,3.08165,252.5,-13.3,-6.6,17.3,1.338834153218948,5.348174124057212,-0.09999761802853624
2.0,104.739,2.92141,254.4,-14.0,-18.4,17.2,1.4501053418124281,5.634605979741535,2.652578438455677e-06
2.1000000000000227,104.465,2.83166,254.6,-10.7,-25.2,17.2,1.4833556411228397,5.924741885955866,2.9231051229539062e-06
2.1999999999999886,104.189,2.88012,254.4,-8.6,-26.4,17.2,1.5237720414942544,6.213014356108679,3.2060329973049306e-06
2.3000000000000114,103.927,2.96759,254.6,-8.2,-27.3,17.2,1.5326229403045695,6.501210483492201,3.4948086327091232e-06
2.400000000000034,103.649,3.07947,254.7,-8.3,-28.3,17.2,1.5137312323731817,6.821153494142294,3.82444655910863e-06
2.5,103.374,3.09852,254.9,-9.6,-28.3,17.2,1.5085793751041379,7.130763676442208,4.161392396784258e-06
2.6000000000000227,103.142,3.02011,254.4,-11.8,-18.2,17.2,1.4295993410727723,7.430254943954303,4.484454658282289e-06
2.6999999999999886,102.931,2.8341,252.5,-12.2,1.2,17.2,1.3557887141112315,7.7033681252964925,4.792011324417089e-06
2.8000000000000114,102.716,2.56009,251.5,-9.9,17.2,17.2,1.3030429673063382,7.971120155133622,5.109501186484344e-06
2.900000000000034,102.509,2.35369,251.6,-7.8,23.1,17.2,1.2945102930862076,8.208851236343289,5.409013949742025e-06
3.0,102.28,2.23615,250.9,-7.6,23.5,17.2,1.3403533120007123,8.441778621806446,5.722982826528167e-06
3.1000000000000227,102.064,2.21874,250.3,-8.3,23.7,17.2,1.4135690732545054,8.647694044657136,6.014554183253473e-06
3.1999999999999886,101.839,2.2113,250.0,-9.1,23.9,17.2,1.5241005596176458,8.843841740387806,6.30835821724407e-06
3.3000000000000114,101.627,2.32358,249.9,-9.5,23.9,17.2,1.667353373863938,9.009441554197892,6.575972441580369e-06
3.400000000000034,101.433,2.2291,251.0,-10.7,13.8,17.2,1.7753709278138783,9.172185167000125,6.836587963521268e-06
3.5,101.238,2.05908,252.7,-12.7,-9.0,17.2,1.9335078113980262,9.3105439013656,7.083402580265741e-06
3.6000000000000227,101.047,1.81483,254.3,-12.6,-24.2,17.2,2.068661182056414,9.456188318015384,7.33917733242162e-06
3.6999999999999886,100.879,1.64547,254.1,-9.5,-25.7,17.2,2.1590957747201136,9.598900176079688,7.583899847007913e-06
3.8000000000000114,100.722,1.64068,254.0,-8.0,-25.8,17.2,2.1943976405774137,9.757405336757053,7.835474108208729e-06
3.900000000000034,100.568,1.73591,254.2,-8.0,-27.3,17.2,2.2194762666071775,9.917361518247102,8.089898559271447e-06
4.0,100.407,1.82493,254.4,-8.1,-28.1,17.2,2.2197769599646113,10.0983041073115,8.374363395624584e-06
4.100000000000023,100.263,2.02818,254.5,-8.2,-28.6,17.2,2.1831173420898544,10.278231023670074,8.649066570498576e-06
4.199999999999989,100.114,2.0697,254.5,-10.7,-26.3,17.2,2.1710593979668698,10.452101791350099,8.926338707970771e-06
4.300000000000011,100.001,1.97239,253.7,-14.2,-9.3,17.2,2.0839250091690884,10.623895390722758,9.181596433371908e-06
4.400000000000034,99.8945,1.67596,251.6,-12.5,11.3,17.2,1.99951834149017,10.787166143256723,9.427009071250048e-06
4.5,99.7893,1.35623,251.6,-8.8,21.6,17.2,1.954791057203726,10.92857222630737,9.654451677443276e-06
4.600000000000023,99.67,1.16803,250.9,-8.3,23.3,17.2,1.950939424919827,11.064991321299335,9.888885605158215e-06
4.699999999999989,99.553,1.23235,250.2,-8.8,23.6,17.2,1.9834817427303746,11.180026874960404,1.0099151983911092e-05
4.800000000000011,99.4326,1.3256,249.9,-9.0,24.0,17.2,2.065926673022508,11.273067916335908,1.0289132072016649e-05
4.900000000000034,99.3193,1.52671,250.1,-9.5,21.8,17.2,2.1759581791516314,11.34391590270866,1.0451333340433244e-05
5.0,99.2066,1.50533,251.3,-10.3,7.7,17.2,2.304595537558198,11.404530339523546,1.0604160007643415e-05
5.100000000000023,99.1352,1.25242,252.7,-12.0,-11.0,17.2,2.3617019004068043,11.455568104203564,1.0716153447498655e-05
5.199999999999989,99.0389,0.955146,253.9,-11.3,-23.4,17.2,2.4626457370619663,11.512089159683933,1.0856814384840874e-05
5.300000000000011,98.9569,0.779986,253.8,-8.4,-26.5,17.2,2.5212604659172957,11.574208155196729,1.0991844316965427e-05
5.400000000000034,98.8791,0.883254,253.7,-7.0,-26.5,17.2,2.541894879813671,11.651188724286897,1.1140943708021211e-05
5.5,98.8071,1.10615,254.1,-7.3,-27.7,17.2,2.531723739370215,11.737402425102786,1.1294135811246164e-05
5.600000000000023,98.7259,1.27615,254.3,-7.6,-28.4,17.2,2.4946104013897856,11.84794751771635,1.1483239681364665e-05
5.699999999999989,98.6577,1.54108,254.5,-8.7,-28.4,17.2,2.4245705820061234,11.96084483867404,1.1666803376497725e-05
5.800000000000011,98.598,1.62825,254.3,-10.8,-20.1,17.2,2.3252508805938312,12.079447010783072,1.1853254026528148e-05
5.900000000000034,98.5338,1.41229,252.8,-11.3,-1.7,17.2,2.289853925630561,12.170204728944826,1.2012445902209734e-05
6.0,98.4824,1.11202,251.8,-8.7,15.3,17.2,2.2129687258510433,12.26821762860693,1.2172630962981046e-05
6.100000000000023,98.4275,0.805672,251.6,-7.0,22.3,17.2,2.173520599033916,12.350727433070839,1.2317945727202684e-05
6.199999999999989,98.3604,0.681284,250.9,-7.0,22.9,17.2,2.1692846054482424,12.428685571099688,1.2467798948923026e-05
6.300000000000011,98.2908,0.912038,250.9,-5.9,23.7,17.3,2.2049158387604715,12.488651156630286,-0.09998740244813131
6.400000000000034,98.2219,1.01271,250.9,-5.8,24.1,17.2,2.2429308896558138,12.546653654056211,1.2725270625901786e-05
6.5,98.1457,1.2978,250.8,-6.7,21.0,17.2,2.3491741382305924,12.577262473648915,1.2823295978625637e-05
6.600000000000023,98.0686,1.39306,251.2,-7.7,10.5,17.2,2.4791030803586134,12.596652559852338,1.291060413088907e-05
6.699999999999989,97.9966,1.31688,252.0,-9.3,-5.0,17.2,2.6041977882489107,12.612964953001898,1.2993190567467394e-05
6.800000000000011,97.9357,0.977265,253.5,-10.3,-18.5,17.2,2.697585394019042,12.63334026091782,1.307224779090177e-05
6.900000000000034,97.8745,0.662475,253.8,-8.5,-25.3,17.2,2.7763778508900967,12.661505282793385,1.3161675089135016e-05
7.0,97.8189,0.545157,253.6,-6.4,-26.4,17.2,2.819709700079444,12.701782566883056,1.3260786792423929e-05
7.100000000000023,97.7659,0.691255,253.8,-6.2,-27.5,17.2,2.8321348561874737,12.755142021694727,1.337263732681393e-05
7.199999999999989,97.6891,0.899554,254.2,-7.0,-28.7,17.2,2.8596059671081497,12.827464028418063,1.3529718810856295e-05
7.300000000000011,97.6372,1.25786,254.3,-7.2,-29.3,17.2,2.811795466105364,12.910577165243698,1.3676201069179328e-05
7.400000000000034,97.5908,1.57381,254.4,-7.8,-29.4,17.2,2.719350019107387,13.010827708155867,1.3840293443534435e-05
7.5,97.5566,1.86871,254.7,-9.2,-27.5,17.2,2.5933539252455713,13.114957877715916,1.3999202107539688e-05
7.600000000000023,97.5353,1.98572,254.4,-10.3,-18.6,17.2,2.4434120798956798,13.217407937773086,1.415089103207201e-05
7.699999999999989,97.5118,1.91048,253.3,-9.7,-6.6,17.2,2.284772688466007,13.327189513994886,1.4320274638990327e-05
7.800000000000011,97.4792,1.61396,252.1,-7.1,8.1,17.2,2.1370644905555345,13.441927460243164,1.450997345664451e-05
7.900000000000034,97.4398,1.23802,252.1,-4.7,19.8,17.2,2.0294257542570517,13.543583231775191,1.4688705011089986e-05
8.0,97.3887,0.910479,251.5,-4.7,23.3,17.2,1.957348788714306,13.639755622073714,1.4872222723116835e-05
8.100000000000023,97.3232,0.718471,251.3,-4.5,24.0,17.2,1.914531476802826,13.736905509407627,1.5067492786458025e-05
8.199999999999989,97.2522,0.754805,251.6,-3.4,24.8,17.2,1.929620836126353,13.80935736467752,1.5228121269417194e-05
8.300000000000011,97.1771,1.03299,251.4,-3.9,25.1,17.2,1.984412688460533,13.865366783415087,1.536595182372036e-05
8.400000000000034,97.0947,1.21419,251.1,-5.7,20.2,17.2,2.07671674080955,13.909607587895165,1.5491925459465428e-05
8.5,97.035,1.24396,251.3,-7.9,7.2,17.2,2.137501507525037,13.944913191557788,1.5588345111061663e-05
8.600000000000023,96.9506,1.1325,252.4,-9.8,-7.9,17.2,2.253447903056592,13.979057894714877,1.5703915856368766e-05
8.699999999999989,96.8754,0.87815,253.7,-9.9,-21.3,17.2,2.345705721308928,14.015295153316544,1.581650890414288e-05
8.800000000000011,96.8018,0.659326,253.8,-8.1,-26.8,17.2,2.4119806530688868,14.063652316299393,1.594771859858568e-05
8.900000000000034,96.7391,0.744136,253.6,-6.8,-27.2,17.2,2.4488399095793962,14.115178861867252,1.6074897678297617e-05
9.0,96.6726,0.940111,254.0,-7.1,-27.2,17.2,2.4408504053035673,14.194626210745682,1.6248053770206994e-05
9.100000000000023,96.6162,1.25806,254.4,-7.6,-28.4,17.2,2.3986225492347066,14.280992692569338,1.6425253827723196e-05
9.199999999999989,96.5675,1.42262,254.6,-9.0,-27.7,17.2,2.319951616867602,14.377974607682908,1.6613183445146618e-05
9.300000000000011,96.5148,1.38852,254.2,-11.8,-14.4,17.2,2.284236810404039,14.456704127176117,1.677791120791028e-05
9.400000000000034,96.476,1.20567,252.6,-11.1,2.0,17.2,2.1895606373357213,14.551341521245018,1.6959721160780816e-05
9.5,96.4384,0.901597,251.8,-8.3,14.3,17.2,2.1234505784041753,14.629399034072385,1.711612646193572e-05
9.600000000000023,96.3961,0.586736,251.2,-7.6,21.1,17.2,2.0891487561925244,14.695878848346489,1.7256699186285474e-05
9.699999999999989,96.3486,0.611957,250.5,-7.4,23.3,17.2,2.0908767830000223,14.748894652594853,1.7379062508426912e-05
9.800000000000011,96.2952,0.821666,250.7,-6.2,24.3,17.2,2.099259475026673,14.805049244919235,1.7512219042559174e-05
9.900000000000034,96.2284,1.23935,250.6,-5.8,25.3,17.2,2.178615416337002,14.838384470742344,1.761731214411366e-05
10.0,96.1471,1.5398,250.6,-6.0,24.7,17.2,2.3081109304062375,14.861302800286971,1.7716795263078566e-05
10.100000000000023,96.0671,1.77405,250.9,-7.6,17.1,17.2,2.4632830162935466,14.869107544209548,1.779223452236245e-05
10.199999999999989,95.9901,1.71947,251.5,-9.6,1.8,17.2,2.620451792461803,14.872734871895254,1.7864058129868354e-05
10.300000000000011,95.9178,1.49289,253.1,-10.4,-14.1,17.2,2.777036853037874,14.871558544347193,1.792800652467008e-05
10.400000000000034,95.8471,1.05622,253.8,-8.8,-24.9,17.2,2.9111123016376745,14.880661599809166,1.800846616051288e-05
10.5,95.7846,0.679026,253.5,-6.3,-27.1,17.2,3.0019542089675384,14.903473070039713,1.8104462225387863e-05
10.600000000000023,95.7226,0.589161,253.6,-5.6,-26.8,17.2,3.0739822371312506,14.935655133183719,1.8214825054485573e-05
10.699999999999989,95.6647,0.689786,253.9,-6.2,-27.7,17.2,3.0949893958073957,14.990160109665565,1.8351386470882858e-05
10.800000000000011,95.6043,0.869331,254.2,-7.0,-28.4,17.2,3.082974735005791,15.06475034419168,1.8521827743533947e-05
10.900000000000034,95.5532,1.1053,254.2,-8.3,-25.9,17.2,3.0381838383641004,15.146244449310874,1.869239966123537e-05
11.0,95.4956,1.1488,253.5,-7.4,-14.6,17.2,3.0020153921826296,15.230671140037362,1.887638710673656e-05
11.100000000000023,95.4391,1.12699,252.4,-1.9,0.2,17.2,2.9446665026358114,15.325018276925178,1.9075198119056225e-05
11.199999999999989,95.363,1.09283,253.0,3.6,12.7,17.2,2.910124907495604,15.42966763388039,1.9312182775621523e-05
11.300000000000011,95.2703,1.15929,253.2,4.5,18.2,17.2,2.9093708956859614,15.53511882931748,1.9567336574599636e-05
11.400000000000034,95.1473,1.39283,253.4,5.2,20.6,17.3,2.9476577628103997,15.65423273118882,-0.0999801237811826
11.5,95.0076,1.73478,253.9,6.7,22.6,17.3,3.0223443141722717,15.77293394374803,-0.09997979721659367
11.600000000000023,94.8299,1.94929,253.7,5.7,22.7,17.3,3.143729027074761,15.909788136427817,-0.09997939840721837
11.699999999999989,94.6442,2.17533,252.7,2.0,16.7,17.2,3.2931019340340466,16.04089902954511,2.1005318113775928e-05
11.800000000000011,94.4422,2.23711,251.8,-3.1,2.6,17.2,3.4690212504898,16.176462475388544,2.143929539766276e-05
11.900000000000034,94.2665,2.07789,252.6,-8.5,-9.4,17.2,3.594168159224503,16.309162140998453,2.1848405582947095e-05
12.0,94.0765,1.82952,254.0,-10.1,-20.2,17.2,3.736077403237481,16.449300170691806,2.2289496036442813e-05
12.100000000000023,93.9039,1.68438,254.1,-8.7,-26.4,17.2,3.83854709580569,16.59059145175422,2.2717005843109206e-05
12.199999999999989,93.7283,1.72116,254.0,-7.4,-26.7,17.2,3.91017948163621,16.751486862091177,2.3179489293534417e-05
12.300000000000011,93.5559,1.80628,254.3,-7.6,-27.6,17.2,3.9529480916367215,16.924097417851677,2.366201962233916e-05
12.400000000000034,93.3648,1.95004,254.5,-7.8,-28.5,17.2,3.974507433974563,17.129149833815283,2.4221196812890256e-05
12.5,93.2007,2.15354,254.6,-8.1,-28.8,17.2,3.948524889088573,17.328787718459722,2.474359882809196e-05
12.600000000000023,93.0548,2.32011,254.9,-8.8,-28.9,17.2,3.8661150988294937,17.53817047040439,2.526433005756168e-05
12.699999999999989,92.9252,2.45334,255.1,-10.7,-26.1,17.2,3.7779984171846146,17.732355681201305,2.5748440213080315e-05
12.800000000000011,92.8003,2.46874,254.1,-11.1,-13.1,17.2,3.644209450645574,17.94619852300216,2.6268086753322706e-05
12.900000000000034,92.6784,2.28873,252.5,-8.9,4.8,17.2,3.5266279808847334,18.148501885377406,2.6772584255541076e-05
13.0,92.5391,2.03246,252.4,-5.2,18.4,17.2,3.4339487284972656,18.357411186432728,2.7319969541528266e-05
13.100000000000023,92.3994,1.8153,251.8,-4.6,22.9,17.3,3.382231842077151,18.544983023594085,-0.09997216500687567
13.199999999999989,92.2287,1.68959,251.5,-3.9,23.6,17.3,3.351582712213727,18.75641240770896,-0.09997156388509199
13.300000000000011,92.0702,1.71788,251.9,-2.4,25.1,17.3,3.377360766647747,18.923302914637425,-0.0999710574896926
13.400000000000034,91.8935,1.78625,251.6,-2.7,24.7,17.3,3.4452714470953483,19.08776479014664,-0.09997053087283847
13.5,91.7161,1.94735,251.2,-3.9,21.1,17.3,3.549723422014474,19.23293561731204,-0.0999700386023088
13.600000000000023,91.5486,2.03466,251.1,-4.5,12.1,17.3,3.6377193609334735,19.375914678484907,-0.09996955637752225
13.699999999999989,91.3622,2.06292,251.5,-5.7,1.1,17.3,3.78136527129188,19.509966004791334,-0.09996906351743173
13.800000000000011,91.1642,1.95418,252.4,-6.1,-11.9,17.3,3.928331294888202,19.655365849866463,-0.0999685283259577
13.900000000000034,90.9794,1.88201,253.0,-5.2,-24.0,17.3,4.042356389920087,19.803889271977283,-0.09996799798645162
14.0,90.8004,1.89556,253.1,-4.5,-27.2,17.3,4.125547039813094,19.962531731179666,-0.0999674515617508
14.100000000000023,90.6188,1.9993,253.4,-4.5,-27.1,17.3,4.170925011278461,20.144963403642542,-0.09996684883420115
14.199999999999989,90.4243,2.18261,253.7,-4.7,-28.1,17.3,4.18747104557845,20.357836069607817,-0.09996616272577907
14.300000000000011,90.2416,2.4337,253.7,-4.6,-29.3,17.3,4.168128803978863,20.577154405344803,-0.09996547180986637
14.400000000000034,90.0248,2.56938,253.7,-4.6,-29.6,17.2,4.1626680058431695,20.827936666260246,3.533624829588078e-05
14.5,89.8557,2.74909,253.8,-5.6,-25.8,17.2,4.073135608683472,21.070845731595234,3.607661526849881e-05
14.600000000000023,89.6882,2.82355,253.4,-6.3,-12.1,17.2,3.9577532674178015,21.32695915547383,3.685403900899331e-05
14.699999999999989,89.5229,2.71276,252.4,-4.6,5.8,17.3,3.85917085535505,21.571678540479603,-0.09996238322928042
14.800000000000011,89.3351,2.53957,252.8,-1.3,19.2,17.3,3.787995859175894,21.827387126540536,-0.09996155831139997
14.900000000000034,89.149,2.44747,252.9,-0.1,23.5,17.3,3.7480944988398432,22.063888681711173,-0.09996076834480028
15.0,88.9164,2.46038,252.4,-0.1,23.4,17.3,3.7648631778550525,22.321995088831205,-0.09995986200866902
15.100000000000023,88.6786,2.56123,252.4,0.1,23.8,17.3,3.8247122171699774,22.561787948798084,-0.09995898306950823
15.199999999999989,88.4141,2.6259,252.0,-1.2,23.2,17.3,3.931461665981539,22.8055824733345,-0.09995805199888519
15.300000000000011,88.1501,2.65568,251.7,-3.6,13.0,17.3,4.01575351226268,23.06165727426236,-0.09995707803430953
15.400000000000034,87.882,2.60902,252.0,-6.6,-5.4,17.3,4.153244940925688,23.292132853461474,-0.09995615438027072
15.5,87.6347,2.51809,253.3,-8.6,-20.9,17.3,4.266420720551999,23.512611693294826,-0.09995527086425793
15.600000000000023,87.3854,2.47846,254.1,-8.2,-25.9,17.3,4.354963080698251,23.749296231074172,-0.09995433409365706
15.699999999999989,87.1644,2.54851,254.1,-6.7,-25.9,17.3,4.40848399688829,23.973486772459673,-0.09995346035341512
15.800000000000011,86.9293,2.69071,254.3,-6.5,-27.2,17.3,4.427977575182316,24.233364918858427,-0.09995246615954168
15.900000000000034,86.7081,2.87922,254.2,-6.2,-28.8,17.3,4.413429300879676,24.497076902190134,-0.09995146926755494
16.0,86.4771,2.96603,253.9,-6.3,-27.4,17.2,4.365252393640205,24.791756469660786,4.963589699347182e-05
16.100000000000023,86.2434,2.96613,253.6,-7.7,-15.2,17.3,4.342708857847663,25.075225692464677,-0.09994927424657396
16.19999999999999,86.0244,2.87989,252.6,-7.0,3.0,17.3,4.276573421087847,25.367393140444484,-0.09994816394884776
16.30000000000001,85.809,2.74855,252.7,-2.9,17.7,17.3,4.242720080941687,25.636985636520425,-0.09994711011443158
16.400000000000034,85.5725,2.66123,252.8,-1.5,23.5,17.3,4.247783287142818,25.908548377518166,-0.09994600974002243
16.5,85.3361,2.66195,252.3,-1.4,23.7,17.3,4.292326452926311,26.156925198961105,-0.09994496698947164
16.600000000000023,85.1076,2.75254,252.3,-1.0,23.3,17.3,4.34550648188409,26.391150694965344,-0.09994396834746677
16.69999999999999,84.8455,2.89032,251.8,-2.0,23.2,17.3,4.466122974516377,26.624566494697056,-0.09994291531579247
16.80000000000001,84.5525,2.9461,251.2,-4.4,21.5,17.2,4.6324522171559455,26.86681771323628,5.821889569945782e-05
16.900000000000034,84.2684,2.99772,251.1,-6.2,12.1,17.2,4.813604909127074,27.089992157432818,5.929692987560742e-05
17.0,83.9735,2.89475,251.8,-8.0,-1.5,17.2,4.964437564016654,27.34376035893353,6.049542243324879e-05
17.100000000000023,83.6949,2.75917,252.9,-7.9,-15.8,17.2,5.134468364420706,27.567163929647233,6.159030275254551e-05
17.19999999999999,83.4094,2.6463,253.4,-7.0,-25.0,17.2,5.285783567179061,27.80958357900663,6.276640223390473e-05
17.30000000000001,83.1471,2.58974,253.8,-6.7,-26.3,17.2,5.398260227379717,28.04802447724238,6.390355400975878e-05
17.400000000000034,82.8556,2.63029,254.3,-6.9,-25.9,17.2,5.52122317783635,28.314202784682735,6.518397957444577e-05
17.5,82.617,2.6538,254.5,-7.3,-27.7,17.2,5.567664847006851,28.564183316798157,6.633903075226044e-05
17.600000000000023,82.3854,2.64088,254.7,-9.0,-25.6,17.2,5.578498559006933,28.82720787143263,6.752921485286834e-05
17.69999999999999,82.1722,2.64402,254.1,-9.5,-15.2,17.2,5.570524120803415,29.080205157884706,6.866970540553297e-05
17.80000000000001,81.9524,2.60834,252.7,-7.1,-2.7,17.2,5.590419440071661,29.324626050147877,6.980618827290286e-05
17.900000000000034,81.7309,2.56963,252.2,-3.1,10.5,17.2,5.599571417173043,29.577546914622264,7.098044575837292e-05
18.0,81.481,2.59479,252.9,0.4,20.6,17.2,5.641967791303671,29.843733072537553,7.225669193955397e-05
18.100000000000023,81.2277,2.71959,253.1,1.3,23.7,17.2,5.723052391247994,30.090819075675373,7.348937296836056e-05
18.19999999999999,80.9443,2.91193,252.6,0.7,23.3,17.2,5.852508187411066,30.343976310460903,7.480478881438657e-05
18.30000000000001,80.653,3.14903,252.5,1.2,21.9,17.2,5.998830335822282,30.59611777559234,7.61444162233893e-05
18.400000000000034,80.3322,3.28142,251.9,0.2,20.7,17.2,6.208748722407129,30.844539827132856,7.754227267531277e-05
18.5,80.019,3.4678,251.4,-2.2,20.2,17.2,6.441884632792911,31.069982184301878,7.886641879117917e-05
18.600000000000023,79.6918,3.5534,251.0,-4.9,12.4,17.2,6.708316903593644,31.292048887245546,8.022691745557253e-05
18.69999999999999,79.4145,3.48674,251.6,-7.1,0.6,17.2,6.923234066049856,31.486935798091093,8.141572081976634e-05
18.80000000000001,79.0835,3.34496,252.7,-8.5,-8.7,17.2,7.196549265631001,31.709567594751178,8.282144274351921e-05
18.900000000000034,78.7748,3.15309,253.5,-7.7,-20.1,17.2,7.434666767676328,31.92745693527715,8.418182939662344e-05
19.0,78.4575,2.98672,253.8,-7.0,-25.6,17.2,7.652987995703042,32.16716512671392,8.564362867291564e-05
19.100000000000023,78.1626,2.85631,254.3,-7.0,-25.8,17.2,7.833447360124424,32.40324587765085,8.70577308393905e-05
19.19999999999999,77.8581,2.7866,254.4,-6.8,-27.0,17.2,7.997687706605645,32.66022139396422,8.85711920695087e-05
19.30000000000001,77.5818,2.73699,254.5,-6.8,-28.6,17.2,8.112961629863566,32.913256395982486,9.00169135102935e-05
19.400000000000034,77.3094,2.68887,254.7,-8.3,-27.4,17.2,8.188287496517946,33.185483199847184,9.152362549835757e-05
19.5,77.0745,2.64977,253.9,-8.4,-16.9,17.2,8.24153128675185,33.427314976642734,9.285380492274342e-05
19.600000000000023,76.8314,2.68125,252.5,-6.0,-1.3,17.2,8.273487789311826,33.691538391371004,9.428458808091733e-05
19.69999999999999,76.5899,2.73035,252.4,-2.0,12.4,17.2,8.326789398756622,33.94122095311031,9.567657859754775e-05
19.80000000000001,76.3149,2.87876,253.3,1.7,20.0,17.2,8.424304169707078,34.20347762301349,9.720389918532746e-05
19.900000000000034,76.0291,3.10356,253.3,3.1,21.3,17.2,8.555103729794077,34.458578338120674,9.875089834698869e-05
20.0,75.6962,3.3252,253.0,3.4,20.3,17.2,8.71373563579591,34.751947748262765,0.00010055717201407077
20.100000000000023,75.3658,3.57374,252.2,1.3,20.7,17.2,8.917785489966048,35.01511662975867,0.00010227684392560832
20.19999999999999,75.0052,3.66101,251.4,-2.0,20.6,17.2,9.168065394735535,35.285975762011205,0.0001041252839524276
20.30000000000001,74.661,3.67484,251.2,-6.5,9.9,17.2,9.425098120592809,35.533694868841934,0.0001058746244728681
20.400000000000034,74.3159,3.43836,252.2,-11.5,-6.5,17.2,9.660907113567717,35.79525983851273,0.00010769048645986601
20.5,74.0017,3.18998,254.0,-12.0,-18.9,17.2,9.88857900482017,36.02575386949791,0.00010933689169512206
20.600000000000023,73.6932,2.99359,254.1,-8.9,-24.7,17.2,10.08843317606852,36.2662485883086,0.0001110115980633708
20.69999999999999,73.4053,2.86691,253.9,-6.9,-25.7,17.2,10.247296104544105,36.50706038266246,0.00011263900942815042
20.80000000000001,73.0952,2.9081,254.1,-6.6,-26.4,17.2,10.404656563132217,36.774506061749335,0.00011442985903453717
20.900000000000034,72.816,2.8907,254.2,-6.4,-28.2,17.2,10.499611287352609,37.043017315255504,0.00011613666683985002
21.0,72.5361,2.85005,254.4,-7.8,-27.6,17.2,10.558484209510269,37.33388590513353,0.00011793046705488308
21.100000000000023,72.2849,2.82187,254.2,-9.7,-17.5,17.2,10.58991784064002,37.607739450131305,0.00011959025238095222
21.19999999999999,72.0362,2.73189,252.8,-9.2,-1.8,17.2,10.63471564273366,37.87089738057704,0.0001212206405236671
21.30000000000001,71.7932,2.6964,252.1,-5.9,12.5,17.2,10.67984861565627,38.12732332565572,0.00012282254193429765
21.400000000000034,71.524,2.76248,252.7,-1.9,20.7,17.2,10.761014395618115,38.39289057338351,0.0001245497026252096
21.5,71.2546,2.89682,252.8,-0.3,22.5,17.2,10.877267986225188,38.63758969165961,0.00012622533872619357
21.600000000000023,70.9566,3.08743,252.1,-1.0,22.5,17.2,11.041973685762976,38.886488943978065,0.0001280200033360046
21.69999999999999,70.6653,3.29465,251.6,-2.5,22.8,17.2,11.21698061190037,39.121427786004446,0.000129761245523774
21.80000000000001,70.3439,3.38481,251.2,-4.7,21.7,17.2,11.454240135945255,39.35416310733598,0.00013161532016603417
21.900000000000034,70.0331,3.4731,251.1,-6.5,14.5,17.2,11.706698653253047,39.56557979638484,0.0001333820062274782
22.0,69.7056,3.43006,251.8,-7.4,2.6,17.2,11.984819347467086,39.78132270091478,0.00013524069445836062
22.100000000000023,69.4095,3.23365,252.8,-7.8,-10.5,17.2,12.2042271361551,39.99566827649443,0.00013699732875949167
22.19999999999999,69.0987,3.00925,253.7,-7.0,-22.1,17.2,12.444231712182605,40.215073238455425,0.00013884078422776724
22.30000000000001,68.8145,2.82872,253.7,-6.0,-25.8,17.2,12.637347440076812,40.43132431602726,0.00014058874244859965
22.400000000000034,68.5281,2.74024,253.8,-5.5,-26.2,17.2,12.80142609302125,40.66724449261478,0.00014241618104549048
22.5,68.2566,2.65737,253.9,-5.4,-27.4,17.2,12.932323990347971,40.90557043136519,0.00014420317016927697
22.600000000000023,67.9845,2.67094,253.9,-5.4,-28.1,17.2,13.03347687632321,41.162015163616275,0.00014605781453802535
22.69999999999999,67.7349,2.72453,253.5,-5.1,-26.3,17.2,13.093257087198495,41.41687922292418,0.0001478283430245142
22.80000000000001,67.4789,2.74979,252.8,-4.7,-14.4,17.2,13.131640218420806,41.69203475522926,0.0001496990640212914
22.900000000000034,67.2274,2.75238,252.1,-4.1,3.8,17.2,13.215088757350943,41.935248529505905,0.00015146609098160013
23.0,66.9581,2.82644,252.4,-1.7,17.1,17.2,13.288522201793311,42.20518786530419,0.0001533974175362829
23.100000000000023,66.6808,2.95592,253.1,0.5,21.5,17.2,13.398101076770631,42.46302247113574,0.00015533649223531398
23.19999999999999,66.3631,3.10446,252.8,0.6,21.8,17.2,13.55824149126514,42.73767723510339,0.0001575086653469171
23.30000000000001,66.0506,3.32697,252.0,-1.4,22.9,17.3,13.745173989593676,42.990299943856705,-0.09984039251835952
23.400000000000034,65.7102,3.4019,251.3,-3.3,21.6,17.2,13.931300039467201,43.27592057891485,0.00016194191064045071
23.5,65.394,3.4916,251.2,-5.2,15.2,17.2,14.171726583983896,43.501106599450914,0.00016400356397117122
23.600000000000023,65.074,3.45262,251.5,-7.5,4.9,17.2,14.434818771805325,43.717311448800224,0.00016607235869248171
23.69999999999999,64.7704,3.33249,252.3,-9.1,-5.5,17.2,14.684566951862044,43.9226565963253,0.00016805398241537262
23.80000000000001,64.4745,3.09303,253.4,-8.8,-17.3,17.2,14.915010025352055,44.130621292338205,0.0001700242655466866
23.900000000000034,64.1828,2.88849,253.8,-7.9,-25.7,17.2,15.118089044773736,44.34982769275017,0.00017202361622636886
24.0,63.8911,2.77308,253.8,-7.0,-26.6,17.2,15.290394368053041,44.58722164250644,0.00017408974825361412
24.100000000000023,63.6201,2.68371,254.1,-7.0,-26.8,17.2,15.421006297740156,44.82503197010618,0.00017607064775759795
24.19999999999999,63.3146,2.64511,254.3,-7.3,-27.7,17.2,15.567219077290769,45.093718439379046,0.0001783183340897665
24.30000000000001,63.0689,2.63591,254.4,-8.2,-28.1,17.2,15.625164504889517,45.34485557539491,0.00018023998947303
24.400000000000034,62.833,2.60365,254.0,-9.1,-19.8,17.2,15.64877337684921,45.60494720136094,0.00018215052459069625
24.5,62.6094,2.59986,252.8,-6.5,-4.5,17.2,15.668079659571054,45.8535681344158,0.00018397912080914125
24.600000000000023,62.3715,2.73324,252.6,0.1,8.7,17.2,15.71070179022695,46.105217014855484,0.00018589698299376067
24.69999999999999,62.1097,2.90468,253.8,6.2,16.9,17.2,15.785085976114406,46.36580098718784,0.00018796769149709291
24.80000000000001,61.8043,3.15035,254.0,7.2,19.7,17.2,15.903515792487271,46.65102918705975,0.0001903414468618081
24.900000000000034,61.4909,3.43241,253.5,6.5,19.2,17.3,16.05271093679546,46.92730364446345,-0.09980725890942477
25.000000000000057,61.1417,3.61992,252.9,5.3,18.6,17.2,16.245864481760588,47.21893814339876,0.00019538178584355137
25.099999999999966,60.7982,3.85262,252.4,3.3,20.0,17.2,16.43583397786897,47.5059224787567,0.00019799857061197912
25.19999999999999,60.4127,3.9985,252.1,2.1,18.8,17.2,16.69134157320442,47.802712338748385,0.00020088106532689665
25.30000000000001,60.0361,4.05426,251.8,-0.7,8.0,17.2,16.95703187424659,48.08325832473078,0.00020369073471382393
25.400000000000034,59.6396,3.96981,252.2,-6.0,-7.3,17.2,17.24076754874726,48.37647773511746,0.000206669428221673
25.500000000000057,59.2897,3.74042,253.4,-7.5,-20.7,17.2,17.45487929099636,48.6566230089425,0.00020938297248118687
25.599999999999966,58.9163,3.59815,253.5,-5.6,-26.4,17.2,17.679694063592954,48.957949304195964,0.00021230932457960705
25.69999999999999,58.5696,3.51683,253.4,-4.8,-26.6,17.2,17.856368810328448,49.256572344818004,0.00021509938585495547
25.80000000000001,58.2113,3.54135,253.6,-4.8,-27.1,17.2,18.004858992167012,49.58524310431394,0.0002180624696190847
25.900000000000034,57.8639,3.56938,253.7,-4.5,-28.8,17.2,18.128392096221695,49.91614397588723,0.00022099165635047768
26.000000000000057,57.4863,3.5722,253.3,-4.5,-26.6,17.2,18.249683085707975,50.28345018488707,0.0002242232712976744
26.099999999999966,57.1419,3.59984,253.0,-5.0,-13.1,17.2,18.333146840944913,50.63482209316336,0.00022723863095919228
26.19999999999999,56.7946,3.62886,252.3,-2.7,4.9,17.2,18.401928821169314,50.99859646974998,0.00023033257151183761
26.30000000000001,56.4547,3.73021,252.9,1.5,16.7,17.2,18.500860316013615,51.335908651333106,0.00023332402078857228
26.400000000000034,56.0781,3.87901,253.8,4.3,20.4,17.3,18.639772120149765,51.692164884240015,-0.09976339423944403
26.500000000000057,55.6994,4.04009,253.3,3.6,21.5,17.3,18.810659392524535,52.031561566148085,-0.09976013415243656
26.599999999999966,55.2804,4.21159,252.6,2.5,21.6,17.3,19.031047767566683,52.38837022929525,-0.09975655975188502
26.69999999999999,54.8699,4.36605,252.0,0.5,20.1,17.3,19.275494472972017,52.720732854385076,-0.09975308750075307
26.80000000000001,54.453,4.25129,251.4,-4.2,9.0,17.3,19.49523559369767,53.075376411190526,-0.09974947916636978
26.900000000000034,54.0514,4.11107,252.5,-8.6,-10.4,17.3,19.743733406966335,53.39498527762625,-0.0997460467073541
27.000000000000057,53.647,3.89001,254.0,-9.4,-23.7,17.3,19.972319379851847,53.729784135071895,-0.09974252303712028
27.099999999999966,53.2785,3.72431,253.9,-7.5,-26.4,17.3,20.154608818335532,54.05039759931368,-0.09973924151621638
27.19999999999999,52.9119,3.65798,254.1,-7.0,-26.2,17.3,20.30228725155092,54.38974085649026,-0.09973589035360142
27.30000000000001,52.5724,3.58676,254.3,-7.5,-26.9,17.3,20.417937778311448,54.71661313766059,-0.0997327267329684
27.400000000000034,52.2327,3.49527,254.6,-8.8,-27.2,17.2,20.50568942277463,55.06076330845916,0.0002705144116585956
27.500000000000057,51.9268,3.36916,254.8,-11.0,-22.6,17.2,20.560650604466804,55.38556630369797,0.0002735016587340766
27.599999999999966,51.6074,3.28066,253.7,-11.1,-11.6,17.2,20.65298528491072,55.70359510533338,0.00027656821240640284
27.69999999999999,51.3125,3.20052,252.4,-8.2,3.7,17.3,20.703829131974423,56.01853204642983,-0.09972050962107737
27.80000000000001,50.9908,3.20268,252.4,-4.0,16.6,17.3,20.78312332507903,56.34782542321911,-0.09971735341169818
27.900000000000034,50.6713,3.29759,253.5,0.1,21.6,17.3,20.896956270867967,56.653356222313555,-0.09971427566759239
28.000000000000057,50.2865,3.4416,253.2,0.6,22.2,17.3,21.06364813775567,57.0029786394811,-0.09971061500594125
28.099999999999966,49.9432,3.62678,252.2,-1.3,22.3,17.3,21.251190697437842,57.290879102031994,-0.09970741199392918
28.19999999999999,49.5796,3.71458,251.2,-3.7,22.0,17.3,21.478071691641347,57.57840893348875,-0.09970406359395412
28.30000000000001,49.2302,3.80126,250.9,-6.2,17.8,17.3,21.72501759913038,57.83692203972201,-0.09970088733531846
28.400000000000034,48.868,3.69072,251.3,-9.2,5.1,17.3,21.99993730604168,58.09331189680678,-0.09969761282886758
28.500000000000057,48.5751,3.45001,252.6,-11.4,-8.2,17.3,22.186913198962998,58.32256818095927,-0.09969487371076013
28.599999999999966,48.2466,3.22991,253.8,-9.9,-19.6,17.3,22.424924518011917,58.56237460396804,-0.09969184229503547
28.69999999999999,47.9455,3.02872,253.7,-7.2,-25.8,17.3,22.619023206719874,58.79694996782624,-0.09968899821860511
28.80000000000001,47.6363,2.93427,253.6,-6.0,-26.6,17.3,22.78842501438563,59.056009521083254,-0.09968600303032105
28.900000000000034,47.3538,2.88946,253.9,-5.8,-27.7,17.2,22.911298808135975,59.31219692117266,0.0003168139094871236
29.000000000000057,47.052,2.85785,253.9,-6.3,-28.5,17.2,23.013694881839793,59.603515324045865,0.0003198976669303022
29.099999999999966,46.7821,2.83073,253.9,-8.4,-24.1,17.2,23.076584874669617,59.881744232387774,0.0003227287543623447
29.19999999999999,46.5154,2.73758,253.1,-10.5,-9.2,17.2,23.1255241300843,60.16491051112476,0.00032556965435048824
29.30000000000001,46.2663,2.64569,251.9,-9.2,7.9,17.2,23.18635374483509,60.420385144136844,0.00032820476483053085
29.400000000000034,46.0019,2.66247,252.1,-4.9,18.8,17.2,23.2860464204537,60.66993707309612,0.0003309342225072953
29.500000000000057,45.7437,2.74492,252.3,-2.6,22.3,17.3,23.411280111324906,60.89627347903769,-0.0996664496417381
29.599999999999966,45.4643,2.90906,251.7,-2.2,21.7,17.3,23.571469882054647,61.125904055019745,-0.099663664332164
29.69999999999999,45.2031,3.07522,251.0,-3.3,21.8,17.3,23.70471741321286,61.3508571590811,-0.09966100877889517
29.80000000000001,44.9009,3.17338,250.0,-6.5,23.9,17.3,23.93212685324658,61.56574418107253,-0.09965808995994863
29.900000000000034,44.6087,3.27196,250.0,-8.9,20.2,17.2,24.17988836612654,61.756466784715016,0.0003446894797658473
30.000000000000057,44.3045,3.18043,251.1,-10.5,2.6,17.2,24.4519037621279,61.946880908683866,0.00034757599384604987
30.099999999999966,44.0294,2.95617,253.0,-11.6,-15.2,17.2,24.69574298109999,62.12072301909244,0.0003502083010840096
30.19999999999999,43.7517,2.62306,254.1,-10.0,-24.0,17.2,24.90092443931948,62.321405411262575,0.00035296486769631485
30.30000000000001,43.5092,2.39904,253.8,-7.3,-26.0,17.2,25.079163517686705,62.49724116182256,0.0003553853830098319
30.400000000000034,43.269,2.29507,253.9,-6.4,-27.4,17.2,25.229732290588515,62.68720543648786,0.00035784344583333905
30.500000000000057,43.0528,2.19305,254.1,-6.4,-28.4,17.2,25.331837428561613,62.87825445077006,0.00036012862102374754
30.599999999999966,42.8487,2.14526,254.2,-7.9,-25.0,17.2,25.436229566387052,63.053846271409476,0.000362276750561108
30.69999999999999,42.651,2.09848,253.3,-9.4,-9.6,17.2,25.4945333982442,63.249664831997435,0.0003644472208090832
30.80000000000001,42.4399,2.07561,252.0,-8.2,9.7,17.2,25.57357560401845,63.448709868712584,0.0003667411798389253
30.900000000000034,42.2313,2.19522,252.2,-4.4,20.2,17.2,25.68174586108848,63.62727243097777,0.00036895306459427957
31.000000000000057,42.0009,2.47602,252.8,-1.5,22.0,17.3,25.84927373025762,63.79544553284759,-0.09962868839278194
31.099999999999966,41.7664,2.77413,252.2,-2.2,22.1,17.3,26.032862780282734,63.95895135900824,-0.09962630313842169
31.19999999999999,41.507,2.9829,251.4,-4.0,22.1,17.3,26.26055225479469,64.12522529208738,-0.09962369928599024
31.30000000000001,41.2517,3.23383,251.0,-5.7,21.8,17.3,26.512675704628062,64.27258997117963,-0.09962116920345387
31.400000000000034,40.9945,3.09194,251.5,-8.7,12.4,17.3,26.745995456546787,64.43377000506646,-0.09961856807375469
31.500000000000057,40.7535,2.90464,252.6,-12.6,-7.0,17.3,27.01097439445692,64.55821993965625,-0.09961618930005223
31.599999999999966,40.5203,2.56365,254.0,-11.7,-21.4,17.3,27.25847875611142,64.68445701647414,-0.09961385432576719
31.69999999999999,40.312,2.2412,253.6,-7.7,-26.1,17.3,27.45335707836366,64.8128098797495,-0.09961171319806894
31.80000000000001,40.103,2.01788,253.3,-5.9,-26.5,17.3,27.614530308808867,64.96158413313943,-0.09960950317109862
31.900000000000034,39.9203,1.9001,253.6,-5.9,-27.5,17.3,27.714138671875958,65.11528081013921,-0.09960750351427272
32.00000000000006,39.7153,1.8965,253.8,-5.8,-28.4,17.2,27.81497338227259,65.29395307859289,0.0003947605071097371
32.099999999999966,39.5342,1.93558,253.7,-5.7,-28.1,17.2,27.869860241684155,65.47132837978066,0.00039681809206548735
32.19999999999999,39.3572,1.9858,253.2,-5.2,-20.1,17.2,27.894584551701385,65.66138121264555,0.00039887816002881493
32.30000000000001,39.1833,2.00782,252.5,-3.2,-5.5,17.2,27.960879285372116,65.82409732037051,0.00040084539295826005
32.400000000000034,38.9911,2.11169,252.3,-0.6,9.0,17.2,27.995494630977767,66.02614390396863,0.0004030835558026524
32.50000000000006,38.7899,2.24396,252.9,1.8,18.0,17.2,28.06219555851362,66.22029558224285,0.0004053894870779118
32.599999999999966,38.5543,2.46559,253.3,2.8,21.2,17.2,28.17571174084288,66.42697725645876,0.00040803764067831594
32.69999999999999,38.3036,2.74836,252.8,1.6,21.8,17.3,28.3217344220422,66.63236720431863,-0.09958917131685219
32.80000000000001,38.029,2.94727,252.3,0.0,21.8,17.3,28.518107182302565,66.83631427899905,-0.09958616128726838
32.900000000000034,37.7572,3.17422,252.0,-1.3,19.5,17.3,28.73720186668161,67.0241587112952,-0.09958320615595184
33.00000000000006,37.4684,3.20286,251.9,-3.1,9.1,17.3,28.984776049605028,67.21566866178807,-0.09958006734964009
33.099999999999966,37.2063,3.07463,252.3,-6.1,-6.1,17.3,29.164906598318602,67.41504320720061,-0.09957714002739415
33.19999999999999,36.9184,2.87422,253.1,-6.2,-20.3,17.2,29.39394533931553,67.61661007055045,0.00042604486745112524
33.30000000000001,36.6503,2.72924,252.8,-3.4,-26.6,17.2,29.57937536166446,67.82021351853624,0.0004290647408033976
33.400000000000034,36.3724,2.68373,252.6,-1.8,-26.6,17.2,29.739172310541072,68.04950590284699,0.0004322509718850398
33.50000000000006,36.108,2.69585,252.7,-1.6,-27.6,17.2,29.856169209136027,68.28728513270168,0.0004353388227311683
33.599999999999966,35.8131,2.83271,252.9,-1.9,-28.9,17.2,29.979913446976724,68.55619439110248,0.00043880392610518015
33.69999999999999,35.5503,2.91454,253.0,-2.9,-27.9,17.2,30.033192980335915,68.82803863260948,0.0004419807396036646
33.80000000000001,35.2801,2.88486,253.3,-6.2,-17.2,17.2,30.07330636572349,69.11607709461845,0.00044528080752748167
33.900000000000034,35.0272,2.84153,252.7,-8.4,-2.4,17.3,30.107542759132997,69.387958825811,-0.0995516066987161
34.00000000000006,34.7656,2.82651,251.9,-6.8,10.5,17.3,30.183877996086693,69.64598194427595,-0.09954843494536547
34.099999999999966,34.4977,2.85539,252.1,-3.9,18.8,17.3,30.265298890954938,69.90853945369982,-0.09954517893533321
34.19999999999999,34.1937,2.96422,252.5,-2.3,22.1,17.3,30.394417806807642,70.18529369688697,-0.09954152674788119
34.30000000000001,33.8944,3.14355,252.1,-3.0,22.9,17.3,30.55598626706962,70.4378958757838,-0.09953797004628129
34.400000000000034,33.5551,3.23476,251.4,-5.0,21.2,17.3,30.736143521344466,70.72601542051316,-0.09953391517874088
34.50000000000006,33.256,3.2692,251.0,-8.0,14.6,17.3,30.954572465302604,70.94565040659178,-0.09953041828537934
34.599999999999966,32.9602,3.15898,251.5,-11.4,2.0,17.3,31.1897318595157,71.15230818132815,-0.0995269687738567
34.69999999999999,32.6852,2.9913,253.0,-11.8,-12.1,17.3,31.400428201748255,71.34922138469776,-0.09952373364554745
34.80000000000001,32.4332,2.72629,253.7,-9.4,-23.9,17.3,31.55777757038571,71.54995535567075,-0.09952070649159062
34.900000000000034,32.174,2.59611,253.5,-7.0,-26.9,17.2,31.700631106880586,71.76732345968279,0.00048244351511428363
35.00000000000006,31.9108,2.58775,253.7,-6.2,-26.5,17.2,31.813896235371963,72.00582431492046,0.0004856954115943779
35.099999999999966,31.6665,2.59646,254.1,-6.6,-27.8,17.2,31.88828094593125,72.2446633739457,0.0004887650134843824
35.19999999999999,31.4168,2.55905,254.4,-8.3,-27.5,17.2,31.935628240401357,72.50522400907542,0.0004919577853979007
35.30000000000001,31.1685,2.48805,254.3,-11.0,-17.1,17.2,32.005350717954826,72.75154921641396,0.0004951091336913294
35.400000000000034,30.9374,2.38201,252.7,-11.4,-0.1,17.2,32.036431171453785,73.00046552838414,0.0004981083780357665
35.50000000000006,30.7223,2.28271,251.6,-9.4,14.5,17.2,32.08406426514233,73.22152406980638,0.0005008805151991425
35.599999999999966,30.4982,2.32635,251.7,-6.7,21.6,17.2,32.16536784532512,73.43371587925282,0.0005037285918891854
35.69999999999999,30.2777,2.46196,251.4,-6.1,22.8,17.3,32.289061524101,73.61702178624816,-0.09949353331061239
35.80000000000001,30.0304,2.59105,250.6,-7.2,22.7,17.3,32.4540262979091,73.80754695580953,-0.09949049239346586
35.900000000000034,29.7936,2.74738,250.2,-8.9,21.6,17.3,32.64182560205768,73.97278031100961,-0.09948761887958568
36.00000000000006,29.5496,2.6844,250.8,-10.5,11.0,17.3,32.85569589161283,74.13176645440294,-0.09948467172568698
36.099999999999966,29.3273,2.50147,251.9,-11.7,-4.0,17.3,33.04953567410938,74.27755228313292,-0.09948197152986182
36.19999999999999,29.1075,2.259,253.1,-11.0,-15.6,17.3,33.22099447629607,74.43351067869202,-0.09947926136413976
36.30000000000001,28.9084,2.04471,253.5,-8.4,-23.9,17.2,33.36145643045983,74.58316575712732,0.0005232203764400367
36.400000000000034,28.7076,1.9328,253.3,-6.3,-27.2,17.3,33.485240998047956,74.74415650634903,-0.09947424510048286
36.50000000000006,28.5404,1.89919,253.4,-5.7,-27.9,17.3,33.57402081323295,74.88633656642483,-0.09947211090748453
36.599999999999966,28.3622,1.94774,253.7,-5.9,-28.4,17.3,33.61814281862784,75.06597805529908,-0.0994697682021517
36.69999999999999,28.196,1.99575,254.0,-8.0,-25.8,17.2,33.632835628222445,75.24855118479626,0.0005324587085038246
36.80000000000001,28.0175,1.93106,253.6,-10.0,-13.0,17.2,33.64189446558608,75.44865611994365,0.0005348682362509294
36.900000000000034,27.8473,1.84708,252.3,-9.5,4.3,17.2,33.66030091584109,75.6342259756107,0.0005371620518008768
37.00000000000006,27.6343,1.82639,251.8,-6.8,17.0,17.3,33.75104079216906,75.82797372659353,-0.09946005924118317
37.099999999999966,27.4481,1.92084,252.1,-4.3,22.1,17.3,33.8327674128524,75.99585785697495,-0.0994576273242842
37.19999999999999,27.2415,2.1187,251.6,-4.4,22.8,17.3,33.95526568238678,76.16408532836941,-0.09945497023992012
37.30000000000001,27.038,2.36787,251.0,-5.7,23.0,17.3,34.1087933044354,76.31087948896314,-0.09945239465624134
37.400000000000034,26.8243,2.39728,250.5,-8.0,20.3,17.3,34.25773097218962,76.47238052138302,-0.09944966137008748
37.50000000000006,26.6268,2.413,251.1,-10.2,7.8,17.3,34.45539488087793,76.58786478913996,-0.09944720781636107
37.599999999999966,26.433,2.23511,252.3,-11.5,-7.6,17.3,34.65805334565638,76.69696262570808,-0.09944479664176065
37.69999999999999,26.2558,2.00547,253.2,-9.2,-19.6,17.3,34.828584267624166,76.8054592947216,-0.09944256076388491
37.80000000000001,26.0953,1.78014,253.0,-5.7,-26.4,17.3,34.95015315967577,76.921999945444,-0.099440488736521
37.900000000000034,25.9203,1.71609,252.7,-3.8,-27.7,17.3,35.0550350645223,77.06422184526468,-0.09943819668509413
38.00000000000006,25.7324,1.78014,252.9,-3.6,-27.8,17.3,35.134991880485416,77.23486098340013,-0.09943569298468802
38.099999999999966,25.5639,1.84601,253.6,-5.7,-27.3,17.3,35.172882528100516,77.40636533419672,-0.09943340465873263
38.19999999999999,25.3989,1.74846,253.6,-8.7,-17.1,17.3,35.22396248273796,77.56682273758099,-0.09943117637534016
38.30000000000001,25.2501,1.67586,252.5,-9.9,-1.1,17.3,35.23664024224793,77.72991519918682,-0.09942912096668621
38.400000000000034,25.0931,1.62008,251.5,-8.8,12.5,17.3,35.27352524510381,77.88921953525838,-0.09942697542209444
38.50000000000006,24.9371,1.66544,251.6,-6.4,20.6,17.3,35.341547247339385,78.02997923342262,-0.09942487750777573
38.599999999999966,24.7618,1.87289,251.6,-5.1,23.9,17.3,35.45486446577904,78.16776207597532,-0.0994225628234311
38.69999999999999,24.584,2.17648,250.9,-5.7,24.3,17.3,35.60896184661726,78.28586038615288,-0.09942025365469931
38.80000000000001,24.3856,2.40996,250.8,-5.1,23.5,17.3,35.79827791550564,78.40861884781933,-0.0994176833053686
38.900000000000034,24.1901,2.72155,251.3,-3.5,21.8,17.3,36.01564927136098,78.5135142938843,-0.09941516625211122
39.00000000000006,23.9802,2.81222,251.9,-2.5,13.2,17.3,36.2709099139265,78.61562767671717,-0.09941245765431361
39.099999999999966,23.7847,2.72436,252.1,-3.7,-1.2,17.3,36.46791287739351,78.73323495231227,-0.09940988122836814
39.19999999999999,23.5706,2.57664,252.6,-4.2,-13.1,17.3,36.713672033923416,78.84739566744058,-0.09940705597088595
39.30000000000001,23.3695,2.37579,252.6,-2.2,-21.9,17.3,36.922732423065405,78.96686816069953,-0.0994043681804726
39.400000000000034,23.1583,2.18167,251.9,0.5,-26.9,17.3,37.10918437988619,79.10989886876033,-0.09940151198571456
39.50000000000006,22.96,2.17639,251.4,2.2,-27.5,17.3,37.2548091273633,79.25911581847862,-0.09939880870966533
39.599999999999966,22.7367,2.31547,251.5,2.6,-27.6,17.3,37.35984681769578,79.45656989044201,-0.09939573761442944
39.69999999999999,22.5104,2.50541,251.5,3.0,-28.5,17.3,37.432474681459404,79.67335331270073,-0.0993926084807697
39.80000000000001,22.2555,2.72621,251.4,3.5,-28.8,17.3,37.48315671845339,79.93326841592024,-0.09938906081193011
39.900000000000034,22.0105,2.90267,252.0,1.8,-24.9,17.2,37.53640254117036,80.18109869798707,0.0006143600198917909
40.00000000000006,21.7439,2.96992,252.7,-2.1,-11.4,17.3,37.53657171498664,80.48043733432253,-0.09938187108609142
40.099999999999966,21.4853,2.93633,252.3,-4.2,6.5,17.3,37.55006465334628,80.7647432055447,-0.0993782020895253
40.19999999999999,21.2041,2.92543,252.2,-2.9,19.3,17.3,37.59960920258445,81.05643751389142,-0.09937421179009576
40.30000000000001,20.9239,2.97494,252.8,-1.6,23.3,17.3,37.68962544565724,81.32600918298712,-0.09937025123522503
40.400000000000034,20.5987,3.07348,252.3,-2.9,23.5,17.3,37.84123636012361,81.61404264552522,-0.0993656739721196
40.50000000000006,20.2989,3.18042,251.3,-5.4,24.1,17.3,38.012562400140936,81.86304545882331,-0.09936146329686224
40.599999999999966,19.9869,3.20078,250.9,-8.4,18.6,17.3,38.21520328644497,82.10944572026165,-0.0993570840315563
40.69999999999999,19.6944,3.16713,251.2,-11.3,4.8,17.3,38.42246003255278,82.33180294156526,-0.09935297086407502
40.80000000000001,19.3948,3.00414,252.4,-10.4,-8.3,17.3,38.59265484226955,82.58157516115541,-0.09934871345053509
40.900000000000034,19.1082,2.90164,252.6,-5.0,-18.8,17.3,38.776824096837665,82.80954666382452,-0.09934463834586538
41.00000000000006,18.8008,2.91389,252.0,-0.4,-26.1,17.3,38.94143349462208,83.07110365624182,-0.09934023494536603
41.099999999999966,18.5067,3.02783,251.5,1.8,-27.8,17.3,39.06346029776576,83.33927648708737,-0.09933599072879673
41.19999999999999,18.1751,3.20813,251.7,2.5,-27.5,17.3,39.182589236469184,83.65116411767292,-0.0993311782055919
41.30000000000001,17.8709,3.41901,251.8,2.5,-28.6,17.2,39.241544715840504,83.96315690615083,0.0006732801661506471
41.400000000000034,17.5464,3.53578,252.0,1.8,-28.2,17.2,39.271945834026944,84.31365475399451,0.0006780880662695665
41.50000000000006,17.2409,3.6508,252.7,-0.9,-20.3,17.2,39.27437746144807,84.65887093887207,0.0006826717490220346
41.599999999999966,16.9437,3.66461,252.8,-3.2,-8.8,17.2,39.28430738807151,84.99206748342249,0.0006871599018509755
41.69999999999999,16.6396,3.62039,252.5,-4.2,0.5,17.2,39.27989010656671,85.34276323830012,0.0006918099322383853
41.80000000000001,16.3115,3.53937,252.0,-5.2,9.2,17.3,39.294447168845714,85.71243031479716,-0.09930314820371677
41.900000000000034,15.9928,3.4627,251.6,-6.2,16.8,17.3,39.33764035525064,86.05647674497868,-0.09929825265249548
42.00000000000006,15.6483,3.42367,251.9,-5.9,20.3,17.3,39.42014243829844,86.4083010546059,-0.09929298901220562
42.099999999999966,15.2874,3.4089,251.6,-7.1,20.1,17.3,39.52564689869723,86.76627862044703,-0.09928747872963228
42.19999999999999,14.9392,3.34764,251.2,-9.2,15.1,17.3,39.67104641858481,87.0856005220209,-0.09928222447957324
42.30000000000001,14.615,3.29443,251.4,-10.6,6.5,17.3,39.822975353108525,87.37294363773924,-0.09927734764572449
42.400000000000034,14.2847,3.213,252.2,-9.3,-3.3,17.3,39.98258908778811,87.66282119492303,-0.09927237245311815
42.50000000000006,13.9807,3.1609,252.7,-5.0,-14.4,17.3,40.09189925901197,87.95274118414785,-0.09926769654433087
42.599999999999966,13.6642,3.22847,252.3,-1.0,-24.1,17.3,40.2104358704523,88.25192469224103,-0.09926281847769047
42.69999999999999,13.3612,3.38242,251.8,1.4,-27.7,17.3,40.293170228622614,88.55803521012848,-0.09925805625023543
42.80000000000001,13.0376,3.60882,251.7,2.4,-27.7,17.2,40.348371932342445,88.90711570039953,0.0007471460234924621
42.900000000000034,12.726,3.80173,251.7,2.4,-28.4,17.2,40.378451778084,89.26041148095263,0.0007522657878062944
43.00000000000006,12.3974,3.84113,252.5,-0.9,-23.1,17.2,40.39706905989368,89.64491761143637,0.0007577719063540655
43.099999999999966,12.0947,3.83434,253.2,-5.4,-10.7,17.2,40.3976048105111,90.01462160981427,0.0007629768175121399
43.19999999999999,11.7876,3.70216,252.5,-7.2,1.7,17.2,40.39440161814566,90.39726403760223,0.0007683637242656971
43.30000000000001,11.5039,3.55235,252.0,-7.1,13.0,17.2,40.4189406542294,90.73458101100039,0.0007733045969011698
43.400000000000034,11.1918,3.47449,252.2,-5.1,20.0,17.2,40.475558965778276,91.08651668757187,0.0007786761069716874
43.50000000000006,10.8835,3.45459,252.7,-3.0,21.7,17.2,40.56841133424493,91.40737351544266,0.000783852858621259
43.599999999999966,10.5475,3.54182,252.4,-3.4,19.4,17.3,40.703383271336925,91.73124416282161,-0.09921063762869409
43.69999999999999,10.2186,3.56475,251.7,-6.2,13.3,17.3,40.85546923161155,92.03273460146002,-0.09920532178082553
43.80000000000001,9.89281,3.49415,251.6,-7.2,2.8,17.3,40.974220773198766,92.35944966041616,-0.09919984004264037
43.900000000000034,9.55972,3.50907,252.0,-4.8,-4.4,17.3,41.13271219135248,92.66291798866668,-0.09919441891573655
44.00000000000006,9.20625,3.55337,252.0,0.0,-10.5,17.3,41.29393881836502,92.99213037805397,-0.09918858559428045
44.099999999999966,8.86942,3.70908,251.3,4.9,-18.6,17.2,41.432869339936666,93.32059023716704,0.0008171093081514869
44.19999999999999,8.51181,3.98362,250.5,7.5,-24.0,17.2,41.55670157723949,93.69411006396753,0.0008233902439229723
44.30000000000001,8.17332,4.24029,250.4,7.8,-25.7,17.2,41.65157872676467,94.07404040883934,0.0008295979329204783
44.400000000000034,7.82089,4.38711,250.8,5.9,-24.7,17.2,41.730038931209556,94.49863646263964,0.0008363832142421757
44.50000000000006,7.49797,4.48107,252.0,1.2,-17.5,17.2,41.78524828034178,94.91747687138161,0.0008429589807441573
44.599999999999966,7.17478,4.4131,252.4,-2.3,-7.8,17.2,41.862353889774255,95.32605517003378,0.0008495533355841189
44.69999999999999,6.86951,4.38128,252.4,-4.5,-1.7,17.2,41.917297134301236,95.75079510829781,0.0008562728692176336
44.80000000000001,6.55422,4.21348,252.4,-6.5,-0.7,17.2,41.98671510699015,96.19625866220281,0.0008634261277862265
44.900000000000034,6.28802,3.8964,252.1,-19.7,-1.3,17.2,42.045137895908056,96.59707060778811,0.0008698648457041713
45.00000000000006,6.03826,3.4875,252.2,-29.1,0.5,17.2,42.093354953606706,97.01453009294846,0.0008765133149957194
45.099999999999966,5.8581,3.01546,252.2,-28.1,1.2,17.2,42.13239420338485,97.33445802467477,0.0008816421705724053
45.19999999999999,5.70516,2.54147,252.1,-28.4,0.3,17.2,42.16943573414909,97.62159322017362,0.000886270872261008
45.30000000000001,5.58802,2.09114,252.1,-29.4,-0.4,17.2,42.199652341864805,97.85679883464194,0.0008900722468645483
45.400000000000034,5.49146,1.75202,252.2,-29.6,-0.9,17.2,42.225622858842605,98.06511823214296,0.0008934434437115613
45.50000000000006,5.43096,1.33592,252.4,-29.8,-1.5,17.2,42.23149362234998,98.23865158228358,0.0008961490227257229
45.599999999999966,5.39195,0.928998,252.7,-28.3,-2.5,17.2,42.238730160334995,98.34798677510814,0.0008978792665317314
45.69999999999999,5.37341,0.647032,252.7,-24.2,-2.9,17.2,42.23687254003832,98.4211278803012,0.0008989946941007076
45.80000000000001,5.3692,0.509986,252.6,-20.1,-3.1,17.2,42.226435276468266,98.47468124917643,0.000899751728894671
45.900000000000034,5.41214,0.374927,252.5,-17.2,-3.2,17.2,42.177523192372405,98.49171682757621,0.0008996889987500367
46.00000000000006,5.42095,0.303311,252.4,-15.1,-3.6,17.2,42.15965523548188,98.52531148727151,0.0009000887528500812
