time,distance(meters),speed(m/s), compass_heading(degrees), pitch(degrees), roll(degrees),height_above_takeoff(meters),North,East,Down
0.0,124.018,2.74526,251.7,-4.3,19.3,17.3,0.0,0.0,0.0
0.10000000000002274,123.947,2.78989,252.1,-5.8,7.2,17.3,0.2751898167572986,-0.03597773892978458,7.391320666627621e-09
0.20000000000004547,123.898,2.52682,252.9,-5.2,-7.5,17.3,0.5083192475959033,-0.07782830488266371,2.2025341106512997e-08
0.30000000000001137,123.817,2.13329,252.9,-1.9,-20.9,17.4,0.749478762767245,-0.0883749547616922,-0.09999995505251968
0.4000000000000341,123.732,1.72656,252.2,0.8,-26.9,17.4,0.9437725539254475,-0.07465132945282874,-0.09999992918606948
0.5,123.63,1.42877,252.0,1.8,-25.7,17.4,1.1111501249670415,-0.032548738140875194,-0.09999990151315857
0.6000000000000227,123.526,1.21874,252.7,-0.2,-26.4,17.4,1.2328351320532582,0.031449023172583634,-0.09999988106852009
0.7000000000000455,123.399,1.19337,253.2,-1.9,-27.9,17.4,1.3698145655590488,0.1130423559193747,-0.09999985080960816
0.8000000000000114,123.285,1.24679,253.0,-2.2,-28.5,17.4,1.4131723728398704,0.21853173894425187,-0.09999983816985614
0.9000000000000341,123.163,1.40271,252.9,-2.5,-29.1,17.3,1.4138340602359651,0.3499486208799935,1.67450919352774e-07
1.0,123.048,1.62433,253.0,-3.8,-26.8,17.3,1.3745707654418118,0.4901174668121819,1.6838651539785587e-07
1.1000000000000227,122.933,1.71639,253.2,-6.3,-15.3,17.4,1.317334457981262,0.6366402810950282,-0.09999983130797596
1.2000000000000455,122.819,1.67114,252.4,-6.2,-1.1,17.4,1.2506666232035768,0.787065576205236,-0.09999982768243065
1.3000000000000114,122.693,1.53007,252.0,-3.1,11.5,17.4,1.1984061150196754,0.9436844523493252,-0.09999981695100013
1.400000000000034,122.565,1.4788,252.2,-0.4,20.4,17.4,1.1837676316691232,1.0886416816581717,-0.09999979664344122
1.5,122.417,1.59153,252.8,2.0,24.3,17.4,1.209528052695188,1.2381734441751042,-0.09999976585970966
1.6000000000000227,122.256,1.85832,253.1,3.3,24.7,17.4,1.285396270732181,1.3807021027836162,-0.09999972027261261
1.7000000000000455,122.069,2.14674,252.5,2.4,23.7,17.3,1.4102251199411802,1.5325172814649761,3.4161248163577795e-07
1.8000000000000114,121.879,2.46524,251.9,0.4,23.7,17.3,1.5719998541895315,1.672495172611288,4.137689466610084e-07
1.900000000000034,121.677,2.60166,251.3,-2.5,20.6,17.3,1.736479220520896,1.8238292306930517,4.988363100366655e-07
2.0,121.48,2.67754,250.9,-6.3,9.9,17.3,1.9527654497460234,1.9498161823909264,5.984366273636965e-07
2.1000000000000227,121.275,2.58386,251.7,-9.5,-2.3,17.3,2.1871374154144085,2.0773381588323896,7.139874027561888e-07
2.2000000000000455,121.083,2.37927,253.0,-8.9,-15.3,17.3,2.3924693386817824,2.202599589875073,8.307554735242917e-07
2.3000000000000114,120.882,2.15604,253.2,-5.7,-25.1,17.3,2.574496994499752,2.3466555897187997,9.539288736704066e-07
2.400000000000034,120.671,2.0282,253.0,-3.0,-26.9,17.3,2.7177641434368307,2.5173493224818286,1.0787749353813325e-06
2.5,120.462,2.04695,252.9,-2.1,-26.9,17.3,2.8309770107434096,2.697199782467683,1.2008839658239623e-06
2.6000000000000227,120.263,2.12385,253.1,-2.5,-28.6,17.3,2.9003119848307364,2.8847712166927337,1.3149104027831982e-06
2.7000000000000455,120.053,2.23716,253.2,-3.0,-29.4,17.3,2.9306263887747894,3.0981861479043307,1.4284891334259697e-06
2.8000000000000114,119.849,2.38135,253.4,-3.6,-29.1,17.3,2.9766715296637845,3.299939419658674,1.5505529755710512e-06
2.900000000000034,119.651,2.50794,253.6,-5.2,-23.7,17.3,2.920761580090753,3.5351960894224965,1.6513856058164578e-06
3.0,119.461,2.51615,253.0,-5.5,-7.3,17.3,2.8580553975751712,3.765763671022564,1.7543308934442337e-06
3.1000000000000227,119.251,2.45295,252.3,-2.8,11.1,17.3,2.809505169063409,4.011208052725294,1.8821030118854054e-06
3.2000000000000455,119.034,2.42037,253.2,1.0,21.3,17.3,2.802113777719821,4.24832812817761,2.0322408325057495e-06
3.3000000000000114,118.781,2.50851,253.5,2.7,23.2,17.3,2.8431889382258166,4.504754430680136,2.225521030796429e-06
3.400000000000034,118.527,2.69022,253.2,2.9,22.7,17.3,2.9226431923065075,4.74701414164621,2.438174867336329e-06
3.5,118.251,2.85612,252.3,0.8,22.8,17.3,3.047321900550002,4.994696069047963,2.6854764902939365e-06
3.6000000000000227,117.991,3.04376,251.5,-1.1,24.0,17.3,3.1597200036908335,5.229845742068676,2.9278749915651048e-06
3.7000000000000455,117.704,3.19079,251.6,-1.7,21.8,17.3,3.3659853366502785,5.4564495908796085,3.2228550856938654e-06
3.8000000000000114,117.429,3.26105,251.7,-2.9,11.4,17.3,3.5877907188231344,5.664739990544838,3.526230712980194e-06
3.900000000000034,117.141,3.23176,252.1,-4.7,-1.5,17.3,3.8305280479748944,5.878865001981282,3.862770126650261e-06
4.0,116.861,3.14058,252.7,-3.8,-13.9,17.3,4.046366496563342,6.094135568540514,4.1974893487672915e-06
4.100000000000023,116.558,3.02914,252.6,-1.6,-24.0,17.3,4.245867423063548,6.341901414806122,4.56995495223822e-06
4.2000000000000455,116.264,3.01047,252.6,-1.1,-26.6,17.3,4.397589547411353,6.598907997817273,4.9327601669979515e-06
4.300000000000011,115.947,3.08711,252.7,-1.3,-26.9,17.3,4.521025822688119,6.890624589324975,5.32725050339522e-06
4.400000000000034,115.642,3.17528,252.8,-1.8,-28.4,17.2,4.602817754748808,7.186770527764626,0.1000057123827065
4.5,115.283,3.23009,253.0,-2.3,-28.5,17.2,4.716348683876123,7.528341199426222,0.10000619018597146
4.600000000000023,114.976,3.38562,253.0,-2.6,-28.3,17.2,4.7274708413096125,7.855096234006564,0.10000659053501648
4.7000000000000455,114.656,3.49759,253.1,-3.5,-22.4,17.2,4.705053947452256,8.20894723460199,0.10000702060339339
4.800000000000011,114.351,3.53862,252.7,-3.5,-10.6,17.2,4.671035491659496,8.550647836441364,0.1000074416993475
4.900000000000034,114.024,3.595,252.4,0.2,2.9,17.2,4.663771453277958,8.90714885442581,0.10000792585801133
5.0,113.698,3.65442,253.2,4.5,15.2,17.3,4.6644942406647605,9.258548521260158,8.426072959366593e-06
5.100000000000023,113.329,3.77761,254.6,7.5,21.1,17.3,4.70600597253604,9.639510688825686,9.019799346976498e-06
5.2000000000000455,112.955,3.93702,254.4,7.1,22.2,17.3,4.788679448860437,10.010498935224739,9.654322993490894e-06
5.300000000000011,112.525,4.04947,252.8,3.6,21.6,17.3,4.900655982426843,10.430134587359632,1.0410347157208122e-05
5.400000000000034,112.125,4.19154,252.1,1.3,21.3,17.3,5.061500655559028,10.796700940246792,1.1145972308224117e-05
5.5,111.708,4.21411,251.9,-0.6,19.4,17.3,5.264241031854591,11.164901540261539,1.1943254273116821e-05
5.600000000000023,111.307,4.20238,251.5,-5.3,9.4,17.3,5.475283081927918,11.513337660167252,1.2740941186084598e-05
5.7000000000000455,110.882,4.08391,252.1,-9.2,-3.0,17.3,5.6972679325906626,11.881973508435635,1.3611255906820219e-05
5.800000000000011,110.503,3.87361,253.3,-9.7,-15.3,17.3,5.865036003111048,12.223719670841582,1.4408887016870153e-05
5.900000000000034,110.127,3.75437,254.0,-8.7,-24.5,17.3,6.0294319731959565,12.563724604700344,1.522326770597715e-05
6.0,109.771,3.69257,254.0,-7.4,-26.6,17.2,6.149268004947585,12.899292296876625,0.1000160061831683
6.100000000000023,109.391,3.72109,254.1,-7.1,-26.4,17.2,6.239416893736713,13.273510885304834,0.10001686222295847
6.2000000000000455,109.039,3.77181,254.1,-7.1,-27.5,17.2,6.314086395603289,13.62309264627169,0.10001767167606213
6.300000000000011,108.664,3.78178,254.2,-7.4,-28.2,17.2,6.3351460406540525,14.020474224420584,0.10001855323111464
6.400000000000034,108.324,3.86871,254.3,-8.1,-28.4,17.2,6.308712918219029,14.398228875559298,0.10001936773862008
6.5,107.991,3.91026,254.2,-9.9,-22.0,17.2,6.237676628621424,14.786866256634225,0.10002018546635538
6.600000000000023,107.684,3.7925,253.1,-10.7,-6.9,17.2,6.160419107149075,15.151286859587287,0.1000209649052497
6.7000000000000455,107.364,3.58565,251.8,-8.4,9.9,17.2,6.095453783176049,15.524161563385256,0.10002179865762839
6.800000000000011,107.066,3.39807,252.2,-4.2,21.1,17.2,6.065975055242202,15.859821306127301,0.1000225941613544
6.900000000000034,106.758,3.35994,253.4,-0.5,24.5,17.2,6.077620506025061,16.189218673533716,0.10002343326393381
7.0,106.461,3.37077,252.9,-0.4,24.7,17.2,6.111602197318502,16.49743107251428,0.10002425446532115
7.100000000000023,106.112,3.38276,251.5,-3.1,25.1,17.2,6.212844160439424,16.833228054361705,0.10002522817886161
7.2000000000000455,105.78,3.42054,250.6,-5.3,24.0,17.2,6.34685076079852,17.13785091399009,0.1000261725386613
7.300000000000011,105.436,3.38237,250.7,-6.6,16.7,17.2,6.513700065140526,17.441099037079873,0.10002716179790472
7.400000000000034,105.113,3.34936,251.3,-7.6,4.3,17.2,6.684534037014582,17.720321277168555,0.1000281087382553
7.5,104.779,3.23095,252.3,-7.9,-7.7,17.2,6.822398225643079,18.024745535587556,0.10002910619962124
7.600000000000023,104.468,3.13959,253.2,-7.1,-20.1,17.2,6.966315992978901,18.30286044362716,0.10003005504313522
7.7000000000000455,104.145,3.09677,253.6,-6.5,-26.1,17.2,7.085516535792016,18.60291637388204,0.10003105436666893
7.800000000000011,103.844,3.074,253.8,-6.5,-26.4,17.2,7.161940088961398,18.897916717774365,0.10003200539135015
7.900000000000034,103.515,3.13114,254.1,-6.8,-27.0,17.2,7.238664219108301,19.22280047253781,0.1000330621614407
8.0,103.227,3.24212,254.1,-6.9,-28.4,17.2,7.244337030975112,19.533693452386125,0.1000340126842274
8.100000000000023,102.935,3.31973,254.2,-7.2,-28.7,17.2,7.211853291132337,19.86418295600089,0.10003499601388777
8.200000000000045,102.664,3.38279,254.1,-9.1,-23.1,17.2,7.1503352856161815,20.184416079020124,0.10003593041318393
8.300000000000011,102.375,3.30751,253.1,-10.5,-7.5,17.2,7.1154445631902155,20.513225450917716,0.10003693966254001
8.400000000000034,102.116,3.12743,251.8,-8.7,10.1,17.2,7.053579797036522,20.821140171246448,0.100037865769536
8.5,101.846,2.9428,252.2,-4.5,21.4,17.2,7.018952012449917,21.129963624555444,0.10003884400810215
8.600000000000023,101.582,2.86487,252.9,-1.3,24.4,17.2,7.027583729163917,21.41372248760905,0.10003979712938182
8.700000000000045,101.308,2.86501,252.3,-1.5,24.3,17.2,7.054306972804443,21.700811032200498,0.10004079665033316
8.800000000000011,101.034,2.90845,251.5,-3.0,25.0,17.3,7.145002168049745,21.96107113389187,4.1788111253548976e-05
8.900000000000034,100.748,2.98418,251.1,-4.3,24.8,17.3,7.279523154510225,22.215251768974092,4.2819944305438895e-05
9.0,100.473,3.08792,250.9,-5.6,21.1,17.3,7.444086808712134,22.444260906148116,4.3812160960499114e-05
9.100000000000023,100.182,3.08716,251.2,-6.8,11.2,17.3,7.641394937927974,22.675645060855352,4.486389815783198e-05
9.200000000000045,99.9498,2.974,251.9,-8.1,-2.1,17.2,7.775106612878379,22.87184552358715,0.10004572578157811
9.300000000000011,99.6631,2.84071,252.9,-7.5,-16.1,17.2,7.958429290408114,23.105604780111783,0.10004679368107139
9.400000000000034,99.3932,2.74624,253.1,-5.6,-25.1,17.2,8.10201191381758,23.3382491282902,0.10004782219389474
9.5,99.11,2.71894,253.1,-4.5,-26.6,17.2,8.215522976230044,23.598042933135027,0.10004892170376678
9.600000000000023,98.8263,2.77581,253.5,-4.9,-27.0,17.2,8.29565392941679,23.8726830630375,0.10005004681278162
9.700000000000045,98.5472,2.86066,253.7,-5.1,-27.9,17.2,8.34113046007906,24.157152035504758,0.1000511781295832
9.800000000000011,98.2848,3.00009,253.7,-5.1,-28.9,17.2,8.346294797138082,24.440781036678352,0.10005226320289617
9.900000000000034,98.0138,3.12125,253.9,-5.7,-29.2,17.2,8.310655773007362,24.75150606892135,0.10005341461978512
10.0,97.746,3.19475,253.7,-7.2,-22.9,17.2,8.302976081876054,25.046857840017633,0.10005455452217493
10.100000000000023,97.4894,3.19737,252.9,-7.0,-7.1,17.2,8.221523165294393,25.36228736514768,0.10005569600845599
10.200000000000045,97.2371,3.11394,252.2,-3.3,9.6,17.2,8.160357814223909,25.664504900255967,0.10005682330963728
10.300000000000011,96.9536,3.06197,253.3,1.9,19.9,17.2,8.132133461127594,25.986784644880114,0.10005809027659707
10.400000000000034,96.6507,3.10913,253.9,4.8,22.7,17.2,8.142279561627394,26.31362356082071,0.10005944309240711
10.5,96.3292,3.23403,253.4,4.8,22.2,17.3,8.199670046214138,26.64007327273919,6.087117436770484e-05
10.600000000000023,96.0089,3.38438,252.8,3.5,22.7,17.3,8.295809322192127,26.948239588079176,6.228785418693761e-05
10.700000000000045,95.6611,3.47154,251.9,0.9,23.8,17.3,8.441521860928564,27.264584944351185,6.382502123480904e-05
10.800000000000011,95.3254,3.61901,251.5,-0.7,23.5,17.2,8.62245789706348,27.5521460511646,0.10006530181490891
10.900000000000034,95.0179,3.65294,251.2,-2.9,17.5,17.2,8.802778505988554,27.809121568551483,0.10006666273385445
11.0,94.6823,3.64139,251.5,-5.8,3.1,17.2,9.025214439256242,28.078369555302135,0.10006815326234797
11.100000000000023,94.3233,3.54919,252.5,-6.4,-11.7,17.2,9.249959214184573,28.372292524096004,0.10006977585350185
11.200000000000045,93.9815,3.44589,253.0,-4.9,-22.8,17.2,9.43862209526197,28.663229540315065,0.10007135228329389
11.300000000000011,93.5995,3.39244,253.1,-4.0,-26.4,17.2,9.61746062772659,29.002485596802842,0.10007315317755516
11.400000000000034,93.261,3.39529,253.5,-4.3,-26.5,17.2,9.738776707551661,29.319388445495534,0.1000747848912642
11.5,92.9112,3.45847,253.7,-4.8,-27.2,17.2,9.83022641211727,29.661600251279445,0.10007650654847389
11.600000000000023,92.5852,3.5376,253.6,-5.1,-28.7,17.2,9.877399438853889,29.997381873327086,0.10007814918947489
11.700000000000045,92.2427,3.53147,253.5,-6.2,-27.1,17.2,9.941895395477111,30.343549689230166,0.10007988525895328
11.800000000000011,91.9341,3.50599,253.2,-7.6,-14.2,17.2,9.930023267748272,30.686479677800012,0.10008150480947187
11.900000000000034,91.6152,3.47195,252.3,-5.8,3.7,17.2,9.917298764987883,31.041384408868453,0.10008320154454964
12.0,91.3042,3.45332,252.5,-1.5,16.9,17.2,9.934810535097716,31.37432516283733,0.1000848576402511
12.100000000000023,90.9727,3.50696,253.6,2.2,22.0,17.2,9.99031710880077,31.713016421412615,0.10008661753639458
12.200000000000045,90.634,3.64029,253.3,2.6,22.5,17.2,10.092885851070939,32.03865596430612,0.10008840380813044
12.300000000000011,90.266,3.77526,252.4,0.7,22.8,17.3,10.246391915535478,32.37355183405102,9.033994383234045e-05
12.400000000000034,89.9042,3.93449,251.6,-1.2,23.4,17.3,10.431061619883021,32.68785020645262,9.224336580704318e-05
12.5,89.514,3.98061,251.1,-3.1,21.5,17.3,10.659389690781671,33.01383296872578,9.429785528602963e-05
12.600000000000023,89.1538,3.94007,251.2,-5.8,11.3,17.2,10.85950678811184,33.31949335606054,0.10009622500745596
12.700000000000045,88.7588,3.836,251.9,-8.8,-2.4,17.2,11.120492616081926,33.63635745309597,0.10009833790039835
12.800000000000011,88.397,3.64714,253.1,-8.8,-14.3,17.2,11.349673030560405,33.93105155379035,0.10010030338727471
12.900000000000034,88.0354,3.5162,253.6,-7.1,-23.9,17.2,11.55416222606376,34.23646036950477,0.10010230246711771
13.0,87.6823,3.44441,253.6,-5.7,-26.7,17.2,11.717928937564224,34.55071291772406,0.10010429498760764
13.100000000000023,87.3291,3.4432,253.7,-5.5,-26.8,17.2,11.846729190726975,34.880384600197615,0.10010632498879435
13.200000000000045,86.9955,3.46257,253.8,-5.8,-28.0,17.2,11.932732228470016,35.207498033196174,0.10010828158539198
13.300000000000011,86.6492,3.42724,254.0,-7.2,-28.1,17.2,11.985106706701313,35.56343346649535,0.10011035328198581
13.400000000000034,86.328,3.30081,254.1,-12.4,-17.2,17.2,12.023244288957454,35.89835203203286,0.10011230046776731
13.5,85.9969,3.11894,252.6,-15.0,0.0,17.2,12.078534292149163,36.23656206712362,0.10011431558082862
13.600000000000023,85.6996,2.97075,251.4,-10.8,14.7,17.2,12.13698823539064,36.536434565352806,0.1001161360610352
13.700000000000045,85.4026,2.93571,251.8,-5.8,22.4,17.2,12.211508098900566,36.828906787809075,0.10011795931569178
13.800000000000011,85.1288,3.00728,252.4,-3.0,24.1,17.2,12.284042745629998,37.09670401170328,0.10011964887989677
13.900000000000034,84.8192,3.1769,251.8,-2.8,23.8,17.3,12.434173772316866,37.369098979206264,0.00012152986683755529
14.0,84.5196,3.36548,251.1,-3.6,23.9,17.3,12.6183232608893,37.6153900999145,0.00012333965736477381
14.100000000000023,84.203,3.43372,250.8,-5.2,22.9,17.3,12.853880847016427,37.857450149866715,0.00012524232545096936
14.200000000000045,83.9029,3.5284,250.8,-7.0,16.1,17.3,13.105377133205684,38.074628929080404,0.0001270487512403662
14.300000000000011,83.6158,3.43445,251.3,-8.5,6.7,17.3,13.35151904048515,38.28012316381202,0.00012879015315192532
14.400000000000034,83.3257,3.37535,251.9,-8.6,-0.4,17.3,13.619919165193673,38.47947720320013,0.00013055691078189824
14.5,83.0258,3.21123,252.7,-8.3,-7.0,17.3,13.896236721896585,38.686399415840654,0.0001324050449635905
14.600000000000023,82.7459,3.0077,253.4,-7.3,-19.1,17.2,14.134865555772759,38.8881967586422,0.1001341575432857
14.700000000000045,82.443,2.85721,253.5,-6.1,-26.7,17.2,14.369801857811778,39.11698370795262,0.10013608355358095
14.800000000000011,82.1749,2.67237,253.5,-5.9,-27.1,17.2,14.5304245297422,39.33999741499388,0.10013781817028633
14.900000000000034,81.9038,2.61,253.9,-6.5,-27.0,17.2,14.655563512956837,39.5816912344694,0.1001395983594282
15.0,81.6518,2.60493,254.1,-6.8,-28.0,17.2,14.73655586794703,39.821582907104684,0.10014127734254075
15.100000000000023,81.3945,2.56735,254.0,-7.8,-26.9,17.2,14.821512705475103,40.06547633112847,0.10014300108533547
15.200000000000045,81.1544,2.53808,253.5,-9.4,-13.9,17.2,14.851024750591366,40.31462419269006,0.10014463821462005
15.300000000000011,80.904,2.48536,252.1,-8.3,5.3,17.2,14.888329978385258,40.57166099954405,0.10014635497708113
15.400000000000034,80.6635,2.47514,252.0,-4.6,18.6,17.2,14.947494630086428,40.80851323919974,0.10014800289692971
15.5,80.3928,2.59255,252.8,-1.2,22.7,17.2,15.043732358851749,41.062113162450444,0.10014985585993497
15.600000000000023,80.1349,2.78408,252.5,-1.0,23.0,17.3,15.177650031090076,41.285585793103344,0.00015161621923098778
15.700000000000045,79.854,2.94699,251.6,-2.6,23.4,17.3,15.363611289048464,41.511554832065386,0.0001535284566580586
15.800000000000011,79.5868,3.17408,251.1,-3.8,24.2,17.3,15.576532003067891,41.711023532524536,0.00015534708950326603
15.900000000000034,79.3113,3.36165,251.0,-4.2,23.5,17.3,15.834373721548458,41.900472343459654,0.00015722512127513966
16.0,79.0712,3.53897,251.1,-4.4,21.1,17.3,16.060297305235952,42.065399028463816,0.00015887612145970564
16.100000000000023,78.7836,3.70719,251.5,-4.6,16.9,17.3,16.38629783073958,42.23993256289614,0.00016086053784825083
16.200000000000045,78.505,3.72131,252.0,-5.0,6.2,17.3,16.712312772066532,42.40540101652041,0.00016280685236402803
16.30000000000001,78.2075,3.545,252.8,-5.3,-9.5,17.2,17.051472112430694,42.58664668980848,0.10016491347520873
16.400000000000034,77.9162,3.26674,253.2,-4.6,-23.0,17.2,17.35414243281852,42.777164419745596,0.10016700579629667
16.5,77.6323,3.00498,253.2,-3.6,-26.6,17.2,17.621707558035197,42.974509740617464,0.10016906940829351
16.600000000000023,77.3642,2.82607,253.2,-3.6,-26.2,17.2,17.835099313426614,43.177376797153464,0.10017103096510915
16.700000000000045,77.0842,2.74519,253.5,-4.3,-26.8,17.2,18.01696612079482,43.40600341944824,0.10017309516005035
16.80000000000001,76.8259,2.65615,253.7,-5.0,-27.9,17.2,18.18391407773252,43.617454595123235,0.10017501255821593
16.900000000000034,76.5701,2.63188,253.6,-5.7,-27.5,17.2,18.263299948795463,43.86159993187975,0.10017691295800013
17.0,76.3231,2.67905,253.1,-5.6,-18.3,17.2,18.317202827473245,44.10670000939802,0.10017875667473852
17.100000000000023,76.0462,2.78377,252.2,-2.2,-3.5,17.2,18.379988337541107,44.380392780612176,0.10018083452680493
17.200000000000045,75.7666,2.93517,252.5,2.5,10.8,17.2,18.473625604916535,44.64460796311425,0.10018294805347061
17.30000000000001,75.4497,3.17011,253.6,6.6,18.2,17.2,18.597900977988353,44.936629129568956,0.10018535970208653
17.400000000000034,75.1277,3.45291,253.9,7.7,19.4,17.2,18.753276627785407,45.22155542857361,0.10018782812802307
17.5,74.7694,3.71206,253.2,6.3,19.7,17.3,18.954726654583453,45.52697979193323,0.00019059631614837258
17.600000000000023,74.4143,4.00168,252.7,5.1,19.7,17.3,19.179367923669282,45.81970306982455,0.0001933643609639546
17.700000000000045,74.0385,4.13019,252.6,4.5,18.9,17.3,19.40384460525607,46.134932439200114,0.00019631632789618436
17.80000000000001,73.6595,4.30667,252.6,3.3,18.1,17.3,19.684447954614907,46.43128298620593,0.000199327598991772
17.900000000000034,73.2517,4.38654,252.0,0.0,8.4,17.3,19.99627306253553,46.74665701446489,0.0002026025558752309
18.0,72.8588,4.36192,252.3,-1.8,-6.9,17.3,20.290179988115696,47.053424263256176,0.00020578802740445212
18.100000000000023,72.4394,4.28166,252.3,-0.2,-20.3,17.3,20.555636556164387,47.40026269952634,0.00020920768889354235
18.200000000000045,72.0311,4.22667,251.9,1.2,-26.2,17.3,20.79791597765968,47.74452758405976,0.00021256078262155143
18.30000000000001,71.5893,4.23375,252.0,1.3,-26.7,17.3,21.018466170602927,48.13329306165859,0.00021620622862528194
18.400000000000034,71.1687,4.27914,252.2,0.8,-27.4,17.2,21.189665279402455,48.51861373027872,0.1002196904272008
18.5,70.7078,4.35575,252.2,0.6,-28.3,17.2,21.370498722455025,48.943555591874144,0.10022353922325777
18.600000000000023,70.2821,4.47217,252.1,0.6,-29.0,17.2,21.469147379098963,49.36264412664329,0.10022709861707746
18.700000000000045,69.8279,4.55519,252.0,0.4,-26.5,17.2,21.53886024481679,49.823697828926996,0.10023091533145312
18.80000000000001,69.3972,4.61826,252.2,-0.3,-14.9,17.2,21.58370841721935,50.26942428803255,0.10023456205199643
18.900000000000034,68.9541,4.67199,252.1,0.6,1.6,17.2,21.64852636313895,50.720931822763674,0.10023835338794207
19.0,68.5137,4.74152,252.6,2.6,15.7,17.2,21.719449942568005,51.16720418299689,0.1002421567160674
19.100000000000023,68.033,4.84119,253.6,4.7,21.4,17.3,21.83505812063126,51.63920981511977,0.00024635289171293095
19.200000000000045,67.5562,4.95739,253.3,4.0,22.3,17.3,21.987325687159643,52.09259174480008,0.00025056268995449216
19.30000000000001,67.0369,5.03312,251.9,0.2,22.3,17.3,22.19027334868289,52.57143115572086,0.0002551919036264394
19.400000000000034,66.5252,5.07595,251.5,-2.0,19.6,17.3,22.400892735703145,53.03911673561307,0.00025979906770245975
19.5,66.0059,5.00677,251.4,-5.0,9.8,17.3,22.65821167415026,53.496362349568,0.0002645261267009147
19.600000000000023,65.5192,4.92023,252.0,-7.8,-2.8,17.3,22.904379661889635,53.92312129864066,0.0002689996924463145
19.700000000000045,65.0173,4.78595,253.0,-7.1,-16.1,17.3,23.145025828469244,54.36842276024596,0.0002736474315234716
19.80000000000001,64.538,4.66848,253.2,-5.0,-25.5,17.3,23.329192723724244,54.811685453245225,0.0002781106913811726
19.900000000000034,64.0724,4.6794,253.1,-3.2,-27.2,17.3,23.48712388638683,55.250553213404494,0.0002824767413152074
20.0,63.6291,4.7209,253.0,-2.5,-27.6,17.3,23.60091705334159,55.682967983948004,0.00028665409319295065
20.100000000000023,63.1571,4.8125,253.1,-2.6,-28.3,17.2,23.685743745075065,56.157763269456595,0.10029112807816531
20.200000000000045,62.7319,4.91125,252.9,-2.6,-29.0,17.2,23.75309309874307,56.58923893965354,0.100295189312682
20.30000000000001,62.2547,4.9179,252.7,-3.3,-23.4,17.2,23.77293570094296,57.09597698586535,0.10029977506995102
20.400000000000034,61.8025,4.95316,252.4,-2.1,-8.5,17.2,23.78039935070155,57.58134311271398,0.10030416127842123
20.5,61.326,4.98564,252.3,1.1,7.9,17.2,23.79920754959881,58.088833404332476,0.10030883080754904
20.600000000000023,60.8447,5.02944,253.2,4.1,18.8,17.2,23.869838440863816,58.58073638080917,0.1003135893514493
20.700000000000045,60.3366,5.10777,254.2,6.3,22.1,17.3,23.966071314674753,59.09133917699749,0.0003186580656642235
20.80000000000001,59.8399,5.14746,253.3,4.4,22.1,17.3,24.096490021167092,59.57560483875382,0.0003236509479425109
20.900000000000034,59.31,5.21842,251.8,0.3,21.4,17.3,24.26833211496194,60.078790770353635,0.0003290213448838841
21.0,58.7994,5.30289,251.8,-0.3,20.8,17.3,24.47070074406517,60.54828228991836,0.00033423220259365394
21.100000000000023,58.2752,5.25707,251.8,-1.7,14.3,17.3,24.65339166275729,61.04081075759102,0.0003396274995566273
21.200000000000045,57.7605,5.21285,251.9,-5.1,-0.9,17.3,24.8908351630814,61.50023270210758,0.0003449630315177643
21.30000000000001,57.2187,5.13918,252.8,-5.6,-16.9,17.3,25.126587033539046,61.98989694742876,0.00035062608773728243
21.400000000000034,56.7136,5.07461,253.0,-4.3,-25.7,17.3,25.319281514434394,62.45747920707578,0.0003559480990702468
21.5,56.178,5.04573,253.1,-3.5,-27.1,17.2,25.49720299983772,62.96426482371568,0.10036163669963827
21.600000000000023,55.6899,5.08898,253.1,-3.3,-27.8,17.2,25.61461164162518,63.444681409202566,0.10036686586051147
21.700000000000045,55.1821,5.15705,253.1,-3.1,-28.4,17.2,25.699068032413926,63.960357982002506,0.1003723530071916
21.80000000000001,54.7102,5.17722,253.0,-3.3,-28.1,17.2,25.73835477943358,64.45633151399227,0.10037749906359039
21.900000000000034,54.2476,5.14746,252.9,-4.0,-17.1,17.2,25.787340252167283,64.93855847597136,0.10038258405882239
22.0,53.7879,5.12542,252.4,-2.6,2.3,17.2,25.805138827137394,65.43133608363733,0.10038768750344396
22.100000000000023,53.295,5.13561,252.9,1.0,17.3,17.2,25.85245875619409,65.94817750727161,0.10039319869710539
22.200000000000045,52.8058,5.18688,253.9,4.2,22.2,17.2,25.94100530847593,66.44363519334934,0.1003986961909824
22.30000000000001,52.2488,5.23589,253.3,3.5,22.2,17.2,26.085511372279154,66.98898847907827,0.10040498622328187
22.400000000000034,51.7302,5.3125,252.1,0.4,21.9,17.2,26.25615026964324,67.48111588733204,0.1004108713410119
22.5,51.1848,5.32099,251.7,-0.9,21.3,17.2,26.464740702368093,67.98595470806991,0.10041709270892163
22.600000000000023,50.6683,5.32338,251.3,-3.6,17.3,17.2,26.693222595072363,68.45039775279841,0.1004230113115181
22.700000000000045,50.134,5.21119,251.3,-6.7,7.7,17.2,26.951582575319648,68.9213816125339,0.10042916886299658
22.80000000000001,49.6559,5.03192,252.1,-8.1,-3.1,17.2,27.13489046969653,69.36368924273401,0.10043473933920488
22.900000000000034,49.157,4.90992,253.0,-7.7,-15.7,17.2,27.369460570280886,69.8063439731275,0.10044056847397798
23.0,48.6922,4.80413,253.4,-6.8,-25.1,17.2,27.55626331552154,70.23260632978263,0.1004460527488984
23.100000000000023,48.2108,4.76775,253.6,-5.9,-26.8,17.2,27.706075663974218,70.6930709796833,0.10045178466253368
23.200000000000045,47.7852,4.76999,253.7,-5.8,-27.2,17.2,27.800477628342826,71.11684813979386,0.10045690416134789
23.30000000000001,47.3132,4.76363,253.8,-6.0,-28.1,17.2,27.876641146806662,71.59960554389356,0.10046263315823722
23.400000000000034,46.8719,4.7786,253.7,-6.8,-27.7,17.2,27.910995597670173,72.06769267184083,0.1004680510702105
23.5,46.4158,4.71154,253.3,-8.1,-16.3,17.2,27.92248809310177,72.56286820531358,0.10047371048916887
23.600000000000023,45.9847,4.60807,252.2,-6.0,3.5,17.2,27.94509361099047,73.02630833870607,0.10047909344262251
23.700000000000045,45.5253,4.57759,252.5,-0.8,18.3,17.2,28.009051694103,73.5026393234985,0.1004848412063506
23.80000000000001,45.0863,4.57502,253.8,3.6,22.4,17.2,28.0998882028747,73.94466494362071,0.10049034535891543
23.900000000000034,44.6269,4.69206,253.4,3.9,22.4,17.2,28.22273385279889,74.39456019082351,0.10049611789079549
24.0,44.2182,4.81815,252.4,1.8,22.7,17.2,28.317703654552783,74.80158183992238,0.10050129619968828
24.100000000000023,43.7346,4.91065,252.4,1.8,22.1,17.2,28.508898877111363,75.24653926123403,0.10050737926030884
24.200000000000045,43.2584,5.05984,252.2,1.2,21.8,17.2,28.729327600935573,75.66989152278553,0.10051337594155996
24.30000000000001,42.7384,5.15444,252.2,0.9,20.9,17.3,29.00155663247405,76.11741930996297,0.0005199337263182002
24.400000000000034,42.2389,5.19389,252.1,-0.6,12.0,17.2,29.287072165336543,76.5364626060092,0.10052625206129484
24.5,41.7013,5.08578,252.3,-4.5,-5.0,17.2,29.582298824424875,76.99316476478529,0.10053311109314933
24.600000000000023,41.2142,4.95637,253.0,-5.0,-20.1,17.2,29.84749546730252,77.4080854105869,0.10053936875263325
24.700000000000045,40.7164,4.80005,253.1,-4.0,-26.3,17.2,30.081800072552294,77.84903679911577,0.10054583431624309
24.80000000000001,40.2566,4.68213,253.2,-3.7,-26.7,17.2,30.261322901448196,78.27308423181918,0.1005518721525469
24.900000000000034,39.8207,4.74104,253.4,-4.0,-27.3,17.2,30.41407101542995,78.68311807060888,0.10055764190746608
25.0,39.383,4.72617,253.6,-4.9,-28.2,17.2,30.513141502455863,79.11977851888288,0.10056351272010566
25.100000000000023,38.9284,4.61348,253.8,-8.0,-21.5,17.2,30.587489200417732,79.58668145175088,0.10056967306867826
25.200000000000045,38.5048,4.52513,252.8,-9.7,-3.4,17.2,30.653274931560613,80.02380037405044,0.10057545407350688
25.30000000000001,38.054,4.47445,251.9,-5.9,14.6,17.2,30.785402005294998,80.46029251644569,0.10058157814306234
25.400000000000034,37.6243,4.51777,252.8,0.0,22.0,17.2,30.908228912732366,80.87789856785832,0.10058745247197365
25.5,37.1593,4.62057,253.0,2.2,22.5,17.2,31.075922122100643,81.313550340344,0.10059380401476581
25.600000000000023,36.7004,4.78363,252.4,1.6,22.7,17.3,31.273651168810503,81.72830654168868,0.0006000692152969833
25.700000000000045,36.1836,4.90431,252.1,1.3,22.0,17.3,31.494671460056587,82.19604636296941,0.0006071666893650018
25.80000000000001,35.7103,4.96786,251.9,-0.1,21.1,17.3,31.756322722029154,82.5966322898765,0.0006136376958547629
25.900000000000034,35.2268,4.87304,251.1,-6.1,12.7,17.3,32.046373982572845,82.99530108765393,0.0006202642896901978
26.0,34.776,4.72819,251.8,-10.5,-2.8,17.3,32.324306204519544,83.36374867588322,0.0006264729954938986
26.100000000000023,34.3149,4.50071,253.2,-10.6,-17.2,17.3,32.59860060984623,83.74564302592842,0.0006328722554638233
26.200000000000045,33.9173,4.26261,253.6,-8.8,-25.5,17.3,32.79930925820707,84.09151834458872,0.0006384515970481175
26.30000000000001,33.4732,4.13103,253.5,-7.0,-27.2,17.3,32.99330305886331,84.49170190119699,0.0006447382767564847
26.400000000000034,33.0653,4.06767,253.7,-6.7,-27.6,17.3,33.13351343177342,84.87660247410989,0.000650574509531765
26.5,32.6543,4.05899,254.0,-6.6,-27.8,17.3,33.23482044420378,85.28306435608005,0.0006565196868670853
26.600000000000023,32.2525,4.05898,254.2,-6.9,-28.2,17.2,33.322358186852995,85.6858191918305,0.10066237016931723
26.700000000000045,31.8742,4.02544,254.2,-8.3,-26.5,17.2,33.34116553200539,86.09530409068614,0.1006679771913177
26.80000000000001,31.5366,3.94613,253.6,-9.1,-15.8,17.2,33.328333432799724,86.4755073374372,0.10067304867973093
26.900000000000034,31.2068,3.93639,252.4,-6.9,-3.0,17.2,33.29814957732411,86.8565794367444,0.10067806385599276
27.0,30.8773,3.8915,252.1,-2.0,9.9,17.3,33.289234750696366,87.22811225805188,0.0006830822353354193
27.100000000000023,30.4942,3.93856,253.3,3.1,19.8,17.3,33.321792136037296,87.64000649759105,0.0006888945963741122
27.200000000000045,30.1114,4.04965,254.0,5.9,22.5,17.3,33.3934277311169,88.03281376869856,0.0006946737454303076
27.30000000000001,29.6907,4.19726,253.1,4.8,22.4,17.3,33.512573610836405,88.44441511776927,0.0007009900666581359
27.400000000000034,29.2742,4.30351,252.4,2.9,22.4,17.3,33.61613614593665,88.85952385401282,0.00070730019083598
27.5,28.8341,4.32299,252.1,0.9,22.0,17.3,33.808381929342346,89.25603202084179,0.0007138533273192138
27.600000000000023,28.4182,4.35299,251.3,-3.1,16.7,17.3,34.01930403828567,89.61571086140029,0.0007200160590929983
27.700000000000045,27.9956,4.26634,251.4,-6.9,5.1,17.3,34.25236158482521,89.97177721353862,0.0007262761211261903
27.80000000000001,27.5997,4.10318,252.3,-8.3,-5.6,17.3,34.46988901705946,90.3058913148113,0.0007321699440474561
27.900000000000034,27.2225,3.94826,253.2,-7.9,-17.4,17.3,34.65523252657536,90.63525360980627,0.0007378452091462151
28.0,26.8418,3.83542,253.6,-6.7,-25.5,17.3,34.82008923252247,90.97892960787554,0.0007436343632445386
28.100000000000023,26.4493,3.80342,253.7,-5.8,-26.6,17.3,34.954998845644326,91.35103819637794,0.0007496886315401241
28.200000000000045,26.0878,3.78833,253.9,-6.4,-27.0,17.3,35.04609256041395,91.71080016159269,0.000755347648466298
28.30000000000001,25.6926,3.81013,253.9,-6.3,-27.9,17.3,35.15180122991139,92.101168916446,0.0007615520205490611
28.400000000000034,25.3562,3.85077,253.7,-7.0,-27.5,17.2,35.17018819733755,92.47108340945567,0.10076700015369511
28.5,25.0149,3.81613,253.2,-7.1,-17.2,17.2,35.16137004381116,92.86193435426759,0.10077262380618457
28.600000000000023,24.6946,3.79298,252.2,-4.0,-0.7,17.2,35.15158009189494,93.2311632210878,0.10077795169191184
28.700000000000045,24.3504,3.79196,252.5,1.1,13.9,17.3,35.180301335786424,93.60801295472243,0.0007836245193608704
28.80000000000001,24.0047,3.82764,253.7,5.1,20.7,17.3,35.22858570933502,93.97681742624275,0.0007893096970477131
28.900000000000034,23.614,3.96781,253.8,5.5,22.1,17.3,35.32423306982058,94.3714992122936,0.0007956626979996884
29.0,23.2258,4.10985,252.7,3.2,22.5,17.3,35.45262470842779,94.74523064843501,0.0008019134560406371
29.100000000000023,22.8088,4.17195,252.1,1.2,22.6,17.3,35.584746353789555,95.15030593905877,0.00080867579665167
29.200000000000045,22.3989,4.24244,251.6,-1.3,17.9,17.3,35.7729719864227,95.51526957683873,0.0008151821810109539
29.30000000000001,21.9617,4.18208,251.6,-3.7,6.7,17.3,35.98658905186496,95.89718503784451,0.0008221133746566522
29.400000000000034,21.5535,4.13465,252.2,-4.7,-4.5,17.3,36.18772010165657,96.25276462630714,0.0008286069327638756
29.5,21.139,4.08209,252.7,-3.9,-17.2,17.3,36.37880863898374,96.62147220028956,0.000835267206362289
29.600000000000023,20.7671,4.04356,252.9,-3.0,-25.7,17.3,36.49853589026225,96.98208148065953,0.0008414212491807405
29.700000000000045,20.3625,4.09635,252.9,-2.5,-26.9,17.3,36.618362510688364,97.38090693653271,0.0008481822248675996
29.80000000000001,19.9863,4.16332,252.9,-2.7,-27.3,17.2,36.69443048791531,97.77313775287752,0.10085461528065665
29.900000000000034,19.6004,4.24511,253.1,-3.1,-28.3,17.2,36.7353638274184,98.19902164025677,0.10086138724809146
30.0,19.2315,4.33365,253.0,-3.7,-27.8,17.2,36.77288229671417,98.6090789657587,0.10086792522580268
30.100000000000023,18.8627,4.37161,252.7,-4.0,-18.8,17.2,36.759760921477366,99.05327961996254,0.10087472548485366
30.200000000000045,18.5109,4.41605,252.2,-1.9,-5.9,17.2,36.742103551098154,99.48412428226055,0.10088132230129432
30.30000000000001,18.1293,4.4755,252.4,3.2,6.3,17.2,36.73788656122751,99.9458105783884,0.10088850874354449
30.400000000000034,17.742,4.56657,253.7,7.2,16.7,17.2,36.7699919078933,100.39382829175348,0.10089572277377101
30.5,17.3002,4.71328,254.6,8.8,21.5,17.3,36.85338565973162,100.87573406890759,0.0009038028436130219
30.600000000000023,16.8644,4.82919,253.8,6.6,22.0,17.3,36.97037110077662,101.32883902117416,0.0009116583342532181
30.700000000000045,16.4024,4.85227,251.9,1.6,21.1,17.3,37.12489271045477,101.78888746980485,0.000919876282054588
30.80000000000001,15.9925,4.86024,251.4,-1.1,19.1,17.3,37.250647634322036,102.20708388057909,0.0009272943771634345
30.900000000000034,15.5147,4.76379,251.3,-4.5,12.0,17.4,37.4569195008944,102.65074258964054,-0.09906437600766438
31.0,15.0703,4.50272,251.7,-12.8,0.9,17.4,37.6586956906836,103.05641169959179,-0.0990566472059271
31.100000000000023,14.6294,4.15698,253.1,-26.2,-5.6,17.4,37.86445073627483,103.4552399733279,-0.09904897514425315
31.200000000000045,14.2462,3.67871,253.8,-28.5,-5.4,17.3,38.04532267719169,103.80068085243443,0.0009577128886562036
31.30000000000001,13.8567,3.22779,253.8,-27.4,-5.7,17.3,38.22663885263469,104.15434545446718,0.0009645612998809838
31.400000000000034,13.5553,2.77048,254.0,-27.7,-7.0,17.3,38.37520751411886,104.42163474349147,0.0009698236553639106
31.5,13.2859,2.43445,254.0,-27.7,-7.0,17.2,38.51370078301815,104.6562726752822,0.10097450210761139
31.600000000000023,13.0687,2.01155,254.2,-28.6,-6.6,17.2,38.62994456292476,104.84171151027482,0.10097824972009661
31.700000000000045,12.877,1.58409,254.2,-29.1,-7.9,17.2,38.759820800849106,104.98320917863109,0.10098136634988109
31.80000000000001,12.7421,1.16334,254.2,-28.5,-9.7,17.2,38.83282666737577,105.09773189037062,0.10098369706111043
31.900000000000034,12.6451,0.820359,253.8,-27.0,-9.6,17.2,38.876961978019196,105.1869928766543,0.10098543592811993
32.0,12.5833,0.540326,253.2,-23.6,-7.2,17.2,38.90094594291173,105.24727095390115,0.10098657543443679
32.10000000000002,12.5532,0.386364,252.8,-20.1,-5.3,17.2,38.890242091761465,105.29500381897411,0.10098729713454091
32.200000000000045,12.5312,0.272742,252.4,-16.7,-4.7,17.2,38.89027056482789,105.32362610314195,0.1009877697725301
