time,distance(meters),speed(m/s), compass_heading(degrees), pitch(degrees), roll(degrees),height_above_takeoff(meters),North,East,Down
0.0,8.1867,0.282626,238.7,-13.9,1.5,19.0,0.0,0.0,0.0
0.10000000000002274,8.21644,0.453073,238.7,-16.3,1.9,19.0,-0.017501322706432006,-0.0252601139943304,-2.694789807966558e-10
0.19999999999998863,8.26469,0.647406,238.6,-17.6,1.8,19.0,-0.044525737056847606,-0.06674442250949825,1.9099313346149227e-09
0.30000000000001137,8.3188,1.07077,238.4,-19.7,1.6,18.9,-0.0739733980607108,-0.11355978087237628,0.1000000017849682
0.4000000000000341,8.37677,1.71127,238.1,-21.2,1.7,18.9,-0.1055080423462267,-0.163706752293372,0.10000000320338379
0.5,8.43778,2.25245,238.1,-21.1,1.7,18.8,-0.1389082534991643,-0.21638250023569114,0.20000000579065197
0.6000000000000227,8.50951,2.61525,238.2,-18.9,1.4,18.6,-0.17427443713670404,-0.2797843173289138,0.4000000093796079
0.6999999999999886,8.59519,2.96145,238.3,-17.4,1.3,18.3,-0.21924388685555396,-0.35443962908418525,0.7000000144295317
0.8000000000000114,8.69949,2.9936,238.3,-17.0,1.4,18.0,-0.27166333590278247,-0.4461806632959253,1.0000000215813705
0.9000000000000341,8.81554,2.58751,238.4,-12.8,0.6,17.7,-0.33058011359757733,-0.54799288447519,1.3000000322104364
1.0,8.95887,2.09417,238.4,-7.6,-0.5,17.5,-0.4002989646437748,-0.6748671481568868,1.500000047947739
1.1000000000000227,9.09058,1.69255,238.4,-7.2,-0.3,17.3,-0.47414192538004984,-0.7875653347732716,1.7000000669963764
1.1999999999999886,9.24393,1.59588,238.7,-10.9,0.9,17.1,-0.5596041549981038,-0.918880459981726,1.9000000900084273
1.3000000000000114,9.40164,1.79914,238.9,-12.6,3.4,17.1,-0.6426221890478812,-1.0557572049217452,1.90000012032726
1.400000000000034,9.58676,2.14036,239.1,-10.1,3.5,17.2,-0.7101254831506043,-1.2284044113686914,1.8000001576134337
1.5,9.75637,2.61476,239.5,-8.1,2.4,17.3,-0.786787578917337,-1.3806361903302071,1.700000198406674
1.6000000000000227,9.93964,3.05982,239.8,-7.3,1.2,17.5,-0.8710990672782188,-1.54449141684068,1.5000002475170757
1.6999999999999886,10.1131,3.54156,240.2,-7.2,0.6,17.7,-0.9542598006185312,-1.6981255663790418,1.3000002967001705
1.8000000000000114,10.2934,3.95021,240.4,-7.1,0.7,18.0,-1.046315328743117,-1.8555419605739307,1.000000356187472
1.900000000000034,10.4707,4.10412,240.3,-7.0,0.6,18.3,-1.135212580420308,-2.010975628691064,0.7000004187832853
2.0,10.6554,3.7888,240.1,-7.8,0.7,18.8,-1.2234366015282345,-2.1745828117246084,0.2000004886831207
2.1000000000000227,10.825,3.27809,239.8,-10.1,1.2,19.1,-1.3042821213451723,-2.3248300871424563,-0.09999944236465752
2.1999999999999886,10.9945,2.64647,239.6,-11.6,1.0,19.4,-1.384426559569242,-2.475358038070293,-0.39999936877498354
2.3000000000000114,11.1786,1.9999,239.5,-11.2,0.5,19.7,-1.455191122154988,-2.645511967348395,-0.6999992856609887
2.400000000000034,11.3528,1.55122,239.3,-10.3,0.5,19.8,-1.535529121234918,-2.8009971841778643,-0.7999991992305968
2.5,11.5129,1.48016,239.1,-10.6,0.6,19.9,-1.6105756213280908,-2.9433402029406155,-0.89999911782611
2.6000000000000227,11.6724,1.75374,239.0,-11.0,0.8,19.9,-1.687112029741402,-3.0843171109667975,-0.8999990303163092
2.6999999999999886,11.8383,2.2345,239.0,-10.8,0.8,19.9,-1.7570858738830402,-3.235130406119292,-0.8999989376511401
2.8000000000000114,11.9953,2.61011,239.0,-10.5,0.3,19.7,-1.841995439632747,-3.369769518124901,-0.6999988438496286
2.900000000000034,12.1479,2.91491,238.9,-8.9,0.3,19.5,-1.923957275757604,-3.5008870387569626,-0.49999874784916454
3.0,12.3135,3.01168,238.7,-9.6,0.0,19.2,-2.010983753091772,-3.6439973546025213,-0.19999864189630667
3.1000000000000227,12.4644,3.11537,238.5,-7.2,0.0,18.9,-2.102351423059352,-3.7690558563009735,0.10000146047305214
3.1999999999999886,12.6383,3.22588,238.7,-11.1,0.9,18.6,-2.1983820938341427,-3.9170662053650878,0.40000158303791333
3.3000000000000114,12.8045,3.07223,238.8,-9.7,1.5,18.3,-2.2892631979529448,-4.058988948064791,0.7000017026687049
3.400000000000034,12.9708,2.57951,239.0,-3.2,1.2,18.1,-2.3790802598411176,-4.20123918509243,0.9000018278887483
3.5,13.1117,2.06454,239.2,4.2,-0.9,17.9,-2.4558787868519154,-4.321536074698021,1.100001936757599
3.6000000000000227,13.2453,1.60665,238.7,7.4,-2.6,17.8,-2.51718822998684,-4.440723759684129,1.2000020444411186
3.6999999999999886,13.3402,1.1831,237.9,4.7,-1.5,17.6,-2.574286476482512,-4.519273341026978,1.400002121134986
3.8000000000000114,13.4313,0.999242,237.7,-4.9,3.0,17.6,-2.6278516037748503,-4.595128171050144,1.4000021976310744
3.900000000000034,13.5407,1.30499,237.1,-18.4,5.2,17.5,-2.6814950655296466,-4.691138704495944,1.5000022889331734
4.0,13.7154,1.91638,237.1,-21.4,3.3,17.6,-2.731117742994804,-4.8606539297874205,1.400002438243714
4.100000000000023,13.8898,2.45524,237.5,-16.4,1.6,17.7,-2.809352470238464,-5.016937226455848,1.3000025916977673
4.199999999999989,14.0874,2.92416,238.3,-11.0,1.6,17.8,-2.9043021797643864,-5.1911186536363285,1.2000027740651322
4.300000000000011,14.2718,3.35678,239.0,-6.7,2.1,18.0,-2.9936079197439094,-5.353429512869983,1.0000029496019855
4.400000000000034,14.4477,3.65008,239.4,-5.0,1.8,18.3,-3.0849028183726337,-5.50539910298689,0.7000031228985508
4.5,14.612,4.0963,239.7,-5.9,1.1,18.6,-3.1604929790850536,-5.651709739964776,0.4000032887132141
4.600000000000023,14.7793,4.43465,239.9,-7.1,0.9,19.0,-3.2273123037399065,-5.805287964493141,3.4586973516326225e-06
4.699999999999989,14.937,4.4507,239.6,-7.9,0.5,19.4,-3.2935902053680053,-5.948674730830548,-0.3999963752837381
4.800000000000011,15.0991,3.97557,239.4,-9.4,0.2,19.8,-3.3596586293707285,-6.09693387239756,-0.7999962001552643
4.900000000000034,15.2569,3.3902,239.1,-11.6,0.1,20.2,-3.4346073827893386,-6.236397200132285,-1.1999960257493885
5.0,15.4247,2.71798,238.9,-12.4,-0.2,20.6,-3.515393055074949,-6.3841342246866475,-1.5999958351803016
5.100000000000023,15.5788,2.0778,238.7,-11.1,-0.7,20.8,-3.5882381266934393,-6.520563613327803,-1.7999956571065512
5.199999999999989,15.736,1.5654,238.4,-10.4,-0.5,21.0,-3.6582355272885207,-6.6616085849489455,-1.9999954716592436
5.300000000000011,15.9108,1.33588,238.2,-11.5,-0.1,21.1,-3.738146941034235,-6.817525451528412,-2.0999952595349933
5.400000000000034,16.0635,1.56453,238.0,-12.5,-0.1,21.1,-3.8137702137146166,-6.951040211135647,-2.099995071059581
5.5,16.2053,2.12031,237.6,-11.7,-0.2,21.0,-3.884584473416494,-7.074682201780082,-1.9999948923089679
5.600000000000023,16.35,2.64565,237.4,-10.3,-0.3,20.9,-3.9571628086891475,-7.200826249010948,-1.8999947079432005
5.699999999999989,16.4976,2.99564,237.1,-9.1,-0.4,20.7,-4.033889756544403,-7.328176806373545,-1.6999945136245478
5.800000000000011,16.6483,3.24108,236.7,-7.6,-0.4,20.3,-4.106436820100041,-7.460851031739782,-1.299994314625468
5.900000000000034,16.7927,3.44919,236.3,-9.0,-0.3,20.1,-4.17980897590513,-7.586142464190131,-1.0999941175688162
6.0,16.9432,3.57419,235.7,-7.6,0.5,19.7,-4.263151405526076,-7.713621645360226,-0.6999939099688042
6.100000000000023,17.094,3.66145,235.4,-8.9,1.3,19.4,-4.340405600705145,-7.8441499760625435,-0.39999369842303945
6.199999999999989,17.2677,3.56836,235.0,-7.8,1.6,19.0,-4.427369330812695,-7.995405787272668,6.54991057214005e-06
6.300000000000011,17.4254,3.02337,234.9,-1.0,0.6,18.7,-4.504520194894547,-8.133715178397892,0.30000677731723524
6.400000000000034,17.566,2.40517,235.2,6.5,-0.5,18.5,-4.57016129317242,-8.25841088235017,0.5000069848453945
6.5,17.6933,1.86394,234.9,6.3,-1.0,18.3,-4.61985204445768,-8.375777017451254,0.7000071743941123
6.600000000000023,17.7726,1.50149,234.6,4.4,-1.1,18.2,-4.666479978712251,-8.441643599737585,0.8000072935316922
6.699999999999989,17.8381,1.09372,234.6,-1.2,1.0,18.0,-4.703961676593606,-8.496449842846456,1.0000073955173066
6.800000000000011,17.9223,1.02892,234.9,-13.3,4.1,17.9,-4.7436452743016115,-8.570987199167897,1.100007523650886
6.900000000000034,18.0361,1.38702,234.8,-20.1,3.8,17.9,-4.794082399715113,-8.673178996253903,1.100007699509491
7.0,18.2126,1.94623,235.2,-16.9,1.8,17.9,-4.8567061854600535,-8.838946394620162,1.100007974219666
7.100000000000023,18.3766,2.46906,235.8,-10.8,0.6,18.0,-4.933839963850263,-8.984090403049906,1.0000082365626515
7.199999999999989,18.5491,2.93335,236.4,-6.6,0.8,18.2,-5.021284488172396,-9.133830095998302,0.8000085175351077
7.300000000000011,18.7084,3.4094,237.0,-5.1,2.1,18.4,-5.1013881057488115,-9.272339675385108,0.6000087804808669
7.400000000000034,18.8638,3.76301,237.6,-4.9,1.6,18.7,-5.187104052996075,-9.403957088835288,0.3000090428050304
7.5,19.0104,4.23792,238.1,-5.4,0.9,19.1,-5.258260330312089,-9.532590516375912,-0.09999070714411085
7.600000000000023,19.1626,4.58657,238.3,-6.1,0.8,19.5,-5.3290525285934915,-9.667709626396023,-0.4999904454418589
7.699999999999989,19.3106,4.83164,238.4,-6.4,0.0,19.9,-5.399492936033072,-9.798240868071318,-0.8999901867384548
7.800000000000011,19.5089,4.84806,238.3,-6.3,0.0,20.3,-5.496540359008123,-9.971939956227219,-1.2999898343762224
7.900000000000034,19.6629,4.44335,238.3,-7.6,0.0,20.8,-5.568771672634872,-10.108277381792886,-1.799989557404801
8.0,19.8226,3.80295,238.2,-10.4,-0.5,21.3,-5.638669657369798,-10.252106661484163,-2.2999892659138634
8.100000000000023,19.9685,3.13762,238.0,-10.5,-1.0,21.7,-5.70291777085951,-10.383350125598131,-2.699988997975228
8.199999999999989,20.1414,2.45256,238.0,-7.8,-0.9,22.0,-5.771388866784989,-10.54237663947389,-2.9999886749997478
8.300000000000011,20.2807,1.79188,237.9,-7.4,-0.9,22.2,-5.832674293374033,-10.667704992043854,-3.1999884108173955
8.400000000000034,20.4289,1.30853,238.0,-8.6,-1.5,22.3,-5.896176634496229,-10.80180993982582,-3.2999881263626856
8.5,20.5632,1.26599,237.9,-8.1,-2.1,22.4,-5.953327010827685,-10.923525851352593,-3.3999878668915158
8.600000000000023,20.6943,1.60424,237.9,-5.5,-1.9,22.4,-6.0091813400986265,-11.04229182915936,-3.3999876093638806
8.699999999999989,20.8294,2.12134,237.8,-3.0,-1.2,22.3,-6.061636713141263,-11.167088905234689,-3.2999873421329315
8.800000000000011,20.9625,2.62976,237.8,-3.0,-1.0,22.1,-6.12209968316755,-11.28586598736051,-3.0999870750464593
8.900000000000034,21.0826,2.96984,237.8,-3.8,-1.1,21.9,-6.180468459402292,-11.391266961159975,-2.8999868329187963
9.0,21.1999,3.14791,237.9,-2.3,-0.5,21.6,-6.2438021238853025,-11.491174883089297,-2.5999865907836863
9.100000000000023,21.3046,3.16793,238.1,-4.6,-0.1,21.3,-6.315235242850291,-11.57311499015972,-2.299986372525651
9.199999999999989,21.407,2.9094,238.4,0.0,0.0,21.0,-6.3655543332498015,-11.66275883815356,-1.999986158405786
9.300000000000011,21.5095,2.89873,238.8,-4.0,1.4,20.7,-6.4151365761538255,-11.752713872358285,-1.6999859452209027
9.400000000000034,21.6231,2.44271,238.8,-6.0,0.7,20.5,-6.470348489699099,-11.852400468936025,-1.4999857044881049
9.5,21.7147,1.73031,239.4,8.5,-0.4,20.2,-6.511863090705621,-11.934161048919972,-1.199985509883462
9.600000000000023,21.7609,1.25762,239.8,13.1,1.2,20.0,-6.52393829497624,-11.979737943644164,-0.999985410978629
9.699999999999989,21.7693,0.95534,240.1,8.7,3.0,19.9,-6.512583650581044,-11.994415945915524,-0.8999853955582751
9.800000000000011,21.7559,0.551547,240.0,-0.4,0.8,19.8,-6.486836144642418,-11.991926087475196,-0.7999854269776634
9.900000000000034,21.7931,0.295672,240.1,-16.9,-1.8,19.8,-6.46365461025073,-12.044212366629072,-0.799985351814136
10.0,21.8454,0.941425,239.8,-23.0,-0.9,19.8,-6.477409565199517,-12.095643355629434,-0.7999852397592422
10.100000000000023,21.9329,1.57094,239.7,-18.2,-0.6,19.8,-6.512617283594846,-12.175947730589302,-0.7999850513689322
10.199999999999989,22.051,2.13385,239.5,-11.8,0.0,20.0,-6.565955702272499,-12.281513604538588,-0.9999847954157342
10.300000000000011,22.1607,2.6928,239.5,-7.6,-0.2,20.1,-6.6132252488232,-12.38059361609874,-1.0999845548077025
10.400000000000034,22.2596,3.1234,239.6,-6.0,-0.5,20.4,-6.6475974636468225,-12.473934834911276,-1.399984336982055
10.5,22.3444,3.62315,239.7,-6.4,-0.8,20.7,-6.6838688516104785,-12.550682906656153,-1.6999841484823617
10.600000000000023,22.4257,4.02886,239.8,-7.5,-0.7,21.1,-6.727245071408433,-12.620157008217838,-2.099983964824435
10.699999999999989,22.5085,4.27568,239.8,-7.8,-0.3,21.4,-6.7730729853348475,-12.690180787498694,-2.39998377901126
10.800000000000011,22.6309,3.84554,239.5,-8.7,-0.1,21.9,-6.8499320447550485,-12.789334213510209,-2.899983498533321
10.900000000000034,22.7291,3.23995,239.3,-12.1,-0.2,22.3,-6.900720698111413,-12.873935235426952,-3.299983272810403
11.0,22.8315,2.53128,239.2,-13.3,0.0,22.6,-6.948856620770806,-12.964586421896627,-3.599983036824606
11.100000000000023,22.9244,1.82544,239.1,-11.8,0.0,22.9,-6.994639746703594,-13.045838446834338,-3.8999828221326154
11.199999999999989,23.0581,1.1835,239.0,-13.3,-0.1,23.1,-7.0630544706719185,-13.161487110640834,-4.099982507704576
11.300000000000011,23.1457,0.708134,238.9,-17.6,-0.1,23.2,-7.113251915274242,-13.234601577761296,-4.199982300473591
11.400000000000034,23.2351,1.01166,238.8,-19.0,0.0,23.2,-7.169052820700701,-13.307146900990418,-4.199982087854236
11.5,23.3209,1.69286,238.7,-18.5,0.0,23.2,-7.223512250438743,-13.376198312512438,-4.1999818810619605
11.600000000000023,23.4296,2.28597,238.6,-19.4,0.0,23.0,-7.310677647057729,-13.454915823292747,-3.9999816166131135
11.699999999999989,23.5301,2.71604,238.7,-20.0,0.4,22.8,-7.374332853055407,-13.535935825185584,-3.799981371322474
11.800000000000011,23.6544,2.92417,238.8,-18.7,0.5,22.5,-7.450915790793947,-13.637071343023816,-3.4999810659179573
11.900000000000034,23.7868,2.79339,238.9,-16.4,0.4,22.3,-7.530776323930011,-13.745486990602519,-3.2999807404937034
12.0,23.9383,2.72359,238.9,-15.1,0.9,22.0,-7.620110119701578,-13.870694159311558,-2.9999803638619538
12.100000000000023,24.1187,2.3921,239.1,-15.0,0.9,21.8,-7.731372858635662,-14.017313650996641,-2.7999799080427517
12.199999999999989,24.3138,2.23841,239.0,-12.5,0.6,21.6,-7.832615291599337,-14.18511799391159,-2.599979413312273
12.300000000000011,24.5118,2.14277,239.2,-10.8,0.6,21.4,-7.93189713972019,-14.35713411254696,-2.3999789068925343
12.400000000000034,24.729,2.19209,239.7,-8.0,1.0,21.4,-8.035182695285886,-14.54861533157677,-2.3999783436258713
12.5,24.9664,2.39203,240.0,-5.9,0.5,21.5,-8.125158291205903,-14.769227893972571,-2.4999777213333556
12.600000000000023,25.1641,2.73306,240.1,-5.4,0.0,21.6,-8.217610314206215,-14.944377744878048,-2.599977196413666
12.699999999999989,25.3459,3.14168,239.9,-4.5,0.2,21.8,-8.305548996868096,-15.103963741065238,-2.799976705298088
12.800000000000011,25.5183,3.50862,239.6,1.9,-0.5,22.0,-8.39639603864352,-15.251504383780198,-2.999976235858977
12.900000000000034,25.6641,3.90246,239.6,5.2,-0.2,22.3,-8.469220354922374,-15.378354864570102,-3.2999758340096257
13.0,25.7788,4.01632,239.6,1.0,1.2,22.8,-8.5291806643099,-15.476809749497898,-3.7999755162827777
13.100000000000023,25.878,3.49201,239.5,-6.7,1.0,23.2,-8.579467351747459,-15.562701617349196,-4.199975240060343
13.199999999999989,25.9774,2.80845,239.3,-11.4,0.0,23.6,-8.627409877398694,-15.649973872525127,-4.59997496147427
13.300000000000011,26.1386,2.09352,239.2,-8.4,0.1,23.9,-8.713372302723695,-15.787487516344925,-4.899974506698858
13.400000000000034,26.2428,1.38734,239.2,-7.0,0.6,24.1,-8.771108740397485,-15.875341626751375,-5.099974208668401
13.5,26.338,0.801113,239.1,-9.9,0.3,24.2,-8.821209379965763,-15.956818632763419,-5.199973936455833
13.600000000000023,26.4326,0.7371,239.1,-10.1,-0.2,24.3,-8.863982816231792,-16.041266410165708,-5.299973665081706
13.699999999999989,26.5181,1.29759,239.1,-7.6,-0.4,24.3,-8.906501122503201,-16.11574962796989,-5.299973418381809
13.800000000000011,26.628,1.88162,239.0,-5.6,-0.2,24.2,-8.975155332168232,-16.20443543886562,-5.199973097071359
13.900000000000034,26.7064,2.43123,239.2,-5.8,0.0,24.0,-9.02527148192268,-16.267191626715714,-4.9999728658832145
14.0,26.7872,2.72218,239.4,-5.7,0.1,23.8,-9.078746721221732,-16.330860433992044,-4.799972628140345
14.100000000000023,26.8615,2.93898,239.9,-3.9,0.4,23.5,-9.126969342491128,-16.38991434799953,-4.499972408023993
14.199999999999989,26.942,3.06629,241.1,-6.6,0.7,23.2,-9.186917055826747,-16.44991142617144,-4.199972166454858
14.300000000000011,27.0103,3.12529,243.4,-6.8,0.8,22.9,-9.228982013334505,-16.50525185154988,-3.899971962893635
14.400000000000034,27.0777,3.14933,245.8,-8.0,1.1,22.6,-9.27201136083896,-16.559152714509043,-3.5999717593929392
14.5,27.1466,3.07915,247.6,-9.0,1.1,22.3,-9.312999938851956,-16.61580095693936,-3.2999715529704177
14.600000000000023,27.2091,2.6608,249.3,-6.6,0.7,22.0,-9.35182569374361,-16.666263262043074,-2.9999713652612816
14.699999999999989,27.2754,2.13181,250.3,-0.8,1.3,21.7,-9.384732179613625,-16.72394628329323,-2.6999711665468027
14.800000000000011,27.3317,1.63837,250.6,1.9,1.9,21.5,-9.410609243475506,-16.77407088422165,-2.4999709953470486
14.900000000000034,27.3737,1.03604,250.0,-1.2,0.8,21.4,-9.424842269256752,-16.81392976885842,-2.3999708703400175
15.0,27.4451,0.56666,249.5,-7.9,0.0,21.3,-9.442713917538,-16.88495694063796,-2.2999706556334583
15.100000000000023,27.4975,0.710858,249.0,-10.9,-2.2,21.2,-9.456248370986163,-16.936882184737506,-2.199970498642648
15.199999999999989,27.5629,1.23697,248.4,-9.5,-3.9,21.3,-9.482521725893946,-16.996929875021372,-2.2999702994704836
15.300000000000011,27.6307,1.8443,247.9,-7.2,-2.3,21.3,-9.51537879462417,-17.05642936601823,-2.2999700907536584
15.400000000000034,27.7036,2.37554,247.8,-6.2,-0.2,21.5,-9.55294469564815,-17.11924574692618,-2.4999698670986032
15.5,27.7912,2.89531,247.8,-6.2,0.1,21.7,-9.60201680221932,-17.192706140952282,-2.699969595595575
15.600000000000023,27.8558,3.11788,247.5,-6.5,-0.3,22.1,-9.631908346723115,-17.250083632473178,-3.099969395025612
15.699999999999989,27.913,2.8224,247.4,-7.2,-1.8,22.4,-9.661347543311116,-17.29926451407824,-3.39996921916424
15.800000000000011,27.9665,2.20599,247.6,-10.8,-2.5,22.7,-9.69576835444714,-17.341976920747086,-3.699969048621453
15.900000000000034,28.0298,1.48105,247.7,-12.7,-2.0,22.9,-9.754628915092997,-17.383182705947675,-3.8999688479717416
16.0,28.1024,0.799699,247.7,-11.2,-1.4,23.1,-9.794741971382267,-17.444320899600786,-4.099968618458712
16.100000000000023,28.1703,0.481493,247.6,-11.1,-1.7,23.2,-9.83082251376923,-17.502190197276846,-4.199968405070454
16.19999999999999,28.241,1.01774,247.6,-12.7,-2.1,23.2,-9.86526306470498,-17.564074349755504,-4.199968181648789
16.30000000000001,28.3691,1.71187,247.7,-14.0,-2.1,23.2,-9.932934907394257,-17.673557741895596,-4.19996777375659
16.400000000000034,28.4364,2.23831,247.7,-14.7,-1.7,23.0,-9.973802983603925,-17.72835234952166,-3.999967557713949
16.5,28.5045,2.6128,247.8,-13.7,-1.1,22.8,-10.015909221016063,-17.783431433842402,-3.7999673371434546
16.600000000000023,28.58,2.87654,247.9,-14.0,-0.9,22.5,-10.063998131092593,-17.843730104255595,-3.4999670931074176
16.69999999999999,28.6821,3.04958,248.0,-14.9,-0.7,22.3,-10.138578644451801,-17.920419888026334,-3.299966760836067
16.80000000000001,28.7864,3.15385,248.1,-15.0,-0.5,21.9,-10.18825368969426,-18.012256947202154,-2.8999664241552505
16.900000000000034,28.9008,2.81519,248.3,-14.0,-0.6,21.6,-10.242111510730153,-18.113296798832014,-2.599966050683043
17.0,29.0336,2.3513,248.4,-9.5,1.1,21.3,-10.302389889542138,-18.231800439516675,-2.299965615017862
17.100000000000023,29.1613,1.8515,248.5,-6.3,1.7,21.1,-10.356546902694134,-18.34774978635652,-2.0999651951574068
17.19999999999999,29.3234,1.51798,248.5,-7.2,0.4,20.9,-10.433577605413221,-18.490602217791807,-1.8999646586358718
17.30000000000001,29.4572,1.4583,248.4,-10.7,-0.6,20.8,-10.48716551168781,-18.613581646262983,-1.7999642121861266
17.400000000000034,29.6108,1.71603,248.3,-12.7,-1.9,20.8,-10.553180100918032,-18.75249588349035,-1.799963696764773
17.5,29.77,2.15028,247.9,-12.1,-2.4,20.9,-10.62310152744762,-18.89581120886931,-1.8999631576876546
17.600000000000023,29.9586,2.56618,247.7,-10.3,-1.4,21.0,-10.704646157522554,-19.06611934568285,-1.999962514506037
17.69999999999999,30.1312,3.00135,247.5,-8.9,0.0,21.2,-10.776799904410433,-19.2232693185279,-2.1999619212351957
17.80000000000001,30.3138,2.94723,247.4,-8.0,-0.2,21.5,-10.854220035283781,-19.389013095005097,-2.499961287831095
17.900000000000034,30.4842,2.5357,247.4,-10.9,-1.6,21.7,-10.929365949618282,-19.542130788636232,-2.6999606922101895
18.0,30.6744,1.98465,247.5,-14.2,-1.7,22.0,-11.038624700808038,-19.70010215456066,-2.9999600167988802
18.100000000000023,30.8406,1.73812,247.5,-11.2,-0.9,22.1,-11.118382192520844,-19.84620694819901,-3.0999594258738394
18.19999999999999,31.0226,1.5091,247.7,-8.9,-0.5,22.2,-11.20667252267473,-20.00562106465574,-3.1999587746420666
18.30000000000001,31.1929,1.5816,247.8,-10.6,-0.6,22.3,-11.290463830047845,-20.15429380418055,-3.2999581572092014
18.400000000000034,31.4178,1.96402,248.0,-12.8,-1.3,22.2,-11.434760644098304,-20.333267542685398,-3.1999573327228994
18.5,31.5826,2.55538,247.9,-13.7,-1.8,22.1,-11.517936116489743,-20.476030559271205,-3.0999567244729347
18.600000000000023,31.7571,2.98866,248.0,-13.8,-1.1,21.9,-11.605097540422012,-20.627583395585678,-2.8999560794439123
18.69999999999999,31.9298,3.31481,248.1,-11.9,-0.1,21.7,-11.690421203598413,-20.778099498900772,-2.6999554357545934
18.80000000000001,32.1226,3.41502,248.2,-13.1,0.4,21.4,-11.78273880092901,-20.947665648604527,-2.3999547097868907
18.900000000000034,32.3447,3.18204,248.3,-11.0,0.4,21.1,-11.899104694999373,-21.137780947970683,-2.099953866518092
19.0,32.5444,3.02841,248.4,-9.9,0.5,20.7,-11.98323737770449,-21.319350087144375,-1.6999531054420176
19.100000000000023,32.7472,2.70655,248.6,-12.9,0.9,20.5,-12.066819968534151,-21.504637168594428,-1.499952325809769
19.19999999999999,32.9762,2.56701,248.8,-12.4,0.7,20.3,-12.159992928966378,-21.714528577772153,-1.2999514368750456
19.30000000000001,33.2139,2.51611,249.1,-13.0,-0.5,20.2,-12.250631908866076,-21.93541561465962,-1.1999505075017254
19.400000000000034,33.4696,2.55993,249.4,-11.8,-0.1,20.2,-12.347028480917107,-22.173709515670296,-1.1999494980828045
19.5,33.7169,2.75471,249.4,-9.4,0.5,20.1,-12.442547894048573,-22.402878826561274,-1.0999485121722872
19.600000000000023,33.9772,2.99733,249.4,-8.5,0.8,20.3,-12.547376566886356,-22.642015436606403,-1.2999474622470508
19.69999999999999,34.2445,3.33009,249.3,-8.9,0.4,20.4,-12.659649992795412,-22.885069474340717,-1.3999463736952844
19.80000000000001,34.5053,3.67481,249.1,-9.5,0.0,20.7,-12.758036593295788,-23.12801921123812,-1.699945301281688
19.900000000000034,34.759,3.98588,248.9,-9.7,-0.3,20.9,-12.852626141376462,-23.364908689185,-1.899944248095764
20.0,35.0316,3.90743,248.8,-9.9,-1.3,21.2,-12.954204239722623,-23.61939409079927,-2.19994310555567
20.100000000000023,35.3645,3.68294,248.9,-11.4,-1.8,21.5,-13.10317677691562,-23.917501881068524,-2.4999416890812887
20.19999999999999,35.6376,3.37284,248.9,-12.5,-1.0,21.9,-13.210615117668093,-24.16953627078538,-2.899940518748175
20.30000000000001,35.8921,2.9103,248.9,-13.8,-0.5,22.2,-13.3125848186747,-24.403552842471036,-3.199939415044571
20.400000000000034,36.1511,2.45593,248.9,-16.6,-0.8,22.3,-13.419928666179121,-24.639792947159783,-3.2999382812304257
20.5,36.3984,2.31686,248.9,-15.7,-0.3,22.5,-13.522158244676945,-24.865477258721093,-3.4999371904906686
20.600000000000023,36.7065,2.35472,249.0,-14.0,-0.3,22.5,-13.673564681269555,-25.134481523211583,-3.4999358126775677
20.69999999999999,36.9516,2.69033,249.0,-13.8,-0.4,22.5,-13.773688779183685,-25.358859157623343,-3.499934708775271
20.80000000000001,37.1988,3.13805,249.0,-14.6,-0.4,22.3,-13.876041727278942,-25.58440444416843,-3.2999335860111367
20.900000000000034,37.4398,3.58211,249.0,-16.1,0.0,22.2,-13.97523371741696,-25.804634814759282,-3.199932483513627
21.0,37.7354,3.87388,249.0,-15.4,1.0,21.9,-14.112951635497854,-26.066577468310154,-2.8999311149871474
21.100000000000023,37.9982,4.13882,249.1,-15.4,1.5,21.5,-14.216215710476959,-26.309198124259098,-2.499929889973396
21.19999999999999,38.2835,4.2228,249.0,-15.9,1.8,21.2,-14.324140779099128,-26.574596384461845,-2.1999285478011217
21.30000000000001,38.5647,3.97859,249.3,-12.4,1.5,20.9,-14.428400445764964,-26.837321687996806,-1.8999272130930427
21.400000000000034,38.8915,3.72161,249.3,-11.5,1.5,20.6,-14.565206531493299,-27.134776066035187,-1.5999256422856298
21.5,39.1939,3.50705,249.4,-12.6,1.5,20.4,-14.67224174696942,-27.419755827277104,-1.399924179011892
21.600000000000023,39.5252,3.4335,249.5,-12.6,1.1,20.2,-14.784782918395834,-27.73443950271243,-1.1999225597221814
21.69999999999999,39.8484,3.40394,249.6,-11.2,0.5,20.1,-14.89203642723673,-28.042506161708303,-1.0999209620529733
21.80000000000001,40.2191,3.47875,249.8,-10.1,1.0,20.1,-15.010186557901438,-28.39836914108069,-1.0999191123030645
21.900000000000034,40.5497,3.6606,250.0,-9.8,1.0,20.2,-15.113662394691804,-28.716597644414243,-1.1999174429081938
22.0,40.8997,3.8822,250.1,-10.3,1.2,20.3,-15.223103656599633,-29.05345653182332,-1.2999156577885191
22.100000000000023,41.2323,4.18753,250.3,-10.4,0.6,20.5,-15.325355990901796,-29.374400467826693,-1.4999139440192524
22.19999999999999,41.5814,4.45261,250.4,-11.1,0.3,20.7,-15.431448488565369,-29.7117600610777,-1.6999121259996963
22.30000000000001,41.9361,4.71381,250.5,-10.8,0.0,21.0,-15.542963472184706,-30.05261407061007,-1.9999102591234061
22.400000000000034,42.2791,4.91564,250.6,-10.0,-0.1,21.4,-15.65612001299148,-30.379622823322904,-2.3999084336345744
22.5,42.609,5.0169,250.4,-9.6,-0.6,21.8,-15.768515205282275,-30.692373428581,-2.7999066588122368
22.600000000000023,42.961,4.67403,250.5,-10.5,-1.0,22.1,-15.892058010822545,-31.024231282507355,-3.099904746363997
22.69999999999999,43.3368,4.18504,250.4,-13.2,-0.3,22.5,-16.06119106448901,-31.360248126308854,-3.4999026808161666
22.80000000000001,43.6749,3.66644,250.5,-14.6,0.0,22.9,-16.18254966542258,-31.677634528156833,-3.8999008064672562
22.900000000000034,43.9925,3.27895,250.4,-12.9,-0.2,23.1,-16.29772561851349,-31.975274621596746,-4.099899027478161
23.0,44.3251,2.97172,250.4,-12.3,-0.5,23.3,-16.41954316308902,-32.28622978944604,-4.299897149793891
23.100000000000023,44.7053,2.90172,250.3,-14.3,-0.3,23.4,-16.591916096079828,-32.62562464931993,-4.3998949769309
23.19999999999999,45.0201,2.99073,250.3,-15.4,-0.2,23.4,-16.71092018897359,-32.91821959200334,-4.399893163329431
23.30000000000001,45.3131,3.27762,250.4,-14.1,-0.2,23.3,-16.823864679909267,-33.18944962224735,-4.299891460237263
23.400000000000034,45.614,3.69232,250.4,-12.8,-0.2,23.1,-16.943122560348776,-33.466445053385726,-4.099889697375935
23.5,45.9108,3.96808,250.5,-12.9,0.1,22.9,-17.09128329729634,-33.724798767780456,-3.899887942107399
23.600000000000023,46.2057,3.93913,250.6,-8.5,0.8,22.5,-17.198852340946374,-34.00069717166893,-3.4998861871228577
23.69999999999999,46.4908,3.87714,250.7,-6.7,1.5,22.3,-17.29839473470269,-34.26962023990191,-3.299884479818191
23.80000000000001,46.8013,3.82378,250.7,-10.4,1.0,22.0,-17.40039720503581,-34.56564247413675,-2.9998826052696552
23.900000000000034,47.1021,3.59408,250.6,-10.5,-0.3,21.8,-17.497510831960348,-34.85313092726648,-2.799880775541859
24.0,47.4413,3.44218,250.7,-9.8,-0.5,21.6,-17.595930374969008,-35.182641698641845,-2.599878695827096
24.100000000000023,47.7538,3.29321,250.8,-9.6,-0.2,21.4,-17.697733695196796,-35.48086006266595,-2.399876764988032
24.19999999999999,48.0885,3.27417,251.1,-8.4,0.2,21.4,-17.807371066775797,-35.79985588890976,-2.399874675616572
24.30000000000001,48.396,3.35316,251.3,-6.9,0.7,21.4,-17.906611885897192,-36.093733749640194,-2.3998727434201284
24.400000000000034,48.7333,3.45014,251.3,-7.1,0.5,21.5,-18.019069728206812,-36.41420791485656,-2.499870603911611
24.5,49.0281,3.73832,251.4,-8.2,0.2,21.7,-18.113716748065276,-36.69608545976527,-2.699868722243914
24.600000000000023,49.3463,4.01221,251.4,-9.3,-0.3,22.0,-18.21901923514899,-36.998770518674505,-2.9998666749918392
24.69999999999999,49.6451,4.23012,251.2,-9.9,-0.7,22.2,-18.319380340460985,-37.28230152620612,-3.1998647359299586
24.80000000000001,49.9976,4.09256,251.2,-10.8,-1.0,22.5,-18.46081379341623,-37.60576693714877,-3.4998624298550034
24.900000000000034,50.2859,3.8833,251.1,-11.8,-0.5,22.9,-18.56186758788608,-37.87729772834376,-3.8998605294423516
25.0,50.5854,3.4638,251.1,-13.0,-0.3,23.2,-18.671919151922925,-38.15693079645221,-4.199858543159368
25.100000000000023,50.8703,3.06253,250.9,-14.5,-0.8,23.4,-18.778656155266226,-38.42195379185877,-4.399856638816799
25.19999999999999,51.2254,2.82553,250.9,-13.4,-1.3,23.6,-18.953897207237983,-38.7323520455235,-4.599854242455173
25.30000000000001,51.5058,2.68365,250.9,-9.3,-1.1,23.7,-19.061399663837552,-38.992082069909515,-4.699852339953703
25.400000000000034,51.7931,2.57669,251.0,-9.7,-1.1,23.8,-19.172113833573636,-39.257898782291036,-4.79985037862601
25.5,52.0618,2.71483,251.1,-13.1,-1.5,23.8,-19.274615647782706,-39.50701282510603,-4.799848532205901
25.600000000000023,52.3394,3.00528,251.1,-14.6,-1.9,23.7,-19.377280356512752,-39.765882471097214,-4.699846612206227
25.69999999999999,52.6367,3.38911,251.1,-13.2,-1.2,23.6,-19.504458597440482,-40.03491700180703,-4.599844541102663
25.80000000000001,52.9254,3.67479,251.1,-11.9,-0.6,23.3,-19.614306089104907,-40.3027588218349,-4.299842517297767
25.900000000000034,53.2003,3.89574,251.1,-10.7,-0.3,23.1,-19.719448274522364,-40.5574618620271,-4.099840578605208
26.0,53.4865,3.79929,251.0,-9.2,0.0,22.8,-19.8294517742188,-40.822294702604424,-3.799838549925788
26.100000000000023,53.7946,3.63992,251.3,-5.9,0.7,22.5,-19.958105854998664,-41.10270315607668,-3.4998363473651555
26.19999999999999,54.07,3.50909,251.2,-9.5,0.9,22.3,-20.056635214149857,-41.36102604869589,-3.299834368380475
26.30000000000001,54.3395,3.20542,251.4,-9.6,-0.2,22.0,-20.152472654078693,-41.61415513885677,-2.999832421295901
26.400000000000034,54.6367,3.01499,251.2,-8.9,-0.2,21.9,-20.25886905066681,-41.89296481709897,-2.8998302604893063
26.5,54.9241,2.97556,251.4,-9.9,-0.1,21.8,-20.36184134727875,-42.16247268093929,-2.799828156343308
26.600000000000023,55.2272,3.07527,251.4,-8.7,0.2,21.8,-20.470447097029137,-42.446682353128125,-2.799825923995696
26.69999999999999,55.5178,3.27784,251.4,-7.7,0.4,21.8,-20.573447130087985,-42.71973823643804,-2.799823769954587
26.80000000000001,55.8262,3.52117,251.3,-7.3,0.5,22.0,-20.6809727815225,-43.01032994623646,-2.9998214707610433
26.900000000000034,56.1815,3.82694,251.2,-7.7,0.3,22.2,-20.82229889091995,-43.336899515534384,-3.1998188000359082
27.0,56.477,4.13415,250.9,-8.1,0.1,22.5,-20.928066633757638,-43.61404709139213,-3.499816564895111
27.100000000000023,56.7548,4.51139,250.6,-8.3,0.0,22.8,-21.029397539062646,-43.87374423406932,-3.7998144515125194
27.19999999999999,57.0421,4.70505,250.2,-8.6,-0.2,23.2,-21.13876606311711,-44.14012065775557,-4.199812251666842
27.30000000000001,57.3123,4.57856,249.9,-9.0,-1.2,23.5,-21.240661915428003,-44.391092647919535,-4.49981017293644
27.400000000000034,57.6465,4.2398,249.9,-10.6,-1.6,23.9,-21.388668043173766,-44.69117501359946,-4.899807583797875
27.5,57.9168,3.81682,250.0,-11.6,-1.1,24.3,-21.48938675023902,-44.94291910442212,-5.299805476548103
27.600000000000023,58.2018,3.26894,249.9,-12.9,-1.0,24.6,-21.597092027704974,-45.207515549825494,-5.5998032427814
27.69999999999999,58.4673,2.82424,249.8,-13.3,-1.4,24.9,-21.700662420966832,-45.452473570100494,-5.899801151060551
27.80000000000001,58.7985,2.52412,249.8,-11.1,-1.8,25.0,-21.872827225171687,-45.73799420719779,-5.999798520758304
27.900000000000034,59.0568,2.40642,249.8,-9.5,-1.8,25.1,-21.982785820343622,-45.972125485328476,-6.099796459400057
28.0,59.3269,2.47776,249.9,-9.3,-1.7,25.2,-22.096705931638276,-46.21734183545999,-6.199794294684141
28.100000000000023,59.5768,2.77813,249.8,-8.7,-1.7,25.1,-22.201763156115526,-46.444460927165544,-6.099792279720736
28.19999999999999,59.866,3.01603,249.8,-8.4,-1.6,25.0,-22.342633450380106,-46.6981911727342,-5.999789934952769
28.30000000000001,60.1055,3.09811,249.7,-6.6,-0.7,24.7,-22.44166815427614,-46.916522439762076,-5.69978798684158
28.400000000000034,60.3555,3.17916,249.8,-4.8,0.0,24.5,-22.543020564003264,-47.14545836537761,-5.499785939960944
28.5,60.5971,3.2757,249.9,-8.9,-0.2,24.3,-22.641951558713252,-47.36623798568648,-5.299783954448143
28.600000000000023,60.8871,3.30078,249.8,-8.7,-0.5,24.1,-22.766385591847104,-47.62852078204003,-5.09978155872729
28.69999999999999,61.1328,3.24705,249.9,-7.1,0.0,23.8,-22.86698055377614,-47.85309139753511,-4.799779517800976
28.80000000000001,61.3835,3.35077,249.9,-7.9,0.4,23.6,-22.965509808982077,-48.08410451497364,-4.599777426647371
28.900000000000034,61.6243,3.17991,249.8,-10.0,-0.6,23.4,-23.059814566148148,-48.30613653505073,-4.39977541007441
29.0,61.8722,2.73311,250.0,-3.6,-0.1,23.2,-23.15689902539669,-48.53468289304547,-4.199773323954577
29.100000000000023,62.0892,2.2396,250.3,2.5,1.8,23.1,-23.234022890210895,-48.73843651768328,-4.099771488491463
29.19999999999999,62.2934,1.99179,250.7,2.0,2.0,23.0,-23.315296232230214,-48.92606091080862,-3.9997697560356595
29.30000000000001,62.4757,2.04087,250.9,-5.0,0.4,23.0,-23.387161633265464,-49.09394448574034,-3.9997682047508487
29.400000000000034,62.6718,2.3144,251.0,-12.3,-0.8,23.1,-23.467181678761946,-49.273230857430306,-4.0997665279366995
29.5,62.8854,2.75184,251.0,-14.4,-1.2,23.2,-23.570066759296182,-49.46129603092523,-4.199764693391701
29.600000000000023,63.1213,3.1637,250.9,-13.1,-0.8,23.4,-23.668617744748964,-49.675938588278214,-4.399762659692492
29.69999999999999,63.3542,3.57931,250.7,-10.3,-0.9,23.6,-23.766431903829528,-49.887587464468155,-4.599760643351592
29.80000000000001,63.6022,3.90033,250.5,-8.6,-0.9,23.9,-23.870808569324936,-50.112853877477434,-4.899758489404723
29.900000000000034,63.8904,4.10914,250.5,-8.1,-1.2,24.2,-24.009891592221827,-50.366396332508636,-5.199755969980119
30.0,64.1233,3.67067,250.4,-10.3,-1.7,24.6,-24.112303823334663,-50.575874166730785,-5.5997539258140385
30.100000000000023,64.3389,3.13898,250.3,-14.7,-1.9,24.9,-24.209991336430924,-50.76847353369301,-5.8997520272629185
30.19999999999999,64.5585,2.61264,250.2,-13.3,-1.4,25.2,-24.313429064587496,-50.96285235980889,-6.199750083212562
30.30000000000001,64.8332,2.1537,250.0,-10.7,-1.2,25.4,-24.47864795516194,-51.1891761432836,-6.399747638258113
30.400000000000034,65.0582,1.90922,249.9,-12.0,-1.4,25.5,-24.594307762769475,-51.38368711698632,-6.499745628240721
30.5,65.2691,2.03849,249.8,-13.2,-1.2,25.6,-24.705607300622944,-51.56471884131966,-6.599743737279267
30.600000000000023,65.4877,2.37143,249.8,-11.4,-1.0,25.5,-24.82469917535625,-51.750594639707984,-6.49974176934032
30.69999999999999,65.6917,2.88781,249.8,-8.7,-0.8,25.4,-24.934492501651526,-51.924644570288194,-6.3997399264185795
30.80000000000001,65.9382,3.26813,249.8,-8.5,-0.4,25.2,-25.078246261488626,-52.129722824640794,-6.199737689522223
30.900000000000034,66.1399,3.48305,249.8,-8.3,0.0,24.9,-25.183609083627225,-52.30329377179218,-5.899735853821234
31.0,66.3541,3.36792,250.0,-4.8,0.2,24.6,-25.29707127948754,-52.486953163931176,-5.59973389447048
31.100000000000023,66.5518,2.96783,250.3,-4.1,1.5,24.3,-25.39937693567782,-52.65745401277137,-5.299732082472673
31.19999999999999,66.7637,2.46071,250.8,-1.0,1.0,24.0,-25.512524158197472,-52.83859700677465,-4.999730132313532
31.30000000000001,66.9282,1.99133,251.3,-0.1,0.9,23.8,-25.59430001730535,-52.982086624181434,-4.799728614786289
31.400000000000034,67.0912,1.6972,251.4,-3.6,1.0,23.7,-25.669378256418852,-53.12716933297064,-4.699727106755532
31.5,67.2522,1.71057,251.3,-10.4,0.1,23.6,-25.74106416327578,-53.27151505733079,-4.599725612832019
31.600000000000023,67.4604,2.01376,251.1,-14.5,-1.1,23.6,-25.823875016257492,-53.4629053396396,-4.599723676967951
31.69999999999999,67.6501,2.41489,250.8,-14.0,-1.8,23.7,-25.908087832942726,-53.633260476508475,-4.699721906921793
31.80000000000001,67.855,2.82169,250.4,-11.2,-1.5,23.8,-25.998958114164864,-53.817182714429514,-4.799719986835452
31.900000000000034,68.0552,3.24861,250.0,-8.8,-1.2,24.0,-26.089545656436616,-53.995973762850426,-4.999718105856111
32.0,68.2797,3.58967,249.8,-6.9,-1.1,24.3,-26.19716168145528,-54.193770352506675,-5.299715987728801
32.10000000000002,68.4748,4.00912,249.5,-6.4,-1.1,24.6,-26.288292918818655,-54.36666655614644,-5.599714141735992
32.19999999999999,68.675,4.20005,249.1,-7.1,-1.6,24.9,-26.383640008904365,-54.543301095872366,-5.899712240759738
32.30000000000001,68.8604,3.77977,249.0,-10.3,-3.0,25.3,-26.47465325637762,-54.705563732324826,-6.299710473586341
32.400000000000034,69.0489,3.14557,249.1,-14.4,-3.2,25.7,-26.570786801830714,-54.868914683542556,-6.699708670206045
32.5,69.2556,2.57485,248.9,-12.2,-1.8,26.0,-26.68949025373758,-55.04161638545635,-6.999706685883595
32.60000000000002,69.445,2.05812,248.9,-10.1,-1.4,26.2,-26.784611630455736,-55.20630593446587,-7.19970486432095
32.69999999999999,69.626,1.68915,248.8,-11.5,-1.8,26.4,-26.878600340475295,-55.362266441288135,-7.399703116445181
32.80000000000001,69.8204,1.6578,248.8,-13.1,-1.7,26.4,-26.984435361964785,-55.52747364927112,-7.399701232825201
32.900000000000034,70.0723,1.96819,248.7,-12.4,-0.7,26.4,-27.14235450002709,-55.73154185099408,-7.3996987825033145
33.0,70.267,2.17014,248.8,-10.1,-0.4,26.3,-27.25646191328852,-55.89305576364597,-7.299696881825879
33.10000000000002,70.455,2.15225,248.9,-7.6,0.0,26.2,-27.365001171743426,-56.049746909805954,-7.199695043572516
33.19999999999999,70.6502,1.82371,249.3,-4.6,0.4,26.0,-27.474588861105175,-56.213959580768645,-6.999693125077005
33.30000000000001,70.883,1.58723,249.8,-2.9,0.8,25.9,-27.631016637594303,-56.39741855137832,-6.899690829515915
33.400000000000034,71.0471,1.71057,250.2,-6.0,0.5,25.8,-27.72140663778601,-56.53621999008898,-6.799689207461725
33.5,71.2059,2.12375,250.3,-10.9,0.0,25.9,-27.805252680955526,-56.67233496009282,-6.899687634151455
33.60000000000002,71.3834,2.62566,250.3,-13.0,-0.2,26.0,-27.893531202598105,-56.8271452520418,-6.999685871837503
33.69999999999999,71.5761,3.07146,250.3,-12.2,0.1,26.2,-27.977958266833546,-57.00052951660489,-7.199683955365158
33.80000000000001,71.7723,3.51024,250.3,-10.1,0.6,26.4,-28.0730651603211,-57.1728294058353,-7.39968199534494
33.900000000000034,71.9588,3.83511,250.3,-8.6,0.5,26.7,-28.163352763698395,-57.3364851406093,-7.699680127088834
34.0,72.1515,3.46576,250.3,-9.9,0.5,27.0,-28.257570141306413,-57.50528822613521,-7.999678190819525
34.10000000000002,72.332,2.93401,250.2,-14.7,-0.7,27.3,-28.34677998060061,-57.66291842892629,-8.299676371583901
34.19999999999999,72.5477,2.32756,250.0,-14.1,-0.1,27.6,-28.466818413901706,-57.84477327918008,-8.599674189453678
34.30000000000001,72.7235,1.87158,250.2,-11.7,0.7,27.9,-28.558368855111624,-57.99598083294614,-8.899672407733382
34.400000000000034,72.9077,1.59721,250.3,-13.4,0.7,28.0,-28.658763311179563,-58.15224994398913,-8.999670533927592
34.5,73.0791,1.77317,250.2,-16.5,0.3,28.0,-28.751352674770878,-58.2981471110202,-8.999668785055825
34.60000000000002,73.2921,2.17098,250.2,-17.1,0.3,27.9,-28.887568039819726,-58.4691463287987,-8.899666604670484
34.69999999999999,73.4613,2.73102,250.3,-16.6,0.5,27.8,-28.976117329366765,-58.61448504901131,-8.799664867716011
34.80000000000001,73.6473,3.14036,250.3,-17.6,0.7,27.6,-29.071026003285287,-58.775333568210186,-8.599662956331906
34.900000000000034,73.8321,3.46557,250.4,-16.9,0.9,27.3,-29.161180867700196,-58.93729613343411,-8.299661048840672
35.0,74.0717,3.69348,250.5,-17.5,0.9,27.1,-29.273559497530112,-59.14939642200359,-8.099658570805842
35.10000000000002,74.2814,3.59078,250.6,-16.9,0.9,26.7,-29.36880513450258,-59.33649895394565,-7.699656395799854
35.19999999999999,74.5187,3.37662,251.0,-12.0,0.9,26.4,-29.47712922540004,-59.547956753696475,-7.399653925318097
35.30000000000001,74.7562,3.20809,251.2,-13.4,0.7,26.1,-29.580832869298618,-59.76185834103851,-7.099651443975855
35.400000000000034,75.0508,2.96224,251.4,-14.5,0.1,26.0,-29.71625296643423,-60.02405051672278,-6.999648352719618
35.5,75.3144,2.79888,251.7,-11.9,0.3,25.8,-29.8201215977286,-60.26697350065784,-6.799645578058502
35.60000000000002,75.5954,2.80586,251.9,-9.6,0.2,25.7,-29.92366692279287,-60.52931820507496,-6.699642609716042
35.69999999999999,75.8612,2.90866,252.1,-8.2,0.3,25.8,-30.024063663852665,-60.77633741893493,-6.799639789661688
35.80000000000001,76.1381,3.11708,252.3,-8.1,0.4,25.9,-30.13452469077357,-61.03095547970253,-6.899636837857226
35.900000000000034,76.429,3.36788,252.5,-8.6,0.2,26.0,-30.24689273901241,-61.30007616565421,-6.999633725262575
36.0,76.7005,3.68308,252.6,-9.0,0.0,26.3,-30.356089126145214,-61.549197556264616,-7.299630807748693
36.10000000000002,76.96,4.01995,252.5,-9.1,-0.2,26.5,-30.462713396463343,-61.78622104718056,-7.49962800743428
36.19999999999999,77.2359,4.31634,252.5,-9.1,-0.1,26.8,-30.579523776160052,-62.03652627335333,-7.79962501933913
36.30000000000001,77.5517,4.65138,252.4,-8.9,-0.2,27.1,-30.743777724433713,-62.30824587895204,-8.099621580900424
36.400000000000034,77.8157,4.61518,252.1,-8.6,-0.6,27.6,-30.85526947591125,-62.54791480168778,-8.599618696190403
36.5,78.0643,4.18278,252.1,-11.4,-1.4,28.0,-30.963212452950852,-62.77220189372732,-8.999615970761866
36.60000000000002,78.3218,3.58622,252.1,-15.3,-1.6,28.3,-31.078436608463907,-63.00279622341095,-9.29961313728439
36.69999999999999,78.6071,3.02005,251.8,-13.7,-1.1,28.7,-31.232846537349054,-63.24540476836219,-9.699609981081734
36.80000000000001,78.8517,2.52781,251.8,-11.8,-0.7,28.9,-31.34368106047826,-63.46380189229862,-9.899607268810316
36.900000000000034,79.0826,2.19585,251.7,-13.7,-0.6,29.1,-31.449901027855525,-63.66910924509123,-10.099604698789856
37.0,79.3259,2.09237,251.6,-15.0,-0.6,29.1,-31.56510936529645,-63.884029603599885,-10.099601980711725
37.10000000000002,79.643,2.32608,251.6,-13.0,-0.4,29.1,-31.746892898872083,-64.14861362805323,-10.099598422733983
37.19999999999999,79.8831,2.71244,251.6,-10.7,-0.2,29.0,-31.85780684515358,-64.36198266526945,-9.999595719878672
37.30000000000001,80.1063,3.1624,251.7,-9.5,0.0,28.9,-31.961034655310854,-64.56019225997147,-9.899593199287185
37.400000000000034,80.3357,3.50635,251.6,-10.9,0.7,28.6,-32.06725500082832,-64.76389846631865,-9.599590601179107
37.5,80.5518,3.63325,251.8,-9.5,1.2,28.3,-32.16554932952976,-64.95671428672627,-9.29958814630214
37.60000000000002,80.7848,3.31754,251.9,-5.8,2.1,28.0,-32.272367761856906,-65.16410911583876,-8.99958549136209
37.69999999999999,80.9964,3.165,252.2,-5.0,1.8,27.7,-32.3593176464682,-65.3573677742022,-8.699583073899579
37.80000000000001,81.2299,2.9789,252.1,-12.0,0.6,27.4,-32.45026651698919,-65.5730638629289,-8.39958039872423
37.900000000000034,81.4572,2.68419,252.5,-11.9,-0.2,27.2,-32.53799696116118,-65.78339979079409,-8.199577785529762
38.0,81.7028,2.53712,252.7,-9.8,0.3,27.1,-32.62830237888656,-66.01295137756762,-8.099574951383362
38.10000000000002,81.9301,2.47183,253.0,-8.2,0.9,27.0,-32.713218874425294,-66.2246629528299,-7.999572323121255
38.19999999999999,82.168,2.583,253.2,-7.0,0.6,27.1,-32.80034683045714,-66.44706838967244,-8.099569564104414
38.30000000000001,82.3885,2.84391,253.4,-7.1,0.3,27.1,-32.87954830923385,-66.65404605579144,-8.099566997182572
38.400000000000034,82.636,3.08952,253.6,-7.7,0.3,27.3,-32.96431882406342,-66.88824401943445,-8.299564108167315
38.5,82.8514,3.47816,253.6,-8.4,0.1,27.6,-33.04035782024774,-67.09103214063633,-8.599561584794486
38.60000000000002,83.0834,3.81393,253.6,-8.8,-0.1,27.8,-33.1276914930199,-67.30689379471619,-8.799558859274835
38.69999999999999,83.3077,4.14819,253.4,-8.7,0.0,28.1,-33.212352903290444,-67.51534864459367,-9.099556215995845
38.80000000000001,83.6158,3.84263,253.2,-9.3,-0.9,28.5,-33.350994285864644,-67.79094156522463,-9.499552569476087
38.900000000000034,83.8374,3.32073,253.2,-13.8,-1.5,28.9,-33.435913424484596,-67.99633510607342,-9.899549939272443
39.0,84.0612,2.74377,253.0,-14.7,-1.2,29.2,-33.52265534816593,-68.2031862940692,-10.19954727586896
39.10000000000002,84.2687,2.27175,253.0,-11.8,-0.9,29.4,-33.606342587801265,-68.39345653917849,-10.399544799022024
39.19999999999999,84.4806,1.91759,252.9,-12.8,-1.2,29.6,-33.697548463857174,-68.58499458082174,-10.599542260180831
39.30000000000001,84.7324,1.83871,252.8,-15.7,-1.2,29.7,-33.83985268726381,-68.7962276797145,-10.699539232071855
39.400000000000034,84.9477,2.10525,252.8,-15.8,-0.7,29.6,-33.93606456887065,-68.98907610848018,-10.59953663663236
39.5,85.1487,2.61159,252.8,-14.8,-0.6,29.6,-34.025894025920195,-69.16919475117585,-10.59953420796831
39.60000000000002,85.3568,3.09057,252.9,-15.4,-0.8,29.4,-34.11741564268854,-69.35636014907628,-10.399531687355088
39.69999999999999,85.6089,3.42386,252.8,-15.5,-0.1,29.2,-34.25340163385412,-69.57085094866892,-10.199528621960138
39.80000000000001,85.8305,3.69615,252.9,-15.2,0.2,28.8,-34.346060532480706,-69.77248622066483,-9.799525922002486
39.900000000000034,86.0486,3.89062,253.0,-15.5,0.2,28.5,-34.433616991853626,-69.97274023646624,-9.499523255465698
40.0,86.2868,3.76005,253.0,-14.2,0.3,28.2,-34.52352829169206,-70.19404938522071,-9.19952033835835
40.10000000000002,86.5432,3.2751,253.4,-9.2,1.0,27.9,-34.61683178036115,-70.43411494832034,-8.899517187385916
40.19999999999999,86.7857,2.89256,254.1,-5.2,1.5,27.6,-34.699848498010844,-70.66359557265102,-8.599514197569906
40.30000000000001,87.0104,2.55267,254.7,-5.4,1.0,27.4,-34.774379225480104,-70.87749780958586,-8.399511420756662
40.400000000000034,87.2447,2.38413,255.0,-8.0,0.0,27.4,-34.852580710158115,-71.10016189893192,-8.399508514864698
40.5,87.5078,2.44276,255.1,-10.6,-0.6,27.3,-34.944229479645365,-71.34845464535505,-8.299505241540396
40.60000000000002,87.7589,2.6617,255.2,-10.9,-0.5,27.4,-35.03051928718922,-71.58594327449075,-8.399502108948997
40.69999999999999,88.0007,2.96664,255.2,-10.3,-0.4,27.5,-35.115867161009184,-71.81350385088008,-8.499499082120888
40.80000000000001,88.2535,3.2745,255.1,-9.0,0.0,27.6,-35.20810079291948,-72.04998446348667,-8.599495907395317
40.900000000000034,88.4946,3.62624,255.0,-8.4,-0.4,27.8,-35.29536790042425,-72.27586607261169,-8.799492870480883
41.0,88.7831,3.73695,254.7,-8.1,-0.7,28.1,-35.41054266330866,-72.54096488895772,-9.09948922260008
41.10000000000002,89.0198,3.36656,254.6,-10.1,-1.5,28.5,-35.499761387906766,-72.76100655045492,-9.499486220045648
41.19999999999999,89.2636,2.84542,254.5,-14.7,-1.8,28.8,-35.599405075439115,-72.98395685880831,-9.79948311857956
41.30000000000001,89.4959,2.40622,254.3,-12.7,-1.3,29.0,-35.699525079524086,-73.19377045751855,-9.999480154711252
41.400000000000034,89.8224,2.06716,254.2,-9.5,-1.1,29.1,-35.89550530065928,-73.46227378652593,-10.099475965869411
41.5,90.0531,2.06796,254.1,-10.4,-1.5,29.2,-36.00075664113175,-73.66790124667668,-10.19947300230089
41.60000000000002,90.2848,2.31095,254.1,-12.3,-1.8,29.2,-36.1026699406136,-73.87626156986201,-10.199470017480982
41.69999999999999,90.5007,2.80672,254.1,-11.6,-1.4,29.1,-36.198006133102545,-74.07027080516357,-10.099467225292416
41.80000000000001,90.7626,3.1545,254.0,-10.5,-1.2,28.9,-36.32679972783848,-74.29922593176033,-9.899463830949141
41.900000000000034,90.9772,3.47979,254.3,-9.2,-0.9,28.7,-36.418841230592065,-74.49333326181221,-9.69946104233984
42.0,91.2041,3.67208,254.6,-9.0,-0.6,28.4,-36.50970887622657,-74.7017510815578,-9.399458086274876
42.10000000000002,91.421,3.51573,255.0,-8.1,-0.5,28.1,-36.59871570812624,-74.89982078324647,-9.099455252674323
42.19999999999999,91.6655,3.05104,255.4,-1.8,0.7,27.8,-36.701268604959395,-75.12219141567823,-8.799452048270087
42.30000000000001,91.8624,2.60026,255.9,-1.9,2.7,27.5,-36.781788911894125,-75.30212320862773,-8.499449463511382
42.400000000000034,92.0541,2.15853,256.4,-3.9,1.2,27.4,-36.852610115938944,-75.48104156518632,-8.399446940184202
42.5,92.2351,1.97112,256.9,-7.1,-1.3,27.2,-36.91890575508917,-75.65030556085964,-8.199444552326117
42.60000000000002,92.4351,2.10775,257.1,-12.7,-1.2,27.2,-36.99216337540003,-75.83720574793976,-8.199441909392972
42.69999999999999,92.6555,2.36683,257.1,-13.3,-1.1,27.1,-37.06759318676022,-76.04578612602364,-8.099438987446264
42.80000000000001,92.8972,2.6673,256.9,-11.7,-0.6,27.2,-37.165412377523765,-76.26723736389214,-8.199435775237236
42.900000000000034,93.1292,3.00511,256.5,-9.6,0.1,27.3,-37.258293378401476,-76.48031844561666,-8.29943268258934
43.0,93.3688,3.33803,256.2,-7.7,0.3,27.5,-37.35403557034635,-76.70038859665428,-8.499429479841812
43.10000000000002,93.6332,3.68337,255.9,-7.5,0.0,27.8,-37.477127933478904,-76.93497806756697,-8.799425932357408
43.19999999999999,93.8567,4.01477,255.6,-7.7,-0.3,28.1,-37.56023476941595,-77.1432273424684,-9.099422928935072
43.30000000000001,94.0655,4.33141,255.4,-8.0,-1.1,28.4,-37.64024410928644,-77.3367448781631,-9.399420114134418
43.400000000000034,94.2852,4.39023,255.1,-8.7,-2.0,28.8,-37.73137012932258,-77.53696137206481,-9.79941714550583
43.5,94.5472,3.97749,255.1,-10.8,-1.7,29.2,-37.87209242863986,-77.76037940908029,-10.199413591261154
43.60000000000002,94.7842,3.37747,255.2,-14.9,-1.3,29.6,-37.9805615420872,-77.97145588360343,-10.599410369682143
43.69999999999999,95.0092,2.80307,255.4,-15.3,-0.3,29.9,-38.08498187651106,-78.17122839610913,-10.899407302745756
43.80000000000001,95.2437,2.27178,256.1,-13.0,0.3,30.2,-38.19392431211433,-78.37936346797011,-11.199404096238077
43.900000000000034,95.5927,1.90031,257.0,-13.1,-0.1,30.3,-38.403311894561554,-78.66628758098179,-11.299399303717994
44.0,95.8077,1.76226,257.9,-14.8,-0.8,30.4,-38.49940337250462,-78.85893233865887,-11.399396346732798
44.10000000000002,96.0013,2.00997,259.1,-14.9,-0.5,30.4,-38.583566268764265,-79.03352958047475,-11.399393678383273
44.19999999999999,96.1886,2.44202,260.4,-13.2,-0.1,30.3,-38.660215726051035,-79.2047118121587,-11.299391090931088
44.30000000000001,96.3648,2.93782,261.7,-12.1,-0.4,30.2,-38.73038684622939,-79.36663795981949,-11.19938865195394
44.400000000000034,96.5354,3.24357,263.4,-12.6,-0.8,30.0,-38.789978664432304,-79.52756233345342,-10.999386285321334
44.5,96.7178,3.49797,265.5,-11.7,-0.5,29.6,-38.85591466195503,-79.6984505111067,-10.599383752005034
44.60000000000002,96.9197,3.68326,268.0,-12.6,-1.1,29.4,-38.92438296671067,-79.88986174284858,-10.39938094132653
44.69999999999999,97.1155,3.81562,270.8,-12.5,-1.3,29.1,-38.984303337128594,-80.07852233302825,-10.09937820985014
44.80000000000001,97.3347,3.92407,274.3,-12.7,-1.6,28.7,-39.023900510336354,-80.30293780387728,-9.699375148362012
44.900000000000034,97.5416,3.63863,277.7,-11.2,-1.9,28.4,-39.073871962753316,-80.50870511095613,-9.399372249518658
45.0,97.7624,3.11601,280.2,-4.7,-0.2,28.1,-39.12567238354773,-80.72906666667875,-9.09936914783527
45.10000000000002,97.9614,2.55227,280.5,-1.7,0.7,27.8,-39.168584665702056,-80.92937343186861,-8.799366347471555
45.19999999999999,98.1841,2.19882,280.3,-3.1,-1.4,27.7,-39.22923416427594,-81.14749229799853,-8.699363204663236
45.30000000000001,98.3598,1.86446,280.0,-2.0,-3.0,27.6,-39.26815448554393,-81.32383673012151,-8.599360720997327
45.400000000000034,98.5247,1.54116,280.0,3.8,-0.3,27.6,-39.30674900008431,-81.48831456768619,-8.599358384377425
45.5,98.6634,1.31472,280.0,5.4,0.6,27.5,-39.34017658087876,-81.62622205670829,-8.499356417013184
45.60000000000002,98.8152,1.12925,279.9,4.5,0.0,27.6,-39.38534850574368,-81.77305982085295,-8.599354257472873
45.69999999999999,98.9243,0.937953,280.0,4.4,0.2,27.6,-39.41427790813776,-81.88032137146195,-8.599352702709908
45.80000000000001,99.0287,0.773759,280.0,3.7,0.4,27.6,-39.446799092378804,-81.9805645713377,-8.599351213892328
45.900000000000034,99.1138,0.653444,280.0,2.4,0.0,27.6,-39.47616791826525,-82.06098979088364,-8.599350000018307
46.0,99.1889,0.542525,280.0,0.7,-0.8,27.6,-39.506048307904,-82.12998247141743,-8.599348927768643
46.10000000000002,99.3022,0.473108,280.1,-0.4,-1.1,27.6,-39.56726864481256,-82.22642269467259,-8.599347304517801
46.19999999999999,99.3611,0.411549,280.1,-1.7,-1.6,27.7,-39.59034484562686,-82.28078416443114,-8.699346460626423
46.30000000000001,99.4102,0.33832,280.3,-2.5,-2.2,27.7,-39.60952827504292,-82.3260715849537,-8.699345757282394
46.400000000000034,99.4569,0.296088,280.4,-3.2,-2.7,27.7,-39.62735071954066,-82.36937338222423,-8.699345087245492
46.5,99.5395,0.272228,280.5,-3.9,-3.1,27.7,-39.66657013726789,-82.44236027799897,-8.699343901024495
