time,distance(meters),speed(m/s), compass_heading(degrees), pitch(degrees), roll(degrees),height_above_takeoff(meters),North,East,Down
0.0,96.7215,1.11211,250.5,-3.5,-27.9,10.6,0.0,0.0,0.0
0.09999999999999432,96.679,1.52646,250.7,-3.6,-28.4,10.6,-0.10033687038711361,0.08117307899475505,1.959818932140145e-09
0.19999999999998863,96.6242,1.87677,250.8,-3.8,-28.3,10.6,-0.23586560109127505,0.18835759208516648,6.847964903466952e-09
0.29999999999999716,96.5604,2.25488,250.7,-3.8,-27.1,10.6,-0.3955510019616346,0.31423736124125873,2.0508592102341794e-08
0.3999999999999915,96.482,2.54371,250.6,-3.7,-26.4,10.6,-0.588789900406884,0.4683585481654029,4.478038939659257e-08
0.5,96.3995,2.87101,250.5,-3.6,-26.3,10.6,-0.7978693216266215,0.6333318407433682,8.201489853920663e-08
0.5999999999999943,96.3065,3.09816,250.5,-4.0,-25.6,10.6,-1.030533290911249,0.8190318158574558,1.349778013248759e-07
0.6999999999999886,96.2103,3.33357,250.4,-4.4,-22.2,10.6,-1.2838286524941531,1.0168745398926877,2.1107449688084756e-07
0.7999999999999972,96.0981,3.41085,249.6,-1.9,-12.7,10.6,-1.5603415749073315,1.2416604225198808,3.132323346255461e-07
0.8999999999999915,95.9779,3.27082,249.4,1.8,2.6,10.6,-1.8110045521968232,1.4663546702101482,4.271559151947102e-07
1.0,95.8276,3.0006,250.0,3.2,15.9,10.6,-2.0514384943882944,1.7205886318922616,5.638252801309918e-07
1.0999999999999943,95.6821,2.7287,249.6,2.7,19.1,10.6,-2.2379446964940763,1.9495824951247802,6.919973980501481e-07
1.1999999999999886,95.5173,2.41071,250.5,3.9,22.9,10.7,-2.3908540864648953,2.1869923079041627,-0.09999917415800019
1.2999999999999972,95.3539,2.17661,250.5,3.7,25.1,10.7,-2.4914336162429915,2.402606238873635,-0.09999905829347622
1.3999999999999915,95.1817,2.07414,250.7,3.4,27.0,10.6,-2.544829591644209,2.609292526456729,1.042608383405863e-06
1.5,95.0273,2.04914,251.1,3.8,27.8,10.6,-2.584956769869278,2.791685719949503,1.1365194561019365e-06
1.5999999999999943,94.8119,2.14076,250.9,3.6,24.8,10.6,-2.5593957186022442,3.0137146565125095,1.2268015956440337e-06
1.6999999999999886,94.5948,2.31884,250.8,3.6,20.4,10.6,-2.4895175751434553,3.2198740040849105,1.2992248601406686e-06
1.7999999999999972,94.3553,2.50905,250.5,2.9,15.4,10.6,-2.3720976008171393,3.431287538333221,1.3650239434337408e-06
1.8999999999999915,94.1141,2.68269,249.8,1.3,9.0,10.6,-2.2892800150066925,3.6582422790490403,1.4596684856371667e-06
2.0,93.8494,2.80533,249.2,-2.1,2.5,10.6,-2.1183801766862373,3.8754675069212263,1.5297284202686612e-06
2.0999999999999943,93.5889,2.82053,249.1,-6.8,-1.8,10.6,-1.9421693238285118,4.086079130283606,1.604934082521936e-06
2.1999999999999886,93.3087,2.74635,249.7,-9.7,-7.2,10.5,-1.7497104779159418,4.311643808469116,0.10000169749016852
2.299999999999997,93.0349,2.63718,250.6,-10.0,-16.6,10.5,-1.5664953419117895,4.5340010328999165,0.10000180400114822
2.3999999999999915,92.7411,2.48978,251.2,-9.6,-23.7,10.5,-1.3870828422952293,4.779421818756278,0.10000194162827791
2.5,92.4852,2.38026,251.6,-9.4,-26.4,10.5,-1.257295544882802,5.003703569358115,0.10000208636159136
2.5999999999999943,92.2468,2.34873,251.7,-8.9,-27.4,10.5,-1.169288295603832,5.225701880795127,0.1000022481983015
2.6999999999999886,92.0424,2.35265,251.9,-8.9,-28.1,10.5,-1.0362733834733282,5.39334039231634,0.1000023629961615
2.799999999999997,91.8101,2.38094,251.9,-8.8,-28.5,10.5,-1.0109925458543536,5.633361921269321,0.10000256633328702
2.8999999999999915,91.6029,2.5063,251.8,-8.5,-28.2,10.5,-1.0324762310944215,5.864853007174234,0.10000277824760323
3.0,91.4028,2.7046,251.7,-8.3,-28.1,10.5,-1.1056655949821055,6.109265842844776,0.10000302016342877
3.0999999999999943,91.2121,2.91163,251.6,-8.4,-27.3,10.5,-1.2103366326425862,6.356512003152442,0.10000328032565908
3.1999999999999886,91.0331,3.11932,251.5,-8.5,-25.6,10.5,-1.3760581399096188,6.616015513228502,0.10000357781803626
3.299999999999997,90.8385,3.31252,251.2,-8.2,-23.7,10.5,-1.5388236126762986,6.891946090689067,0.10000390670885262
3.3999999999999915,90.6348,3.43999,251.0,-8.3,-19.8,10.5,-1.729782442708883,7.190054392809063,0.10000428469893796
3.5,90.444,3.50032,250.5,-8.0,-13.8,10.5,-1.9206488144701284,7.475218087649755,0.10000466711700984
3.5999999999999943,90.2336,3.45326,250.0,-7.5,-7.5,10.5,-2.1167596855267243,7.784636731240665,0.10000509907167632
3.6999999999999886,90.0494,3.30415,249.3,-6.2,2.4,10.6,-2.293195653315949,8.058589522330543,5.500729368668189e-06
3.799999999999997,89.859,3.04235,248.9,-4.3,13.5,10.6,-2.442946542013886,8.328723709607289,5.901575684585936e-06
3.8999999999999915,89.6706,2.70553,249.0,-3.1,21.5,10.6,-2.55651156451685,8.581980219899277,6.282147317238085e-06
4.0,89.4485,2.47246,248.6,-2.9,24.4,10.6,-2.651175988134635,8.86433347449364,6.70633937738252e-06
4.099999999999994,89.2444,2.24221,248.8,-2.4,26.7,10.6,-2.696723803061663,9.106417087212364,7.066623371132508e-06
4.199999999999989,89.0257,2.10211,249.2,-1.7,27.2,10.6,-2.698061441909423,9.345400052331957,7.413677036050004e-06
4.299999999999997,88.8149,2.12597,249.8,-0.6,26.1,10.6,-2.6525045346132785,9.555660417861631,7.704524543239444e-06
4.3999999999999915,88.5998,2.17541,250.3,0.4,23.8,10.6,-2.6135704835927043,9.773534821501004,8.01872946598614e-06
4.5,88.3884,2.38694,250.0,0.2,21.1,10.6,-2.4812345254206436,9.946893371572013,8.233463961726528e-06
4.599999999999994,88.1687,2.6063,249.6,-0.1,16.3,10.6,-2.3043069910382963,10.11010236626799,8.422408173558438e-06
4.699999999999989,87.9526,2.7279,248.8,-3.2,9.6,10.6,-2.107259501693613,10.260786744702774,8.594185714083658e-06
4.799999999999997,87.7218,2.70539,248.5,-8.7,2.0,10.6,-1.8800248359289582,10.41481606618829,8.773198444167463e-06
4.8999999999999915,87.5436,2.57983,249.5,-11.2,-6.9,10.6,-1.6719161840367665,10.520068228685291,8.888535803053266e-06
5.0,87.3248,2.37333,250.4,-10.2,-17.6,10.5,-1.4626891948176122,10.669240298057606,0.10000908457886726
5.099999999999994,87.1257,2.16673,250.8,-9.1,-25.3,10.5,-1.2960889287094002,10.815205050365124,0.10000929331398234
5.199999999999989,86.9259,2.03595,251.1,-8.1,-26.6,10.5,-1.1644117901334479,10.976695750476242,0.10000954462616529
5.299999999999997,86.7412,1.97233,251.3,-8.0,-27.1,10.5,-1.0580673836485386,11.132611505664162,0.10000979517745412
5.3999999999999915,86.5267,2.002,251.4,-7.7,-28.3,10.5,-0.9813783972851181,11.333409611994895,0.10001013592829622
5.5,86.3265,2.09387,251.3,-7.4,-29.1,10.5,-0.94608804316181,11.536086452933272,0.10001049363081943
5.599999999999994,86.1223,2.18232,251.4,-7.7,-29.6,10.5,-0.9522309748039547,11.760635553048848,0.10001090405376084
5.699999999999989,85.8979,2.34969,251.7,-8.2,-29.5,10.5,-0.9347228829252051,11.997228080126927,0.100011342437472
5.799999999999997,85.7258,2.56357,251.8,-8.4,-28.6,10.5,-1.0331176827097095,12.22628309692342,0.100011790856598
5.8999999999999915,85.5705,2.73455,251.4,-8.1,-23.9,10.5,-1.1586598423807826,12.449175130975968,0.10001224377823614
6.0,85.4147,2.79217,250.7,-7.8,-15.2,10.5,-1.3113522304238572,12.684912550020345,0.10001273690658219
6.099999999999994,85.261,2.65687,249.6,-7.1,-0.2,10.5,-1.4508249041421948,12.91321920359342,0.10001322618004416
6.199999999999989,85.089,2.40962,249.1,-4.8,14.5,10.6,-1.5747200025111205,13.155379473126679,1.3748902703003552e-05
6.299999999999997,84.9216,2.11504,248.9,-3.7,21.8,10.6,-1.6592160290383597,13.375629103128704,1.4228771338054003e-05
6.3999999999999915,84.7413,1.86274,248.3,-4.0,22.9,10.6,-1.710407071155645,13.595703027812956,1.4706569914646472e-05
6.5,84.5707,1.73726,248.8,-2.7,25.3,10.6,-1.721329319374277,13.787329286273652,1.5120565336812497e-05
6.599999999999994,84.3827,1.75298,249.6,-0.8,25.4,10.6,-1.7340979598111297,13.999101812429572,1.5585593768796535e-05
6.699999999999989,84.2103,1.9093,249.6,-0.4,25.0,10.6,-1.6619282426105455,14.155850010144256,1.59107027928318e-05
6.799999999999997,84.0276,2.16539,248.9,-1.8,24.5,10.6,-1.539436963369059,14.30160094253992,1.620475160757362e-05
6.8999999999999915,83.8477,2.47348,248.2,-2.9,23.5,10.6,-1.3739000320532186,14.42518939468552,1.6444424764006094e-05
7.0,83.7108,2.73897,247.2,-5.4,23.0,10.6,-1.1723246724432514,14.48587226752542,1.654203500389695e-05
7.099999999999994,83.5236,3.01251,247.2,-7.0,19.9,10.5,-0.9181102666112749,14.578859105957878,0.10001671325860867
7.199999999999989,83.3209,3.07663,248.2,-9.4,7.4,10.5,-0.6277330917371836,14.673564428836798,0.1000168935236318
7.299999999999997,83.1347,2.98252,249.4,-12.8,-8.5,10.5,-0.34846339936399445,14.755760446004253,0.10001706196538834
7.3999999999999915,82.9298,2.6521,250.7,-12.2,-17.9,10.5,-0.06542568150945767,14.857262657875896,0.10001728824206813
7.5,82.7651,2.33538,251.1,-10.2,-24.2,10.5,0.16808504036692412,14.936854535720219,0.10001747682564228
7.599999999999994,82.6026,1.98375,251.1,-8.9,-26.8,10.5,0.3769594530722229,15.024877639976236,0.10001769123879722
7.699999999999989,82.452,1.73329,251.1,-8.2,-27.7,10.5,0.5337352223890506,15.122317159463323,0.10001793243771262
7.799999999999997,82.2975,1.66716,251.3,-8.2,-27.7,10.5,0.6895141053977902,15.224598515166942,0.10001819099001524
7.8999999999999915,82.1531,1.5228,251.4,-8.5,-28.4,10.5,0.7723491320934803,15.34658327935054,0.10001849233802262
8.0,82.0061,1.47498,251.6,-8.7,-28.9,10.5,0.8239307625941896,15.484605684207157,0.10001883181439075
8.099999999999994,81.8686,1.59132,251.7,-8.7,-29.2,10.5,0.8330244262438807,15.630165814570052,0.10001918741402199
8.199999999999989,81.7265,1.78432,251.8,-8.8,-29.3,10.5,0.798228685109675,15.799232526997123,0.10001959942318711
8.299999999999997,81.6026,2.03222,251.9,-9.0,-29.2,10.5,0.7377448096001703,15.959470974597554,0.10001999095029684
8.399999999999991,81.4792,2.34196,252.0,-9.1,-29.4,10.5,0.6054815767020866,16.1500358461409,0.10002045588686301
8.5,81.358,2.64178,252.1,-9.7,-28.9,10.5,0.4469841041488269,16.3500705725333,0.10002095150966314
8.599999999999994,81.2224,2.87679,251.9,-10.3,-24.4,10.5,0.2570945815239747,16.58003454965516,0.10002153403347924
8.699999999999989,81.0756,3.00881,251.2,-9.6,-17.4,10.5,0.041080649616836114,16.834642992527666,0.10002219676935054
8.799999999999997,80.9455,3.01616,250.4,-8.8,-11.3,10.6,-0.17581462014101046,17.072587904548204,2.2829984125158354e-05
8.899999999999991,80.8255,2.90087,249.4,-8.9,-3.0,10.6,-0.37417920655793674,17.292249684975136,2.3429153035964267e-05
9.0,80.7044,2.65921,248.7,-7.8,11.1,10.6,-0.5548857391883791,17.50629828780703,2.4025654300097177e-05
9.099999999999994,80.5614,2.25862,248.3,-7.2,21.3,10.6,-0.6767349530988,17.71850628895107,2.462315718632091e-05
9.199999999999989,80.4268,1.8812,247.8,-7.0,23.8,10.6,-0.7992227726649749,17.92235948169748,2.5205566399622015e-05
9.299999999999997,80.2997,1.54595,248.4,-5.0,25.2,10.6,-0.8710278639330435,18.09515312698402,2.5703276166966216e-05
9.399999999999991,80.1667,1.34528,249.0,-3.3,26.5,10.6,-0.8940804325779124,18.252229851778488,2.6152871054341276e-05
9.5,80.0392,1.34458,249.1,-2.7,26.0,10.6,-0.929612981662878,18.409115684692296,2.6609269867861052e-05
9.599999999999994,79.9064,1.48801,249.0,-2.3,25.2,10.6,-0.8656438223509252,18.526006645952418,2.6938362143347216e-05
9.699999999999989,79.7721,1.75634,248.8,-2.0,24.2,10.6,-0.7569039625781275,18.6240266247176,2.7209540129247145e-05
9.799999999999997,79.6284,2.06415,248.2,-3.0,24.1,10.6,-0.5919565185496014,18.7065664166345,2.7432791750603425e-05
9.899999999999991,79.4818,2.43898,247.7,-4.2,23.3,10.6,-0.39208018506770054,18.77646699244217,2.762282791585191e-05
10.0,79.3425,2.83568,247.5,-5.1,22.7,10.5,-0.1669433953879782,18.82735122773178,0.10002776444446612
10.099999999999994,79.1769,3.19994,247.6,-5.8,21.2,10.5,0.1167039646774943,18.881152965895563,0.10002792239796002
10.199999999999989,78.9992,3.46087,248.0,-6.2,16.6,10.5,0.4538744987533172,18.92515638559802,0.10002806637278697
10.299999999999997,78.833,3.56513,248.7,-6.6,5.6,10.5,0.7941137222932051,18.956383204022945,0.10002819267680357
10.399999999999991,78.6697,3.40198,249.5,-7.7,-5.7,10.5,1.1588881254943262,18.974947916337143,0.10002830331012968
10.5,78.5153,3.15932,250.6,-7.8,-16.2,10.5,1.4807006613637763,19.003898942618765,0.10002845715396824
10.599999999999994,78.3602,2.79989,251.1,-7.0,-23.8,10.5,1.780252091291884,19.04419088237237,0.10002865399498528
10.699999999999989,78.2118,2.42393,251.1,-6.2,-26.9,10.5,2.0275922146090046,19.10042121881999,0.10002889584871522
10.799999999999997,78.0479,2.17782,251.0,-6.1,-26.8,10.5,2.259216103026911,19.180547565232636,0.10002921380303509
10.899999999999991,77.8965,1.87587,250.8,-5.9,-27.5,10.5,2.4392007925469548,19.269311400040834,0.1000295476771007
11.0,77.7414,1.70678,250.7,-5.6,-28.4,10.5,2.5959390502758657,19.372043241188308,0.10002992031676694
11.099999999999994,77.5923,1.57621,250.6,-5.4,-29.1,10.5,2.7149513210285026,19.484145683953813,0.10003031099071258
11.199999999999989,77.4369,1.56373,250.8,-5.7,-29.4,10.5,2.8825340684344054,19.582967380072734,0.10003068781975744
11.299999999999997,77.2827,1.65128,251.0,-6.1,-29.4,10.5,2.926285093288404,19.73196403038112,0.10003116756167518
11.399999999999991,77.1167,1.7965,251.2,-6.3,-29.4,10.5,2.919425661347516,19.91486117145343,0.10003173143639144
11.5,76.9602,2.04768,251.2,-6.2,-29.6,10.5,2.876050947029584,20.102798760794304,0.1000323003549346
11.599999999999994,76.7974,2.33774,250.9,-5.5,-28.8,10.5,2.792627076828966,20.314586610260267,0.1000329333246901
11.699999999999989,76.6325,2.55262,250.6,-5.1,-23.1,10.6,2.68576322091666,20.538868865505446,3.360571700694592e-05
11.799999999999997,76.4575,2.67442,249.9,-3.8,-12.4,10.6,2.5513272515718812,20.78654281967717,3.43509459668212e-05
11.899999999999991,76.2833,2.6292,249.4,-1.6,0.4,10.6,2.429822032766359,21.028351583526423,3.5095935454476646e-05
12.0,76.0894,2.50194,249.4,-0.2,13.5,10.6,2.3285466038429243,21.283563148313217,3.5903526334424285e-05
12.099999999999994,75.8707,2.34926,249.6,0.4,21.2,10.6,2.2585593134402444,21.55276551814189,3.6780890964038804e-05
12.199999999999989,75.6516,2.27628,249.6,1.0,23.6,10.7,2.2400869728819965,21.800325035888196,-0.09996238554210746
12.299999999999997,75.4319,2.32033,249.9,1.9,24.3,10.7,2.2683964288772067,22.02803569664584,-0.09996159240044133
12.399999999999991,75.1892,2.45305,249.9,2.6,23.3,10.6,2.3475417845375954,22.258686108629004,3.9234015650535525e-05
12.5,74.9442,2.65281,249.6,2.2,22.0,10.6,2.4363036157580975,22.487687262906455,4.007024830632311e-05
12.599999999999994,74.671,2.88385,249.3,1.1,21.5,10.6,2.6016964123533723,22.713732749697918,4.09362446849304e-05
12.699999999999989,74.3988,3.15482,248.9,-0.3,21.3,10.6,2.8008651604078065,22.924114772100374,4.177425431928228e-05
12.799999999999997,74.1013,3.38456,248.8,-1.1,20.9,10.6,3.0546464908605695,23.138467875381252,4.266451771073321e-05
12.899999999999991,73.8501,3.66816,248.6,-1.3,20.9,10.6,3.2996897090975006,23.306441830729092,4.3396853338206753e-05
13.0,73.5589,3.96875,248.6,-1.5,20.6,10.6,3.6404522971326383,23.47729468641991,4.420923759052009e-05
13.099999999999994,73.2682,4.26502,248.7,-1.5,19.8,10.6,4.002869176918958,23.639426088150138,4.502582816234835e-05
13.199999999999989,72.9388,4.44662,249.1,-1.3,13.5,10.6,4.4179280019104,23.822467299536896,4.598171431124953e-05
13.299999999999997,72.6244,4.49478,249.3,-3.0,1.3,10.6,4.825002960098745,23.994121827670334,4.691949924184868e-05
13.399999999999991,72.2839,4.35872,249.8,-6.3,-8.5,10.6,5.267787064878016,24.180943230075634,4.797546250623341e-05
13.5,71.9823,4.11845,250.7,-7.8,-17.9,10.6,5.647974738040613,24.3526054364576,4.8955687479868004e-05
13.599999999999994,71.6762,3.77638,251.1,-7.6,-24.8,10.5,6.0108105811062025,24.53738755212173,0.10004999598947739
13.699999999999989,71.3897,3.46929,251.1,-7.0,-26.5,10.5,6.321935058223046,24.722521462020126,0.10005101195892907
13.799999999999997,71.0989,3.2831,251.2,-6.9,-26.7,10.5,6.663477868657957,24.90115625154876,0.10005205675407636
13.899999999999991,70.8219,3.02997,251.3,-7.1,-27.6,10.5,6.896661037448111,25.107895233978446,0.10005311415062002
14.0,70.5359,2.87713,251.1,-6.9,-28.3,10.5,7.089383299526404,25.340324978476346,0.10005424426873111
14.099999999999994,70.2658,2.77581,251.1,-6.9,-29.0,10.5,7.233010616157624,25.574862630344334,0.10005534143565376
14.199999999999989,69.9851,2.74036,251.1,-7.0,-29.5,10.5,7.358069703552058,25.82782826404869,0.10005650366835894
14.299999999999997,69.7188,2.78987,251.2,-6.8,-29.5,10.5,7.415938049234376,26.091348308683354,0.10005764236571757
14.399999999999991,69.4409,2.88884,251.3,-7.2,-29.4,10.5,7.428602296371219,26.38489692210564,0.10005886277237686
14.5,69.1805,3.05098,251.6,-7.6,-29.2,10.5,7.399760987492489,26.675902538774544,0.1000600396204887
14.599999999999994,68.8993,3.23596,251.4,-7.7,-27.9,10.5,7.328699097334369,27.006169772915243,0.10006134511560827
14.699999999999989,68.6448,3.35182,250.9,-8.0,-20.4,10.5,7.233688536146036,27.317799128890567,0.10006256222470444
14.799999999999997,68.3773,3.32734,249.9,-8.0,-6.2,10.6,7.123934211588062,27.649899786508776,6.386673358660389e-05
14.899999999999991,68.1273,3.14061,249.0,-6.8,10.0,10.6,7.03259338982641,27.95648113551125,6.510138339788085e-05
15.0,67.8684,2.93136,249.0,-4.7,20.9,10.6,6.96941415999452,28.261928315285143,6.637509792550844e-05
15.099999999999994,67.6047,2.76316,248.8,-4.1,24.1,10.6,6.945756781542223,28.55677914857403,6.766227584931173e-05
15.199999999999989,67.3304,2.6588,248.4,-4.2,24.1,10.7,6.978841667074714,28.840071751218275,-0.0999310271705327
15.299999999999997,67.0679,2.66432,248.4,-4.1,24.2,10.7,7.047668693855858,29.095951013385093,-0.09992979103366695
15.399999999999991,66.7931,2.73019,248.3,-4.4,24.1,10.6,7.157644295394086,29.348278512573934,7.148750590779684e-05
15.5,66.5166,2.85403,248.2,-5.0,24.0,10.6,7.266302386059731,29.602920454537276,7.278555720535707e-05
15.599999999999994,66.2437,3.04187,248.0,-5.3,23.3,10.6,7.466170570431907,29.81634174411157,7.40100414304834e-05
15.699999999999989,65.981,3.27071,247.7,-5.7,22.6,10.6,7.697497256820308,30.006034953141658,7.51754833352436e-05
15.799999999999997,65.7023,3.40674,247.7,-5.8,21.6,10.6,7.982637533088085,30.19168805366538,7.640185795754206e-05
15.899999999999991,65.4606,3.54402,248.1,-6.4,15.5,10.6,8.25469092947069,30.343253715051677,7.74684709834439e-05
16.0,65.2241,3.59305,248.7,-7.9,3.0,10.6,8.582222223428454,30.467952451031685,7.849543716709206e-05
16.099999999999994,64.9939,3.48356,249.6,-9.5,-7.8,10.6,8.899653079718473,30.590940535171217,7.951982208265207e-05
16.19999999999999,64.7404,3.22243,250.6,-9.5,-17.7,10.6,9.223662087765508,30.737366345741588,8.068640954572714e-05
16.299999999999997,64.5724,2.92769,251.1,-8.9,-24.5,10.6,9.476920166942246,30.820317973163206,8.145867968689657e-05
16.39999999999999,64.3533,2.66749,251.2,-8.4,-26.8,10.6,9.693104057407453,30.972742918479057,8.252198661828913e-05
16.5,64.1351,2.43334,251.5,-8.7,-27.2,10.6,9.877853969826528,31.136405715439963,8.360368677529095e-05
16.599999999999994,63.8905,2.301,251.8,-9.1,-27.3,10.6,10.057847764428878,31.3304138798246,8.483432443462391e-05
16.69999999999999,63.6671,2.19486,251.7,-8.7,-27.9,10.5,10.180516997205066,31.52325710609653,0.10008597963051091
16.799999999999997,63.3946,2.13473,251.7,-8.6,-28.3,10.5,10.341299735178724,31.7545030188019,0.1000873852309283
16.89999999999999,63.1897,2.19047,251.6,-8.5,-29.2,10.5,10.369571796091392,31.96301037715469,0.10008847152034672
17.0,62.9851,2.32092,251.6,-8.4,-29.6,10.5,10.347314295787875,32.190243674274626,0.10008957687107944
17.099999999999994,62.7901,2.51118,251.7,-8.5,-29.3,10.6,10.2888855521004,32.420956215097775,9.06493646635198e-05
17.19999999999999,62.5775,2.69306,251.8,-9.2,-26.0,10.6,10.19114437340373,32.68599640859945,9.184363452341415e-05
17.299999999999997,62.3885,2.78275,251.2,-9.9,-17.3,10.6,10.077711422670927,32.93228035854649,9.292708668251493e-05
17.39999999999999,62.198,2.79618,250.5,-8.8,-9.1,10.6,9.94526236160477,33.18831673511921,9.404452483519066e-05
17.5,62.0134,2.74995,250.0,-7.6,-5.2,10.6,9.822415262078273,33.434898560326566,9.51401444551081e-05
17.599999999999994,61.7892,2.63835,249.4,-6.7,-1.0,10.6,9.712204309607593,33.7199476017569,9.647078931163122e-05
17.69999999999999,61.5969,2.45474,248.8,-6.0,8.2,10.7,9.617286350393915,33.965174318650895,-0.0999023735487592
17.799999999999997,61.3958,2.25435,248.4,-5.9,19.1,10.7,9.548002924461937,34.210106403975516,-0.09990117156386535
17.89999999999999,61.2111,2.00472,248.5,-5.3,24.5,10.7,9.522774958950274,34.419870236165025,-0.09990008171327958
18.0,61.0234,1.87005,248.3,-5.2,24.9,10.7,9.5300154264118,34.61977467438636,-0.0998989898924334
18.099999999999994,60.8462,1.90271,248.7,-3.5,24.2,10.7,9.587652507996312,34.787897827109234,-0.099897988283014
18.19999999999999,60.656,2.01725,248.5,-3.3,23.9,10.7,9.6913042632817,34.95137373778992,-0.09989693798941524
18.299999999999997,60.4737,2.24877,248.0,-4.3,24.3,10.7,9.829702833513783,35.092244182171896,-0.09989595321342382
18.39999999999999,60.2835,2.50402,247.6,-5.3,23.7,10.6,10.014321057653396,35.22302933445435,0.00010505446077413438
18.5,60.1285,2.80699,247.5,-5.9,23.3,10.6,10.175649549228726,35.32547827118562,0.00010587746887846805
18.599999999999994,59.9339,3.14127,247.7,-5.7,22.3,10.6,10.457189222590934,35.42310785337825,0.00010687582987412014
18.69999999999999,59.7513,3.47481,247.8,-6.0,20.9,10.6,10.763392624696028,35.49902553782083,0.00010780888926209542
18.799999999999997,59.5625,3.6561,248.4,-5.7,15.9,10.6,11.120311970640099,35.56334634743134,0.0001087804258155245
18.89999999999999,59.3977,3.68266,248.8,-6.1,2.8,10.6,11.461002083346976,35.609808244542464,0.00010964507266120194
19.0,59.2228,3.51477,249.8,-6.4,-10.2,10.6,11.81641738737261,35.663162410024505,0.00011059418974035395
19.099999999999994,59.0529,3.24931,250.4,-5.2,-20.4,10.6,12.134460683383121,35.726738753528664,0.00011154883770636559
19.19999999999999,58.8639,2.90919,250.3,-3.6,-26.6,10.6,12.437989848309599,35.81738043007789,0.00011264315406567249
19.299999999999997,58.6829,2.61933,250.1,-2.6,-27.7,10.6,12.68065061237725,35.92246377673966,0.00011371313152874762
19.39999999999999,58.467,2.50736,250.1,-2.9,-27.2,10.6,12.91598941128141,36.06791978736247,0.000115007460202321
19.5,58.2569,2.34708,250.2,-3.6,-28.2,10.6,13.10113091353045,36.22557598306412,0.00011627865731878018
19.599999999999994,58.0315,2.20047,250.2,-4.1,-28.8,10.6,13.254972882889398,36.410618332472175,0.000117650038817807
19.69999999999999,57.8082,2.14862,250.3,-4.3,-29.5,10.6,13.456629673359991,36.57690419475537,0.00011902520627948832
19.799999999999997,57.5892,2.17674,250.4,-4.4,-29.7,10.6,13.526733898938968,36.78472781846531,0.00012036834297468602
19.89999999999999,57.3782,2.33198,250.5,-4.2,-29.6,10.6,13.552138218285274,36.999757050101216,0.00012166499331556224
20.0,57.1543,2.55557,250.6,-4.0,-29.5,10.6,13.534173332911449,37.24371514919613,0.0001230439730859345
20.099999999999994,56.9312,2.81955,250.7,-4.2,-29.7,10.6,13.481071521656027,37.49944572090511,0.00012442851256722065
20.19999999999999,56.6832,3.08961,250.9,-5.2,-27.6,10.6,13.399764930522327,37.792108613539476,0.0001259814551310967
20.299999999999997,56.4411,3.25094,250.6,-5.8,-19.1,10.6,13.289778094965882,38.08942632734124,0.00012751900371110736
20.39999999999999,56.1778,3.28183,250.1,-5.6,-9.6,10.6,13.163752908580669,38.41599357924848,0.00012921273407240363
20.5,55.9299,3.21509,249.4,-5.1,0.6,10.7,13.050301765004033,38.72252206754156,-0.09986916916550115
20.599999999999994,55.6445,3.0416,249.1,-4.3,11.8,10.7,12.97109607368166,39.0571346660123,-0.09986729311964027
20.69999999999999,55.3912,2.84435,249.0,-3.6,20.4,10.7,12.912710914747375,39.35028625698885,-0.09986561194874444
20.799999999999997,55.1116,2.7234,249.0,-2.7,24.2,10.7,12.889652056736121,39.658543575591665,-0.09986375073101073
20.89999999999999,54.8416,2.62946,249.1,-1.9,24.6,10.7,12.907266468791832,39.94123609459519,-0.09986195319982016
21.0,54.514,2.62751,248.8,-2.3,24.4,10.7,12.923112741458771,40.28649419779816,-0.09985975142562786
21.099999999999994,54.2481,2.71575,248.4,-3.4,24.4,10.7,13.024204785848173,40.532918571705316,-0.09985798594051509
21.19999999999999,53.9787,2.8452,248.3,-3.5,23.9,10.7,13.17940077509719,40.76230852751542,-0.09985620391237138
21.299999999999997,53.7234,3.05613,248.4,-3.3,23.6,10.7,13.370412667461474,40.96291854314747,-0.09985452222450597
21.39999999999999,53.5238,3.2572,248.1,-3.6,22.8,10.7,13.579106913182429,41.097541555099255,-0.09985321367657995
21.5,53.2668,3.54396,248.3,-3.1,22.2,10.6,13.848671002560128,41.27111583674144,0.00014848744782014478
21.599999999999994,52.976,3.83573,248.6,-2.7,21.4,10.6,14.174282602485931,41.460823541794134,0.00015043424405902783
21.69999999999999,52.6953,4.04976,248.8,-2.8,15.5,10.6,14.51881782745055,41.63404301234013,0.0001523393914242277
21.799999999999997,52.3995,4.07266,249.2,-4.0,2.9,10.6,14.902541195063636,41.81071802734799,0.00015438168839043698
21.89999999999999,52.104,3.9288,249.9,-5.9,-10.5,10.6,15.261761191175442,41.997611337749134,0.0001564599695065283
22.0,51.8268,3.68673,250.5,-5.4,-21.4,10.6,15.605410781860746,42.172014505464546,0.00015844531460285083
22.099999999999994,51.561,3.44407,250.2,-3.3,-26.5,10.6,15.901179048684032,42.35214555900906,0.0001603709390485264
22.19999999999999,51.2748,3.24642,249.8,-2.1,-26.8,10.6,16.176565976710734,42.5616636077406,0.00016245862915109655
22.299999999999997,51.0251,3.12452,250.0,-2.5,-27.8,10.6,16.422700394316628,42.7431771409058,0.00016430347896090325
22.39999999999999,50.7245,3.08636,250.1,-2.7,-28.4,10.5,16.622554313861187,42.99414807767367,0.10016650885564271
22.5,50.433,3.07096,250.1,-2.7,-29.1,10.5,16.77243803812254,43.25221078794655,0.10016864434018391
22.599999999999994,50.1207,3.06825,250.2,-2.9,-29.3,10.5,16.88571994210306,43.544227451842644,0.10017093148212908
22.69999999999999,49.8289,3.15044,250.3,-2.9,-29.6,10.5,16.997348926925312,43.81525401277922,0.10017308265022962
22.799999999999997,49.5182,3.28706,250.6,-3.4,-30.0,10.5,17.010188647389548,44.138513791473045,0.10017534436083775
22.89999999999999,49.2223,3.43974,251.0,-3.9,-29.8,10.5,16.982742217743063,44.459658320556805,0.10017749907870677
23.0,48.913,3.65263,250.7,-3.2,-29.5,10.5,16.91068844280356,44.81032360876411,0.10017975714928884
23.099999999999994,48.5816,3.82275,250.7,-3.3,-24.9,10.6,16.837014020449445,45.18566073108716,0.00018220757818099287
23.19999999999999,48.2358,3.89459,250.3,-4.3,-13.5,10.6,16.73547693380713,45.586619189897675,0.00018478942908917162
23.299999999999997,47.911,3.83945,249.9,-4.3,-1.7,10.6,16.63632366013549,45.96551835821488,0.00018724588466856318
23.39999999999999,47.5743,3.69757,249.6,-3.3,8.7,10.6,16.54606736749185,46.355082476100606,0.00018982665283573397
23.5,47.2554,3.50135,249.5,-2.4,18.3,10.7,16.489633446429085,46.714500381478786,-0.09980770026848251
23.599999999999994,46.8863,3.31977,249.1,-2.6,24.4,10.7,16.481632704945245,47.11042187400362,-0.09980481215854642
23.69999999999999,46.5706,3.21758,249.6,-1.8,25.5,10.7,16.50545863848346,47.43825232512598,-0.09980232252891419
23.799999999999997,46.2422,3.16743,249.4,-2.3,23.8,10.7,16.57259320368497,47.763856401822466,-0.09979971976203128
23.89999999999999,45.9338,3.12279,247.6,-5.6,23.8,10.7,16.673785357097685,48.05575472180365,-0.09979726394919819
24.0,45.6248,3.1606,247.3,-6.1,24.2,10.7,16.764413315252533,48.352116855795956,-0.09979478728472024
24.099999999999994,45.3214,3.26738,247.8,-4.7,24.5,10.7,16.938407630444896,48.61193205009613,-0.09979235395879726
24.19999999999999,44.9999,3.38242,247.9,-4.0,23.9,10.7,17.166857030285904,48.871441484983315,-0.09978975985338501
24.299999999999997,44.7103,3.59833,248.2,-3.4,22.7,10.7,17.42469875687822,49.086904766427715,-0.09978740570291134
24.39999999999999,44.4885,3.88768,248.3,-3.3,22.7,10.7,17.71736932195683,49.21877019883472,-0.09978558115504832
24.5,44.2132,4.13705,248.4,-3.1,22.9,10.6,18.06093639501777,49.390946138653845,0.00021671570431536225
24.599999999999994,43.892,4.23129,248.9,-3.2,16.1,10.6,18.46201324824489,49.59404065195348,0.00021944316362443317
24.69999999999999,43.6052,4.24575,249.3,-3.9,2.0,10.6,18.843222128835976,49.76987904738767,0.00022192962329370403
24.799999999999997,43.3408,3.9716,249.9,-4.5,-11.4,10.6,19.19583809053685,49.933601592798155,0.00022426382189344451
24.89999999999999,43.0825,3.70912,250.1,-3.6,-21.9,10.6,19.519971741742445,50.10181859305956,0.00022657002906001367
25.0,42.7966,3.4749,249.8,-2.1,-26.5,10.6,19.827071662441373,50.30593306336612,0.00022912695317067744
25.099999999999994,42.519,3.28969,249.8,-1.8,-26.4,10.6,20.083809596978064,50.5179481724283,0.00023160591499227223
25.19999999999999,42.2199,3.25457,250.0,-2.1,-26.5,10.6,20.32367123507349,50.75841092724501,0.00023427609792747717
25.299999999999997,41.9217,3.15925,250.4,-3.1,-27.8,10.6,20.565023892827853,50.998071774045485,0.00023696283940743967
25.39999999999999,41.6108,3.01778,250.5,-3.5,-28.7,10.6,20.74736119789472,51.26904051137076,0.0002397256194139885
25.5,41.3137,2.97612,250.3,-3.0,-29.5,10.6,20.881005181575965,51.53999038941454,0.00024234399446143584
25.599999999999994,41.0002,3.02495,249.9,-2.1,-30.1,10.6,20.974099504117625,51.839895890229755,0.0002450795541566464
25.69999999999999,40.6842,3.13712,249.5,-1.2,-30.4,10.6,21.086838448528958,52.13672360307227,0.0002478694672056747
25.799999999999997,40.3537,3.34711,249.5,-0.8,-30.6,10.6,21.086332430270815,52.48184402342052,0.0002506966579929326
25.89999999999999,40.0337,3.61173,249.0,0.3,-30.4,10.6,21.044523158422052,52.82845004776402,0.0002534155853286535
26.0,39.6922,3.90543,249.0,0.6,-30.0,10.6,20.95670011789405,53.211893039475015,0.0002563101994539352
26.099999999999994,39.3488,4.12365,249.5,-1.1,-25.0,10.6,20.84368528965662,53.60619589113399,0.0002592372480076932
26.19999999999999,38.9957,4.18949,249.9,-3.5,-13.7,10.7,20.709697804097978,54.0186488703975,-0.09973772583036755
26.299999999999997,38.6638,4.11309,249.7,-4.1,-0.3,10.7,20.584923952896194,54.407418849788655,-0.09973482914192289
26.39999999999999,38.3211,3.91489,249.5,-3.4,11.5,10.7,20.4781267801826,54.80326436122472,-0.09973178861702614
26.5,37.9605,3.68603,249.9,-1.6,20.8,10.7,20.40003162591526,55.20978614473378,-0.09972853670460502
26.599999999999994,37.5938,3.51518,249.9,-1.0,24.9,10.7,20.369041935583503,55.60786123011586,-0.09972518304873823
26.69999999999999,37.2477,3.40827,249.3,-1.8,24.4,10.8,20.384316313350517,55.968958921161644,-0.199721978878447
26.799999999999997,36.8903,3.41296,249.1,-1.9,23.6,10.7,20.446450652648764,56.32607575289049,-0.09971863761603217
26.89999999999999,36.5524,3.42381,248.8,-2.0,24.2,10.7,20.54800802414114,56.649044703830796,-0.09971545211838695
27.0,36.1966,3.53664,249.2,-1.0,22.4,10.7,20.648824361223816,56.991220525513285,-0.09971208050889224
27.099999999999994,35.8558,3.6676,249.0,-1.5,20.9,10.7,20.829691204674532,57.289922664593206,-0.09970881559603839
27.19999999999999,35.4945,3.78339,248.1,-3.6,22.0,10.7,21.06324909279521,57.59254986024973,-0.09970532347387184
27.299999999999997,35.1568,3.97637,247.9,-4.0,22.2,10.7,21.326202223391412,57.860982530460575,-0.09970201917823296
27.39999999999999,34.8436,4.11273,248.0,-3.4,18.8,10.7,21.62397426864606,58.09288373705235,-0.09969890725500186
27.5,34.5149,4.22676,248.5,-2.7,9.5,10.7,21.950742326840558,58.333284664332126,-0.09969559584139631
27.599999999999994,34.1633,4.23079,248.9,-3.9,-3.0,10.6,22.303276288926668,58.591279985202,0.0003079946249382459
27.69999999999999,33.8323,4.1018,249.8,-5.4,-16.4,10.6,22.631549832504067,58.837267274954236,0.00031141853537697273
27.799999999999997,33.4925,3.89633,250.4,-5.5,-25.0,10.6,22.9871542561928,59.08623660038806,0.00031499302330573187
27.89999999999999,33.1686,3.67768,250.3,-4.8,-26.6,10.6,23.25341229873195,59.34653392050578,0.00031837536411671863
28.0,32.8309,3.54399,250.5,-5.2,-27.8,10.6,23.482676279420843,59.63274735732024,0.0003218864121770082
28.099999999999994,32.5062,3.44424,250.6,-5.4,-28.8,10.6,23.66507097438504,59.91927799700194,0.000325246355462383
28.19999999999999,32.1724,3.41634,250.8,-5.7,-28.8,10.6,23.870571301315056,60.20910954371531,0.0003287412471930651
28.299999999999997,31.8345,3.42157,250.7,-5.2,-29.0,10.5,23.98985942404044,60.52726410866504,0.10033219982840968
28.39999999999999,31.4672,3.4848,250.3,-4.3,-29.5,10.5,24.076927477450788,60.8848874404877,0.10033592896398069
28.5,31.1184,3.61644,250.3,-3.9,-29.7,10.5,24.113108317989905,61.23739242732489,0.10033943736615925
28.599999999999994,30.7557,3.74628,250.7,-4.3,-29.9,10.5,24.097143735122792,61.61914334251324,0.10034305013034306
28.69999999999999,30.4014,3.92494,250.8,-4.7,-29.7,10.5,24.060931329099372,61.99841429810946,0.10034658513691497
28.799999999999997,30.0585,4.06311,251.0,-6.5,-27.5,10.5,23.971333731611715,62.382004279694854,0.10034998271681594
28.89999999999999,29.7285,4.06913,251.1,-9.1,-17.7,10.5,23.866674305849156,62.75806816373405,0.10035327412926698
29.0,29.3705,3.93096,250.0,-9.5,-2.2,10.5,23.758587360513427,63.16593033016218,0.10035689094052103
29.099999999999994,29.0529,3.67734,249.1,-7.9,13.1,10.6,23.68300940847793,63.52289890745716,0.0003601495301186475
29.19999999999999,28.7152,3.40411,249.3,-5.2,21.3,10.6,23.634400112158225,63.893534521039186,0.0003636686084238505
29.299999999999997,28.4058,3.20912,249.0,-4.7,23.0,10.6,23.62931227816695,64.22090093495805,0.0003669338647700471
29.39999999999999,28.0981,3.12425,248.5,-4.6,22.7,10.6,23.668620185473642,64.53235552013885,0.0003702210273690554
29.5,27.8024,3.08691,248.4,-4.6,23.1,10.6,23.745876440132974,64.8187340210296,0.0003734102916048698
29.599999999999994,27.4683,3.08571,248.5,-4.5,23.2,10.6,23.853655262119407,65.13544235390991,0.00037703686472490006
29.69999999999999,27.1585,3.15889,248.3,-5.0,23.0,10.6,23.99783788785024,65.4147428824369,0.00038043497442608043
29.799999999999997,26.8455,3.28512,247.9,-5.8,22.6,10.6,24.1936936111494,65.68068033842468,0.0003839083576711033
29.89999999999999,26.5466,3.42318,247.8,-6.1,22.4,10.6,24.33799537535661,65.94874882685043,0.0003872231005157545
30.0,26.2646,3.62019,247.9,-6.2,21.0,10.6,24.619697916682597,66.15598064866705,0.0003904512323824605
30.099999999999994,26.004,3.81725,248.0,-6.3,18.3,10.6,24.926163380088397,66.33501103947565,0.0003935042601206362
30.19999999999999,25.7378,3.87537,248.4,-6.9,8.7,10.6,25.28032559610058,66.50831721259699,0.0003967070275407991
30.299999999999997,25.491,3.81076,249.2,-7.7,-5.1,10.6,25.61982252060232,66.66911419777657,0.0003997433040527909
30.39999999999999,25.2499,3.56357,250.1,-7.4,-18.9,10.5,25.96862011462098,66.82481623251455,0.10040278681589854
30.5,25.0079,3.3011,250.2,-5.6,-26.6,10.5,26.254333517605936,67.00106877998763,0.1004058085715176
30.599999999999994,24.7526,3.06054,250.1,-4.2,-27.5,10.5,26.50958071929073,67.20078406128374,0.10040896813461764
30.69999999999999,24.5047,2.90488,250.3,-4.2,-27.7,10.5,26.716641388286618,67.40604980078993,0.10041199890272345
30.799999999999997,24.2453,2.85728,250.4,-4.2,-28.3,10.5,26.935752302227115,67.62141336607708,0.10041520082905997
30.89999999999999,23.9783,2.78438,250.4,-4.4,-29.2,10.5,27.087808762199764,67.86086997136279,0.10041838895080524
31.0,23.6842,2.76543,250.4,-4.5,-29.6,10.5,27.216654398263923,68.13375735390672,0.10042184484094285
31.099999999999994,23.4073,2.85582,250.4,-4.4,-29.8,10.5,27.283935533734283,68.40288396597757,0.10042501117761837
31.19999999999999,23.1392,3.00873,250.4,-4.4,-30.0,10.5,27.318589646038685,68.67040705233136,0.10042803288113689
31.299999999999997,22.8588,3.20482,250.6,-4.5,-30.0,10.5,27.28850060036615,68.96539296487038,0.10043108261626443
31.39999999999999,22.5457,3.42977,250.8,-5.2,-30.0,10.5,27.226710209388134,69.3019086899331,0.100434461761024
31.5,22.2352,3.64285,251.2,-6.8,-29.8,10.5,27.134133108809998,69.64412178561334,0.10043778915455448
31.599999999999994,21.8629,3.73223,251.3,-9.3,-23.3,10.5,27.0260396181254,70.05553314380765,0.10044182975597593
31.69999999999999,21.563,3.70054,250.6,-10.8,-10.3,10.6,26.885901667810238,70.40236994069767,0.0004450501684161168
31.799999999999997,21.2712,3.50701,249.4,-10.0,3.9,10.6,26.738360968055083,70.7452860441013,0.0004482179953857468
31.89999999999999,20.9985,3.20813,248.8,-7.3,16.2,10.6,26.628706109309256,71.06001782759881,0.00045125335430995506
32.0,20.7099,2.93147,249.0,-4.5,22.4,10.6,26.564069444457083,71.37992902637289,0.0004545510960110022
32.099999999999994,20.4293,2.74888,249.0,-3.0,24.1,10.6,26.551876955273407,71.6767419812139,0.0004578251952427337
32.19999999999999,20.1393,2.71058,248.7,-2.5,23.6,10.6,26.57244298388966,71.97396136376248,0.0004612557261900463
32.3,19.8611,2.70351,248.7,-2.3,23.4,10.7,26.630944413037987,72.24743076413137,-0.09953541052242798
32.39999999999999,19.5679,2.73752,248.7,-2.7,23.2,10.6,26.732186581108675,72.52356859608405,0.00046814475904533026
32.5,19.2726,2.84161,248.6,-3.2,23.0,10.6,26.821412661096772,72.80564344692985,0.00047173082004725586
32.599999999999994,19.0243,3.04454,248.4,-3.6,22.6,10.6,27.011767836687607,73.00818853156078,0.00047484992744983856
32.69999999999999,18.7773,3.28383,248.3,-3.9,22.4,10.6,27.23770671721431,73.19996527805124,0.00047801110573253425
32.8,18.4936,3.5142,248.2,-4.0,21.8,10.6,27.52527273673282,73.41440222369378,0.0004817114255288857
32.89999999999999,18.2592,3.76986,248.2,-4.1,21.0,10.6,27.817201605645,73.57936523285478,0.0004848833195953972
33.0,18.0045,3.94669,248.3,-5.5,14.8,10.6,28.17498329155938,73.75263288510239,0.0004884577038524185
33.099999999999994,17.7732,3.95673,248.7,-8.2,1.1,10.6,28.531414340069027,73.90750510668693,0.0004918396300652716
33.19999999999999,17.5425,3.81053,249.8,-9.8,-9.8,10.6,28.907047840438644,74.06360480944106,0.0004953471941231413
33.3,17.3301,3.51372,250.8,-9.2,-20.1,10.6,29.273706040780773,74.20932216528232,0.0004987170585231127
33.39999999999999,17.1017,3.14529,250.7,-7.1,-26.5,10.6,29.589535505909716,74.386259630782,0.0005022391129330117
33.5,16.8854,2.88289,250.5,-5.4,-27.7,10.6,29.84562599570449,74.56470391702857,0.0005055174118435701
33.599999999999994,16.6571,2.77358,250.4,-4.9,-27.7,10.5,30.066893542019805,74.76339277087854,0.10050888469589658
33.69999999999999,16.4348,2.6466,250.5,-5.0,-28.6,10.5,30.23798667446983,74.9647579845513,0.10051205963162957
33.8,16.238,2.59334,250.6,-4.8,-29.2,10.5,30.42551188363779,75.13959813597232,0.10051500906476107
33.89999999999999,15.9995,2.59444,250.5,-4.6,-29.6,10.5,30.52342272725146,75.36850263829525,0.10051817641860517
34.0,15.7304,2.69717,250.4,-4.3,-29.8,10.5,30.586129704638143,75.6326145543944,0.10052160120499565
34.099999999999994,15.4568,2.876,250.5,-4.4,-29.6,10.5,30.6046444344704,75.9064533841632,0.10052494096092524
34.19999999999999,15.142,3.07776,250.8,-4.7,-29.7,10.5,30.606105331740668,76.22394593940874,0.10052873077754931
34.3,14.8431,3.32053,251.0,-5.2,-29.9,10.5,30.539981277203836,76.53376391074468,0.10053211900471126
34.39999999999999,14.5265,3.56135,251.2,-6.0,-29.7,10.5,30.423426806293445,76.86901703307242,0.10053558699708276
34.5,14.2163,3.75667,251.5,-7.9,-27.0,10.6,30.280750422523663,77.20349835119833,0.0005389410660328053
34.599999999999994,13.8714,3.83543,251.2,-9.5,-18.6,10.6,30.099505145873717,77.58230537301066,0.0005426726848902774
34.69999999999999,13.5612,3.77376,250.3,-9.6,-7.2,10.6,29.929243131694577,77.92790889791499,0.000546076753945357
34.8,13.2445,3.56216,249.2,-8.2,5.9,10.6,29.761881264551434,78.28362941830757,0.0005496420304194061
34.89999999999999,12.9588,3.23943,249.0,-5.4,17.7,10.6,29.63112332525972,78.6038036085494,0.0005529657077136818
35.0,12.6625,2.94576,249.2,-3.3,23.3,10.6,29.52372375524757,78.93240305853028,0.0005565187479312783
35.099999999999994,12.3993,2.70529,249.1,-2.3,24.8,10.7,29.473560389244124,79.21545097337426,-0.09944020755613536
35.19999999999999,12.125,2.61918,249.0,-1.5,24.8,10.7,29.46397134862741,79.50075403410571,-0.09943670585874997
35.3,11.8628,2.60293,249.2,-0.5,23.5,10.7,29.498262892621014,79.76293309303537,-0.0994332767084618
35.39999999999999,11.5838,2.65803,249.3,0.1,22.4,10.7,29.582007568703954,80.0300824367277,-0.09942954351630107
35.5,11.3107,2.77335,249.0,-0.8,22.5,10.6,29.655251610502468,80.2937615352212,0.0005741078115431009
35.599999999999994,11.046,2.92946,248.3,-3.1,23.1,10.6,29.827283980672664,80.52464813838841,0.0005778211913636255
35.69999999999999,10.7997,3.11426,247.8,-5.1,22.5,10.6,30.03401094968653,80.72998894196381,0.000581387797172539
35.8,10.5503,3.29085,247.6,-7.0,19.4,10.6,30.293807097980103,80.92983550623683,0.0005851510789973702
35.89999999999999,10.3454,3.29864,248.1,-9.1,7.6,10.6,30.556394029548464,81.08840064378427,0.0005884204643074042
36.0,10.1295,3.14034,249.5,-10.6,-8.4,10.6,30.852266819355727,81.25824143138077,0.0005920091651212545
36.099999999999994,9.92952,2.88713,250.7,-9.9,-21.2,10.6,31.113017901996823,81.42360343431645,0.0005953873994677394
36.19999999999999,9.71647,2.6071,250.9,-7.9,-26.6,10.6,31.348824502182485,81.61054375504602,0.000598934030612952
36.3,9.51013,2.40366,250.8,-7.1,-26.8,10.6,31.56203882258999,81.79747374720232,0.0006023814260789351
36.39999999999999,9.29523,2.31853,251.2,-7.5,-27.0,10.5,31.710220842604325,82.00160801077834,0.10060573733221112
36.5,9.08678,2.2581,251.3,-7.7,-28.3,10.5,31.820129137633696,82.20351007595625,0.1006088846184312
36.599999999999994,8.86336,2.23114,251.3,-8.0,-28.8,10.5,31.903812527666496,82.42286366421082,0.10061213236086175
36.69999999999999,8.69238,2.28191,251.5,-8.6,-28.9,10.5,32.01353207734154,82.58904499106663,0.10061483145839745
36.8,8.45844,2.44145,251.8,-9.2,-29.1,10.5,31.99190519857955,82.82464890299462,0.10061777472243705
36.89999999999999,8.22726,2.64358,251.9,-9.5,-29.2,10.5,31.92536507867605,83.06000501000207,0.10062049817188345
37.0,7.97389,2.8027,251.9,-10.2,-27.5,10.5,31.802409369867473,83.3223690695099,0.10062329974554096
37.099999999999994,7.73542,2.91723,251.4,-10.7,-19.8,10.5,31.6592211838827,83.57416238714518,0.10062587682492996
37.19999999999999,7.49767,2.77371,250.2,-14.5,-5.6,10.5,31.482761570984604,83.83282349097695,0.10062839024185699
37.3,7.28873,2.43451,248.0,-21.2,9.7,10.6,31.3433780843955,84.06260754411471,0.0006307213365754905
37.39999999999999,7.09177,1.96371,247.3,-22.2,14.2,10.6,31.218765684591716,84.2818049198291,0.0006329989871858288
37.5,6.94088,1.54866,247.1,-21.7,12.6,10.6,31.121581780022524,84.45249235129407,0.0006347779207001025
37.599999999999994,6.77496,1.21041,247.4,-21.0,10.3,10.6,31.033977207845595,84.63896998996267,0.0006368173942163935
37.69999999999999,6.68932,0.909473,247.8,-19.8,7.9,10.6,30.96500402626227,84.74125137537584,0.000637837656828566
37.8,6.62789,0.833353,248.4,-17.9,5.0,10.6,30.898557776092815,84.81926881351856,0.0006385512091551249
37.89999999999999,6.5862,0.625243,248.9,-16.1,3.0,10.6,30.84678724437832,84.87443168729783,0.0006390329613843448
38.0,6.56726,0.507267,249.3,-14.5,1.4,10.6,30.7716859448113,84.91261454691099,0.0006391764468478556
38.099999999999994,6.54967,0.395131,249.5,-13.2,-0.1,10.6,30.73910069747313,84.93922233533888,0.0006393721501396499
38.19999999999999,6.54235,0.308096,249.5,-12.4,-1.6,10.6,30.712836828120416,84.9537236450411,0.0006394376971581295
38.3,6.54195,0.255067,249.5,-11.7,-2.5,10.6,30.692000402077152,84.95971689350532,0.0006394173762664934
38.39999999999999,6.56843,0.172495,249.6,-10.8,-2.8,10.5,30.68161575307994,84.93504696974597,0.10063903892618242
38.5,6.57671,0.127788,249.6,-9.7,-2.4,10.5,30.672296669182234,84.92898142112956,0.1006389145427562
