time,distance(meters),speed(m/s), compass_heading(degrees), pitch(degrees), roll(degrees),height_above_takeoff(meters),North,East,Down
0.0,82.0955,3.09158,289.4,-11.6,-16.6,19.3,0.0,0.0,0.0
0.0999999999999659,82.3981,3.19951,289.7,-13.0,-18.1,19.3,-0.005169415180361417,-0.3150241394517811,7.540556958788441e-09
0.19999999999998863,82.7112,3.35952,289.8,-13.5,-19.0,19.2,-0.017764981195737904,-0.6386245663877299,0.10000003238077539
0.30000000000001137,83.0007,3.50035,289.3,-11.8,-16.9,19.0,-0.05334985720435667,-0.9307607429184351,0.30000006761236253
0.39999999999997726,83.3197,3.57225,289.3,-11.4,-15.7,18.8,-0.07615709262596507,-1.257377724755905,0.500000124002642
0.5,83.6324,3.7159,289.8,-13.3,-17.8,18.7,-0.10398926753884327,-1.5759224494173054,0.6000001953794404
0.5999999999999659,83.9709,3.82967,289.9,-13.5,-18.0,18.5,-0.1390308595183311,-1.9192414082900984,0.8000002899387293
0.6999999999999886,84.3019,3.90755,289.7,-12.5,-16.4,18.3,-0.17675395643828656,-2.253838952931031,1.0000004001240634
0.8000000000000114,84.6507,4.00168,289.6,-12.1,-15.7,18.2,-0.21767577764847995,-2.6060702270020517,1.1000005368327992
0.8999999999999773,85.002,3.98968,289.5,-11.6,-15.3,18.0,-0.2669397234136087,-2.9583090895805864,1.3000006918070017
1.0,85.3843,4.01729,289.5,-10.9,-14.0,17.9,-0.3292413361869858,-3.3392170968417196,1.4000008828259203
1.099999999999966,85.7594,4.07515,289.4,-10.8,-13.9,17.7,-0.3937245472777374,-3.7118160331593932,1.6000010911890858
1.1999999999999886,86.1845,4.06445,289.0,-9.9,-12.8,17.6,-0.4780994426119024,-4.130824756836638,1.7000013549508017
1.3000000000000114,86.5719,4.07218,289.1,-9.0,-11.0,17.5,-0.5518291982956366,-4.51348923537576,1.8000016187770673
1.3999999999999773,86.9772,4.0847,289.4,-8.5,-10.5,17.5,-0.6316992444594726,-4.913100166676255,1.800001921283455
1.5,87.3648,4.13489,289.7,-7.6,-9.3,17.5,-0.7094830351996145,-5.294871199000485,1.8000022354075735
1.599999999999966,87.745,4.17012,290.0,-5.9,-9.0,17.5,-0.7963862461045788,-5.66620254296479,1.8000025639821482
1.6999999999999886,88.1391,4.24953,290.2,-5.4,-9.4,17.6,-0.8792989803792481,-6.053227901816419,1.7000029306322242
1.8000000000000114,88.5628,4.33595,290.7,-6.9,-10.9,17.8,-0.9704989433050291,-6.468647566577813,1.5000033507416806
1.8999999999999773,88.9638,4.30357,291.2,-8.2,-12.2,18.0,-1.0588382451704723,-6.861309149109392,1.3000037747492619
2.0,89.4349,4.33909,291.2,-8.4,-12.6,18.2,-1.1696553567083836,-7.320480968991925,1.10000430483502
2.099999999999966,89.8293,4.38946,291.2,-8.5,-12.7,18.4,-1.2568994972431835,-7.706529023914827,0.9000047756010128
2.1999999999999886,90.238,4.36538,291.2,-8.6,-12.9,18.6,-1.346984065340167,-8.106545092770888,0.7000052889413418
2.3000000000000114,90.6188,4.36372,291.1,-8.7,-13.0,18.8,-1.4367218916852358,-8.477701162762232,0.5000057915521205
2.3999999999999773,91.01,4.31586,291.1,-9.0,-13.3,19.0,-1.535564694160072,-8.857044083048702,0.3000063288105026
2.5,91.3557,4.29562,291.0,-9.2,-13.4,19.2,-1.6465061230311921,-9.185410393737747,0.1000068207639424
2.599999999999966,91.727,4.26036,291.1,-9.3,-13.6,19.4,-1.7515383729826965,-9.542140372181738,-0.09999262720876001
2.6999999999999886,92.0835,4.17875,291.0,-9.6,-14.4,19.6,-1.850626804382824,-9.885268960942067,-0.29999207763229396
2.8000000000000114,92.4647,4.027,291.1,-10.4,-15.3,19.8,-1.9520470821530513,-10.253400953818275,-0.49999146676312967
2.8999999999999773,92.7954,3.78705,291.2,-11.3,-15.8,19.9,-2.0669269320337373,-10.564943026640545,-0.5999909219366197
3.0,93.1665,3.66389,291.1,-11.8,-16.3,20.0,-2.160019464139773,-10.924979729855552,-0.6999902851033133
3.099999999999966,93.5293,3.65206,291.0,-11.0,-15.1,20.0,-2.2527103090429232,-11.276424704251564,-0.6999896426405433
3.1999999999999886,93.9212,3.63225,291.2,-12.2,-15.5,20.0,-2.354717046896235,-11.655622371571479,-0.699988924865636
3.3000000000000114,94.3353,3.68412,291.4,-13.5,-16.9,20.0,-2.448514510684805,-12.060281636045815,-0.6999881368681125
3.3999999999999773,94.7157,3.76037,291.3,-12.7,-15.8,19.9,-2.5393357024284384,-12.43066606886503,-0.5999873911441147
3.5,95.073,3.86297,291.3,-12.3,-14.9,19.8,-2.62631380301634,-12.777971633764949,-0.49998667059265833
3.599999999999966,95.4448,3.97403,291.3,-12.6,-15.3,19.7,-2.7198656201720457,-13.13861895205126,-0.39998589819855246
3.6999999999999886,95.8027,4.07514,291.4,-12.6,-15.3,19.5,-2.816523657936471,-13.483808867429381,-0.19998513678359342
3.8000000000000114,96.1967,4.14748,291.2,-12.4,-14.9,19.3,-2.914476158644532,-13.86638164654456,1.572733069332699e-05
3.8999999999999773,96.5674,4.14899,291.1,-12.3,-14.7,19.2,-3.0055313379471875,-14.22657835339853,0.10001656255896219
4.0,96.949,4.25078,291.0,-12.1,-14.3,19.0,-3.097753820606894,-14.597718576536135,0.30001744267690156
4.099999999999966,97.3307,4.30473,290.8,-11.5,-13.0,18.9,-3.194041950664584,-14.967835680466711,0.40001834863137287
4.199999999999989,97.7538,4.31653,290.8,-10.7,-12.1,18.7,-3.315457538148676,-15.373976075547482,0.6000193756644479
4.300000000000011,98.1646,4.32156,290.8,-10.5,-12.2,18.6,-3.417570923273499,-15.772762284387781,0.7000204018177183
4.399999999999977,98.6016,4.30594,290.7,-10.1,-11.6,18.5,-3.5193461707129505,-16.198904044498626,0.8000215248060063
4.5,99.0194,4.30842,290.9,-9.5,-10.8,18.4,-3.6209162631467064,-16.605197364530493,0.9000226262916549
4.599999999999966,99.4718,4.30984,290.8,-8.8,-11.4,18.3,-3.7415169143660028,-17.04200797509797,1.0000238464508966
4.699999999999989,99.8777,4.3493,290.9,-7.7,-10.2,18.4,-3.8447775071132098,-17.43538774652672,0.9000249714672064
4.800000000000011,100.271,4.39693,290.9,-6.6,-9.5,18.4,-3.94394931840673,-17.817082733976235,0.9000260855994191
4.899999999999977,100.651,4.38006,291.0,-6.6,-9.6,18.5,-4.039884902761695,-18.1848558309088,0.800027182944647
5.0,101.014,4.45948,291.1,-7.5,-11.0,18.7,-4.135913042301759,-18.535980690188854,0.6000282544633793
5.099999999999966,101.435,4.52824,291.2,-8.2,-12.2,18.9,-4.244952742466902,-18.943023371229643,0.40002952133229863
5.199999999999989,101.896,4.55035,291.2,-8.4,-12.3,19.0,-4.367694569522756,-19.388876790587293,0.30003094198345703
5.300000000000011,102.33,4.5859,291.1,-8.3,-12.3,19.2,-4.483573801525441,-19.80776445381604,0.10003230908688909
5.399999999999977,102.875,4.59085,291.1,-8.2,-12.5,19.4,-4.6392449183655184,-20.330339144681787,-0.09996593644997143
5.5,103.289,4.59596,291.1,-7.9,-12.8,19.7,-4.75386439985388,-20.729012191850188,-0.3999645687949269
5.599999999999966,103.708,4.57691,290.9,-7.6,-13.2,19.9,-4.875580554215187,-21.131075781804558,-0.5999631584935905
5.699999999999989,104.105,4.57358,290.9,-7.8,-13.2,20.1,-4.992638771807679,-21.510877676528523,-0.7999618013243448
5.800000000000011,104.52,4.50467,290.8,-7.8,-13.5,20.3,-5.116293805667757,-21.908046049222293,-0.9999603514297828
5.899999999999977,104.897,4.30101,290.8,-8.1,-14.3,20.5,-5.250102841172607,-22.262684282428914,-1.1999590158069307
6.0,105.3,4.04587,291.0,-10.4,-17.1,20.7,-5.371674508160398,-22.64812998953633,-1.3999575582814425
6.099999999999966,105.675,3.85527,291.0,-11.3,-18.2,20.8,-5.483352315613974,-23.006303786642725,-1.499956182117709
6.199999999999989,106.061,3.78062,290.4,-8.7,-14.3,20.9,-5.598959873241107,-23.375131162334924,-1.599954741867561
6.300000000000011,106.416,3.77421,290.6,-8.9,-13.3,20.9,-5.711732752298027,-23.713448548384804,-1.5999533934422767
6.399999999999977,106.799,3.73403,291.2,-12.3,-17.2,20.9,-5.825600695880938,-24.07982411512186,-1.5999519185166164
6.5,107.161,3.74425,291.3,-12.4,-17.8,20.9,-5.933686668280545,-24.425518801576914,-1.5999505066779656
6.599999999999966,107.541,3.76828,290.8,-10.4,-14.5,20.8,-6.0493142340144495,-24.78820534806352,-1.4999489984956957
6.699999999999989,107.89,3.8429,291.0,-11.0,-14.7,20.7,-6.162959636871597,-25.11964147204545,-1.399947593815773
6.800000000000011,108.263,3.92995,291.3,-12.1,-16.1,20.6,-6.279104425774431,-25.474660508510688,-1.2999460735947963
6.899999999999977,108.625,3.92121,291.3,-11.5,-15.6,20.5,-6.3914407888168565,-25.819545303794747,-1.1999445764215402
7.0,109.015,3.98722,291.2,-11.3,-15.2,20.3,-6.511934179935285,-26.191395787181293,-0.9999429401863034
7.099999999999966,109.399,4.07924,291.2,-11.4,-15.2,20.2,-6.634236536276932,-26.55622068818515,-0.8999413053019114
7.199999999999989,109.794,4.15726,291.2,-11.3,-14.9,20.0,-6.757700346341785,-26.93241659054975,-0.6999396004694978
7.300000000000011,110.178,4.20555,291.2,-11.1,-14.4,19.9,-6.877153561548224,-27.298119716165843,-0.5999379184799145
7.399999999999977,110.59,4.23756,291.1,-11.1,-14.2,19.7,-7.004249461274155,-27.690880158357032,-0.39993608757043253
7.5,110.985,4.25084,291.0,-10.5,-13.8,19.6,-7.12565883598495,-28.068000526475394,-0.29993430522539155
7.599999999999966,111.431,4.20555,290.8,-9.7,-11.9,19.5,-7.259452689861367,-28.494570208924,-0.19993226586799473
7.699999999999989,111.832,4.17477,290.9,-9.0,-10.7,19.4,-7.388484674091343,-28.874959208314113,-0.09993040774443873
7.800000000000011,112.247,4.14898,291.0,-8.6,-12.1,19.3,-7.52799991718341,-29.267727746633888,7.154471881554159e-05
7.899999999999977,112.635,4.10162,291.0,-8.9,-12.5,19.3,-7.657349868488933,-29.635027468543733,7.339310474607785e-05
8.0,112.967,4.20439,290.9,-8.6,-11.2,19.3,-7.786379246560515,-29.943438644173842,7.498906916225678e-05
8.099999999999966,113.372,4.31272,290.9,-7.7,-11.0,19.4,-7.914512750449399,-30.328258030077457,-0.0999230358786618
8.199999999999989,113.83,4.38095,290.8,-7.3,-11.2,19.5,-8.054028029739593,-30.766307056207243,-0.1999207653734194
8.300000000000011,114.254,4.46248,290.8,-7.2,-11.5,19.6,-8.188908565353747,-31.16862277438068,-0.2999186407266792
8.399999999999977,114.73,4.44787,290.9,-7.1,-11.7,19.8,-8.346813064806955,-31.61949485850316,-0.49991621903722727
8.5,115.137,4.43555,290.9,-7.5,-11.8,19.9,-8.490414326875207,-32.00180947661187,-0.5999141226190563
8.599999999999966,115.566,4.40451,290.8,-7.8,-11.9,20.1,-8.646764374560131,-32.404584065116005,-0.799911880647433
8.699999999999989,115.967,4.40155,290.9,-8.4,-12.2,20.3,-8.791085273946333,-32.780942423553086,-0.9999097619475861
8.800000000000011,116.398,4.38618,290.9,-8.6,-12.7,20.5,-8.960993132080109,-33.18055543966013,-1.1999074595761798
8.899999999999977,116.79,4.26614,291.0,-8.9,-12.7,20.7,-9.101231109111579,-33.54874994707195,-1.3999053358443838
9.0,117.201,4.24636,290.9,-8.5,-12.6,20.8,-9.25103908280617,-33.934020229947606,-1.4999030843378751
9.099999999999966,117.587,4.25104,290.9,-8.6,-13.0,21.0,-9.390181923836835,-34.29596013300924,-1.6999009462413985
9.199999999999989,117.987,4.19633,290.9,-9.2,-13.6,21.2,-9.53266214819022,-34.67157022883869,-1.8998987043157265
9.300000000000011,118.354,4.04454,291.1,-11.0,-15.2,21.3,-9.669704182805159,-35.01445542464623,-1.999896626978245
9.399999999999977,118.74,3.87722,291.2,-11.9,-16.0,21.4,-9.806000634269818,-35.37695998498502,-2.099894418775483
9.5,119.104,3.80182,290.3,-6.9,-11.0,21.5,-9.9345849291041,-35.71885239359382,-2.1998923168341977
9.599999999999966,119.475,3.54237,289.8,7.0,1.2,21.5,-10.067228846953281,-36.067594617585115,-2.199890146996681
9.699999999999989,119.784,3.15114,291.8,16.1,10.9,21.6,-10.175410136995627,-36.35816661073109,-2.299888325539593
9.800000000000011,120.081,2.76433,290.8,14.9,9.1,21.6,-10.286703348018165,-36.63540392439195,-2.299886563007111
9.899999999999977,120.328,2.25534,291.4,16.4,11.1,21.6,-10.380748961368347,-36.86560515257534,-2.2998850838096283
10.0,120.544,1.80234,291.6,17.1,11.8,21.6,-10.465227346346303,-37.06667897352507,-2.299883779976768
10.099999999999966,120.738,1.51627,290.4,13.0,6.8,21.6,-10.549275273770618,-37.243665832982146,-2.2998826127964733
10.199999999999989,120.892,1.2652,290.2,10.2,5.2,21.6,-10.603789141445539,-37.38884465040965,-2.2998816726959594
10.300000000000011,121.007,0.995806,290.0,9.0,3.5,21.6,-10.645493732408202,-37.49675504731094,-2.299880970753348
10.399999999999977,121.098,0.784179,289.7,6.5,0.0,21.6,-10.680338600119747,-37.58094502691004,-2.2998804161594917
10.5,121.169,0.632793,289.7,3.6,-2.4,21.5,-10.692248930851967,-37.65179255680538,-2.19987997951047
10.599999999999966,121.229,0.48893,289.8,1.5,-3.5,21.6,-10.710034106138897,-37.7092766115948,-2.2998796098998
10.699999999999989,121.272,0.377375,289.9,-0.2,-4.0,21.5,-10.722629364959015,-37.75085931597913,-2.199879343363939
10.800000000000011,121.305,0.292591,290.0,-1.4,-5.3,21.5,-10.731688016108187,-37.7825145499243,-2.1998791408302543
