time,distance(meters),speed(m/s), compass_heading(degrees), pitch(degrees), roll(degrees),height_above_takeoff(meters),North,East,Down
0.0,142.763,0.48824,249.7,5.7,-1.1,22.3,0.0,0.0,0.0
0.10000000000002274,142.703,0.735346,249.7,9.5,-1.0,22.3,0.02126714524877425,0.05659002055015071,8.81304114755399e-10
0.1999999999999318,142.611,1.10919,249.6,11.0,-1.5,22.3,0.05852511694678157,0.14065789528716335,1.22688070466892e-09
0.2999999999999545,142.519,1.50416,249.8,12.3,-1.5,22.3,0.09092863989560998,0.22709322471275964,5.648276873992941e-09
0.39999999999997726,142.401,1.87996,250.2,15.9,0.8,22.2,0.13472856727338933,0.3371421037857239,0.1000000100346417
0.5,142.261,2.27439,250.5,18.6,2.6,22.1,0.19016186389754852,0.4656571847525387,0.2000000197293897
0.6000000000000227,142.084,2.57942,250.4,16.9,1.2,21.9,0.2845810890625263,0.6178010644709258,0.40000003496158376
0.6999999999999318,141.882,2.87398,250.6,18.3,-1.8,21.7,0.367580772931121,0.8018369501743692,0.6000000605598148
0.7999999999999545,141.636,3.06101,250.7,15.0,-2.4,21.5,0.4669353633769934,1.0271277873817783,0.8000000994976414
0.8999999999999773,141.37,3.17317,250.8,11.4,-2.3,21.4,0.5685207092623045,1.2738174355520528,0.9000001506226342
1.0,141.059,3.18644,250.8,6.9,-3.9,21.2,0.6772201405157487,1.5656110378082189,1.100000227918846
1.1000000000000227,140.729,3.30984,250.3,3.2,-1.3,21.2,0.8131507984899308,1.867332741735666,1.10000032458077
1.1999999999999318,140.374,3.51024,250.1,3.2,-0.7,21.1,0.9331773279332876,2.203176415321307,1.2000004492863754
1.2999999999999545,140.023,3.87047,250.0,3.7,-0.5,21.2,1.0512910063598708,2.5352093096758255,1.1000005900894627
1.3999999999999773,139.64,4.23963,250.0,4.7,-0.3,21.3,1.180558405154645,2.8973089762970314,1.0000007665976252
1.5,139.234,4.56189,250.0,5.2,0.1,21.4,1.339154854277748,3.270619721071972,0.9000009782364097
1.6000000000000227,138.794,4.84134,250.0,4.9,-0.2,21.6,1.5009876505845663,3.6816037310315792,0.7000012381407289
1.6999999999999318,138.366,5.07709,250.1,4.7,-1.3,21.8,1.6583012102202628,4.0800172876295075,0.5000015193831074
1.7999999999999545,137.915,5.20128,250.2,4.5,-2.1,22.1,1.8226248945856685,4.500814910233535,0.20000184670216026
1.8999999999999773,137.441,5.28727,250.1,4.3,-2.8,22.4,2.0288067737815854,4.928539278511677,-0.09999777521211028
2.0,136.953,5.30702,250.1,4.5,-3.0,22.6,2.2133689876040474,5.381679463722768,-0.2999973459711778
2.1000000000000227,136.488,5.37902,249.9,4.7,-2.7,22.9,2.3872687898018645,5.8135965852177,-0.5999969066656055
2.199999999999932,136.01,5.34734,249.9,4.9,-2.9,23.1,2.5689472825633044,6.2572058522909195,-0.7999964151265206
2.2999999999999545,135.494,5.29743,249.9,5.2,-3.2,23.4,2.82191128610158,6.709643530230468,-1.0999958482308947
2.3999999999999773,134.966,5.16817,249.8,5.4,-3.6,23.5,3.0139864744677536,7.202419568685501,-1.199995223342767
2.5,134.463,5.09327,249.7,5.6,-4.6,23.7,3.1958789178965183,7.672827024049162,-1.399994586883927
2.6000000000000227,133.937,5.08856,249.6,6.3,-4.8,23.8,3.384111042309918,8.165190677763695,-1.4999938779480506
2.699999999999932,133.437,5.20171,249.5,7.1,-4.7,23.8,3.561744230825376,8.634727259843551,-1.4999931631800796
2.7999999999999545,132.898,5.40183,249.5,8.0,-5.3,23.7,3.7580035125427775,9.137171414406204,-1.3999923506635485
2.8999999999999773,132.395,5.64945,249.5,8.4,-5.2,23.5,3.9334289895429,9.610480329761588,-1.1999915497050497
3.0,131.86,5.75864,249.7,8.7,-2.9,23.3,4.1216552655519205,10.11351994033113,-0.9999906535652845
3.1000000000000227,131.34,5.94805,249.8,8.2,-2.3,23.1,4.303466711375515,10.601720858585214,-0.7999897414427246
3.199999999999932,130.796,5.97784,249.9,6.1,-5.2,22.8,4.504794216300969,11.108838327749144,-0.4999887388697202
3.2999999999999545,130.261,6.042,250.2,5.8,-5.3,22.5,4.683652505095273,11.61562736856473,-0.1999877077263137
3.3999999999999773,129.688,6.03311,250.2,6.6,-3.8,22.3,4.871289402904932,12.159127456785834,1.3444155546604719e-05
3.5,129.136,6.11311,250.2,7.1,-4.6,22.1,5.046790155657376,12.686055276602957,0.2000146085135679
3.6000000000000227,128.561,6.1711,250.2,6.5,-3.8,21.9,5.220678580291649,13.23847526465559,0.40001587018688234
3.699999999999932,127.991,6.22482,250.4,5.8,-2.9,21.7,5.394988898603457,13.785877710830947,0.6000171739799209
3.7999999999999545,127.377,6.24899,250.3,5.4,-2.3,21.5,5.584764212188243,14.374473920903798,0.8000186354457783
3.8999999999999773,126.782,6.27171,250.2,5.7,-2.3,21.4,5.770268846823723,14.943802224292,0.900020109388691
4.0,126.117,6.22231,250.0,6.0,-2.3,21.3,5.990061100185847,15.575356497510228,1.000021821846527
4.100000000000023,125.493,6.37646,250.1,5.9,-1.3,21.2,6.188753780840775,16.170375478834526,1.100023491414937
4.199999999999932,124.82,6.51235,250.0,6.4,-1.5,21.1,6.405702790556619,16.811200949804395,1.2000253617176746
4.2999999999999545,124.174,6.71742,250.1,5.9,-1.3,21.2,6.613029772866588,17.42738242440753,1.1000272262702144
4.399999999999977,123.495,6.82755,250.2,4.7,-0.8,21.2,6.8285746525501985,18.076028367624033,1.1000292574579067
4.5,122.825,6.92881,250.2,4.3,-1.0,21.4,7.059908312752842,18.70672795241458,0.9000313260974218
4.600000000000023,122.138,6.99593,250.0,4.5,-1.7,21.5,7.285387714308456,19.359513385149793,0.8000335281075914
4.699999999999932,121.479,7.07938,250.0,4.9,-1.7,21.7,7.50249328887131,19.986081406911914,0.600035710916937
4.7999999999999545,120.776,7.12755,250.0,5.1,-0.9,21.9,7.73627752675165,20.652224200764703,0.40003811141388734
4.899999999999977,120.094,7.16627,250.0,4.8,-1.1,22.0,7.988924682042743,21.287834008766772,0.3000405118290099
5.0,119.386,7.06291,250.0,4.7,-1.3,22.2,8.208920091515719,21.965844703376135,0.1000430893485742
5.100000000000023,118.72,7.07124,249.9,5.0,-1.6,22.4,8.420096529610237,22.602356105144853,-0.09995441370309255
5.199999999999932,118.037,7.0167,249.7,6.1,-2.2,22.5,8.648301080634484,23.250055290013837,-0.19995178181397533
5.2999999999999545,117.403,7.08076,249.8,6.5,-2.0,22.6,8.862710818171433,23.84986304275977,-0.2999492732440565
5.399999999999977,116.66,7.1081,249.8,5.4,-1.0,22.6,9.105201456325013,24.556572683453588,-0.2999462498379888
5.5,115.953,7.15725,249.7,5.1,-1.1,22.7,9.336298658598347,25.22880941760776,-0.39994329424337316
5.600000000000023,115.216,7.20235,249.6,6.2,-2.7,22.6,9.576971706094728,25.929699221359925,-0.29994012759524225
5.699999999999932,114.437,7.32022,249.6,6.2,-2.8,22.6,9.847349690967633,26.664321814923795,-0.29993668770014015
5.7999999999999545,113.704,7.45791,249.0,4.4,-0.5,22.4,10.090218710360222,27.35952917932367,-0.09993336784396423
5.899999999999977,113.012,7.58122,248.2,4.8,1.5,22.3,10.322731634535536,28.015276703404602,6.985056909680765e-05
6.0,112.297,7.50194,247.1,4.1,0.3,22.0,10.568117304513013,28.69043641092378,0.3000732516930249
6.100000000000023,111.602,7.69303,246.4,5.1,-1.3,21.8,10.805559711477553,29.3463513484003,0.5000766330932942
6.199999999999932,110.851,7.71632,246.2,8.3,2.3,21.5,11.079089810649913,30.04816381398993,0.800080368260919
6.2999999999999545,110.127,7.71398,246.0,6.1,1.8,21.2,11.332728157341581,30.730364511235628,1.1000840639208498
6.399999999999977,109.369,7.62854,244.9,3.4,-5.1,21.0,11.591764493055631,31.445694744706998,1.3000880139794422
6.5,108.645,7.62619,245.1,4.3,-4.9,20.8,11.831764379891439,32.13330276938818,1.5000918800267318
6.600000000000023,107.883,7.61366,245.9,6.7,-0.1,20.7,12.083816952538635,32.85745408570556,1.6000960398091797
6.699999999999932,107.141,7.7261,246.1,6.5,0.2,20.6,12.33613823362115,33.55936649345218,1.7001001765191726
6.7999999999999545,106.348,7.84489,246.4,6.4,0.0,20.6,12.612775527726017,34.30558133693888,1.7001046854769362
6.899999999999977,105.585,7.95816,246.5,5.4,0.0,20.6,12.885875956272411,35.02124064845256,1.7001091188986122
7.0,104.743,7.89355,246.6,4.4,0.3,20.8,13.223044338102884,35.79486540226155,1.5001141006139758
7.100000000000023,103.977,8.01984,246.4,4.4,-0.5,21.0,13.506374340559528,36.50848668144344,1.3001187374710632
7.199999999999932,103.187,8.02651,246.3,5.3,-1.8,21.1,13.79486792241037,37.246950424007586,1.20012362399412
7.2999999999999545,102.424,8.07395,246.3,5.2,-1.6,21.3,14.074126660192434,37.95880757779594,1.0001284280203349
7.399999999999977,101.601,8.10762,246.3,3.7,-0.3,21.5,14.399355637458985,38.716257265606814,0.8001337051388839
7.5,100.818,8.08403,246.3,1.7,0.0,21.6,14.691571136529813,39.44483107806686,0.7001388345213853
7.600000000000023,99.9915,8.02854,246.3,0.9,-0.6,21.8,15.000266247080612,40.21434722078257,0.5001443568115835
7.699999999999932,99.2195,7.94288,246.3,0.8,-1.0,21.9,15.28977720433785,40.93210706744476,0.40014960730916727
7.7999999999999545,98.4317,7.84073,246.1,1.1,-1.3,22.0,15.588367280326525,41.66323155124395,0.3001550628336487
7.899999999999977,97.6666,7.76285,246.1,0.7,-1.8,22.1,15.88939030530128,42.36806192836941,0.20016044595621274
8.0,96.8655,7.61277,246.1,-1.5,-1.3,22.1,16.184535966234677,43.11544481614442,0.200166194547732
8.100000000000023,96.1221,7.72628,246.4,-5.9,0.1,22.1,16.458079100702705,43.809254432924206,0.20017162070439198
8.199999999999932,95.3776,7.77005,246.1,-9.7,2.8,22.0,16.729587790763873,44.505247489208244,0.3001771432162963
8.299999999999955,94.69,7.8158,245.8,-9.2,3.7,21.8,16.967715839416577,45.15398238687858,0.5001823299821231
8.399999999999977,93.9032,7.67381,245.9,-8.5,3.4,21.5,17.26214131375998,45.88601262460246,0.8001883421417482
8.5,93.1811,7.54535,245.4,-11.1,0.8,21.3,17.533279841463994,46.55741371357004,1.0001939450083164
8.600000000000023,92.4574,7.36684,245.5,-7.9,-1.2,21.0,17.804678200008524,47.230455932712175,1.3001996443780923
8.699999999999932,91.7217,7.24107,245.6,-4.4,0.0,20.8,18.075741728196938,47.917092600890925,1.5002055259664795
8.799999999999955,91.0317,7.07649,245.5,-4.2,-1.6,20.5,18.34144175101602,48.55558503352026,1.8002111101450566
8.899999999999977,90.3857,6.94648,245.6,-2.1,-2.0,20.2,18.594927405575866,49.15105843099087,2.1002164035800126
9.0,89.7197,6.58275,245.5,-1.2,-4.2,20.0,18.859139500525686,49.76379962431624,2.300221928798977
9.100000000000023,89.1344,6.43872,245.8,-2.0,-4.9,19.9,19.11635586149361,50.29025918302496,2.400226822217748
9.199999999999932,88.491,6.22545,246.4,-1.5,-0.5,19.7,19.357737525799138,50.8886810715709,2.6002322953560526
9.299999999999955,87.8881,6.19902,246.0,-0.9,0.0,19.7,19.5823457522149,51.45019515131848,2.600237484897667
9.399999999999977,87.2574,6.19876,245.2,1.1,-0.5,19.7,19.811791284914094,52.0402637871865,2.6002429777595513
9.5,86.6584,6.33589,244.7,1.1,-0.4,19.7,20.031325511208003,52.59996788858969,2.600248252391859
9.600000000000023,86.0253,6.43079,244.3,0.9,0.0,19.9,20.25570348737459,53.19507855656404,2.40025389458107
9.699999999999932,85.43,6.49193,244.2,-0.1,0.2,20.1,20.479633412426196,53.74862888816024,2.2002592493909994
9.799999999999955,84.8108,6.48544,244.1,-0.7,0.1,20.3,20.713650940200488,54.32376887247872,2.0002648756525705
9.899999999999977,84.2256,6.40561,244.1,-1.1,-0.1,20.5,20.933417052161694,54.868139626251065,1.8002702514695557
10.0,83.608,6.10993,244.1,-2.0,-0.5,20.7,21.145537648429553,55.452108071800254,1.6002759985262802
10.100000000000023,83.0335,5.9818,244.1,-4.1,-1.0,20.9,21.357961438441166,55.98810114007601,1.4002813856997829
10.199999999999932,82.4453,5.77739,244.1,-7.9,-1.1,21.0,21.575892498984807,56.5367019206747,1.3002869575449196
10.299999999999955,81.9036,5.49078,244.1,-24.2,0.8,21.1,21.77780362828191,57.04129098285324,1.2002921353815559
10.399999999999977,81.3364,5.28309,243.7,-29.8,1.9,21.1,21.98593870272196,57.571264359469254,1.2002976090477215
10.5,80.8271,5.24598,243.7,-25.8,0.1,21.1,22.180015765173653,58.04374674803632,1.2003025617000702
10.600000000000023,80.3116,5.17692,243.6,-27.5,0.3,21.0,22.37836040415567,58.52106237991904,1.3003076138921745
10.699999999999932,79.8456,4.93337,243.6,-29.7,1.5,20.8,22.555685782547098,58.953517663823966,1.5003122196683343
10.799999999999955,79.3682,4.58634,243.6,-28.4,1.5,20.6,22.730416437578377,59.399910379014756,1.7003169796515394
10.899999999999977,78.985,4.19842,243.7,-28.3,1.3,20.4,22.86933916410682,59.75879898395057,1.9003208275235295
11.0,78.6417,3.58385,243.6,-28.5,1.8,20.2,22.990230843383664,60.08209178546319,2.100324297521711
11.100000000000023,78.3676,3.14421,243.6,-28.3,2.1,20.0,23.089915652821738,60.33870640730068,2.300327079012817
11.199999999999932,78.1417,2.6164,243.6,-28.5,1.7,19.8,23.179119734652026,60.54681874093059,2.5003293733548784
11.299999999999955,78.0261,2.07321,243.6,-28.9,0.8,19.6,23.223069832249934,60.65407001895554,2.700330552588156
11.399999999999977,77.9265,1.42861,243.7,-28.3,0.6,19.5,23.261527157797005,60.74631566032224,2.8003315710702186
11.5,77.8676,0.868612,243.7,-24.0,0.6,19.3,23.28178256955571,60.802009969159855,3.0003321749292446
11.600000000000023,77.8165,0.422271,243.7,-17.9,0.3,19.3,23.294398691042787,60.85272693596775,3.000332703395742
11.699999999999932,77.8017,0.21568,243.8,-12.3,0.3,19.2,23.289746253950746,60.87140600678076,3.1003328657853046
11.799999999999955,77.7829,0.67668,243.9,-8.5,0.8,19.2,23.282600525219145,60.89589014154498,3.100333071784588
11.899999999999977,77.7706,1.26622,243.8,-6.3,0.9,19.3,23.27760205867635,60.91198983183716,3.0003332072744584
12.0,77.7633,1.80272,244.0,-5.5,0.1,19.4,23.275331279888643,60.921155153282726,2.9003332869227787
12.100000000000023,77.7462,2.2587,243.9,-4.9,-0.5,19.5,23.25901448839908,60.9482139475999,2.8003334845208023
12.199999999999932,77.7425,2.52327,243.9,-3.9,-0.7,19.8,23.246726353480902,60.9582289391403,2.5003335359764787
12.299999999999955,77.735,2.69315,244.0,-3.8,-0.3,20.0,23.234949334501962,60.97239747996248,2.3003336273460864
12.399999999999977,77.7228,2.76391,243.9,-4.4,0.1,20.3,23.223481895072176,60.99154627763759,2.0003337687090657
12.5,77.7677,2.57392,243.9,-4.5,0.4,20.5,23.15654590326312,60.97419742782175,1.8003333591985236
12.600000000000023,77.7606,2.08051,243.9,-5.4,0.2,20.8,23.140729655244655,60.98981033332696,1.5003334507588537
12.699999999999932,77.7462,1.42363,243.9,-7.2,-0.2,21.1,23.130787907209992,61.01073853286491,1.2003336142522887
12.799999999999955,77.7178,0.840849,243.8,-6.6,0.0,21.2,23.129875369306927,61.04280709805788,1.1003339180048854
12.899999999999977,77.6895,0.430975,243.9,-4.2,0.5,21.3,23.129274897728976,61.074608356632,1.0003342195671472
13.0,77.6605,0.727328,243.9,-3.8,0.8,21.3,23.126584925564714,61.108211001876384,1.000334529905576
13.100000000000023,77.6282,1.32155,244.0,-3.6,0.8,21.3,23.12917129289344,61.14295915329667,1.0003348720219911
13.199999999999932,77.584,1.58619,244.0,0.2,0.8,21.1,23.140226284315318,61.18686206204838,1.2003353336247375
13.299999999999955,77.5281,1.75642,244.2,6.5,1.2,21.0,23.157029043143726,61.24094594742037,1.3003359133297252
13.399999999999977,77.4441,1.82024,244.0,5.5,0.7,20.8,23.19106489153733,61.31786328226434,1.500336776788611
13.5,77.3588,1.90978,243.8,3.3,0.4,20.6,23.220835786176636,61.39840819246919,1.7003376598360944
13.600000000000023,77.2547,1.95778,243.9,3.2,1.3,20.4,23.260957165465722,61.49476918217924,1.90033873330289
13.699999999999932,77.1449,2.02026,243.9,1.8,0.4,20.3,23.30633215333962,61.59497248182855,2.000339865473526
13.799999999999955,77.0054,2.11193,243.9,2.2,-0.1,20.1,23.374462173946476,61.717085105084216,2.2003412955410706
13.899999999999977,76.8729,2.1507,244.0,2.0,0.2,19.9,23.43048782490063,61.83735728869313,2.400342664763473
14.0,76.7181,2.13232,244.1,1.5,0.4,19.8,23.493853458296,61.97888404230033,2.500344273041353
14.100000000000023,76.5581,2.14237,244.3,3.4,0.4,19.6,23.56212232015295,62.12376241056871,2.7003459323279433
14.199999999999932,76.3466,2.03455,244.3,2.2,0.0,19.5,23.658359850748326,62.31247007583723,2.8003481287488476
14.299999999999955,76.1612,1.97747,244.5,3.2,-0.2,19.3,23.7411546470371,62.47851797056561,3.0003500609461558
14.399999999999977,75.9636,1.97902,244.2,0.6,-1.4,19.3,23.825623327198375,62.65745900290811,3.000352130137715
14.5,75.7653,2.08655,244.0,-1.8,-0.3,19.2,23.910955616118862,62.83665869060819,3.1003542115710054
14.600000000000023,75.5423,2.36815,244.0,-0.2,0.0,19.2,24.009996475188697,63.03676162904367,3.10035655747118
14.699999999999932,75.3278,2.67702,244.0,2.4,-0.2,19.3,24.11852692927199,63.22266074244449,3.0003588074388183
14.799999999999955,75.0768,2.92563,244.0,3.5,0.0,19.5,24.23633059915373,63.44478289030311,2.8003614595063677
14.899999999999977,74.8246,3.12738,244.0,3.2,0.1,19.6,24.353382628445505,63.66863000434208,2.7003641355451045
15.0,74.5468,3.23824,243.9,3.0,-0.3,19.8,24.478346813155657,63.917030888664016,2.5003670969245473
15.100000000000023,74.2767,3.37783,243.9,3.3,-0.8,19.9,24.625453183265602,64.1461320441175,2.4003699623302897
15.199999999999932,73.98,3.48784,244.0,3.3,-0.2,20.2,24.75704654554877,64.41240439063395,2.1003731551135782
15.299999999999955,73.682,3.5879,244.0,3.0,0.5,20.3,24.888451339170658,64.68020212178642,2.00037637602248
15.399999999999977,73.3484,3.64582,243.9,2.9,0.4,20.5,25.034639719878587,64.98053421473296,1.8003800006973378
15.5,73.02,3.56686,244.0,2.5,0.0,20.7,25.189499630337103,65.27074729380342,1.6003835727860096
15.600000000000023,72.6732,3.46491,244.0,1.2,-0.2,20.8,25.34372069333668,65.58177007133347,1.50038737381273
15.699999999999932,72.3398,3.42105,244.0,1.5,-0.1,20.9,25.49074670654172,65.88145965131885,1.4003910454690054
15.799999999999955,71.9885,3.47386,244.0,1.2,0.0,20.9,25.6437306995198,66.19812511402135,1.4003949364778716
15.899999999999977,71.6502,3.70571,244.0,0.3,-0.1,20.9,25.785638977140234,66.50570265884205,1.400398707795981
16.0,71.2966,3.91488,244.0,2.0,-0.1,20.8,25.931043318573007,66.82868286487653,1.5004026741623715
16.100000000000023,70.9591,4.18632,244.0,2.6,0.5,20.6,26.071592697235456,67.13602155051579,1.700406471971796
16.199999999999932,70.6036,4.34336,244.0,2.4,0.6,20.3,26.22361908181325,67.45788837974402,2.0004104912148826
16.299999999999955,70.2666,4.50114,244.0,0.1,-0.1,20.1,26.367332509188465,67.76311917889728,2.2004143187184724
16.399999999999977,69.9499,4.48149,244.1,-2.3,0.0,19.8,26.505295157705525,68.04859975542979,2.5004179280924443
16.5,69.6163,4.47808,244.4,-4.0,0.4,19.5,26.648089262187817,68.35045007338718,2.800421750211731
16.600000000000023,69.2522,4.3885,244.2,-0.9,-2.7,19.2,26.80317284046707,68.68040427121741,3.100425941990533
16.699999999999932,68.8984,4.36331,244.1,2.8,2.7,18.9,26.955930255265542,69.000029464846,3.4004300346122847
16.799999999999955,68.4852,4.34475,243.6,1.9,5.4,18.7,27.149156664598163,69.36594681816433,3.600434823452046
16.899999999999977,68.1133,4.17767,244.0,0.0,0.0,18.4,27.317312607911482,69.69816515598202,3.9004391627491284
17.0,67.7148,3.92988,244.3,-1.4,-2.0,18.2,27.4936003783454,70.05605229125578,4.100443839647117
17.100000000000023,67.337,3.91116,244.1,0.6,0.3,18.1,27.659124855161753,70.39612355700429,4.200448299090461
17.199999999999932,66.9562,3.95747,244.0,2.8,-0.6,18.0,27.825400651242244,70.73909684615062,4.3004528159767315
17.299999999999955,66.5676,4.11397,244.4,3.0,-0.5,17.9,27.993060600283158,71.09014999033565,4.400457451073924
17.399999999999977,66.1378,4.35039,244.5,3.7,0.2,18.0,28.179298674695197,71.4780382458998,4.300462606321174
17.5,65.7211,4.62797,244.6,4.6,0.3,18.0,28.358572410553123,71.85473728787784,4.300467631628372
17.600000000000023,65.3118,4.87364,244.6,4.8,0.5,18.1,28.545264021021563,72.21956192315253,4.200472583818762
17.699999999999932,64.8697,5.08015,244.7,4.5,0.6,18.3,28.73697261835119,72.61858212036799,4.0004779746520125
17.799999999999955,64.3695,5.19936,244.7,4.2,0.8,18.5,28.95719287788077,73.06824275637206,3.8004841048281417
17.899999999999977,63.8873,5.29526,244.7,3.9,0.4,18.7,29.168550795809665,73.5022935294321,3.600490052582913
18.0,63.3776,5.30504,244.7,3.9,0.1,18.9,29.38969874803464,73.96211513021879,3.400496382040913
18.100000000000023,62.8317,5.3196,244.8,4.2,0.2,19.1,29.63554977856957,74.45020091990332,3.200503198537243
18.199999999999932,62.3009,5.20806,244.6,4.6,-0.2,19.3,29.86465578898264,74.92971054784526,3.000509879838468
18.299999999999955,61.7976,5.1595,244.6,4.6,-0.5,19.4,30.079871086919084,75.38529635025044,2.900516257484135
18.399999999999977,61.2764,5.12248,244.5,2.6,-0.3,19.5,30.299484458992936,75.85874113287204,2.8005229084730416
18.5,60.7807,5.1802,244.5,-1.4,-0.6,19.5,30.496963222215822,76.31464662024936,2.800529286785409
18.600000000000023,60.2703,5.32723,244.5,-4.4,-0.8,19.4,30.719855220612576,76.77438061883736,2.9005358730885575
18.699999999999932,59.7895,5.46352,244.6,-5.7,-0.3,19.3,30.927504624747208,77.20863401174975,3.0005421171347137
18.799999999999955,59.2924,5.50417,244.7,-7.0,-0.6,19.1,31.13748555025118,77.65995853586506,3.2005486162007344
18.899999999999977,58.8634,5.47527,244.7,-8.9,0.0,18.8,31.323008261994122,78.04730725177437,3.5005542513600005
19.0,58.3796,5.25687,244.4,-9.7,0.5,18.5,31.527859639284717,78.48625100248732,3.800560645657699
19.100000000000023,57.9333,5.03578,244.3,-10.2,0.0,18.3,31.717084520021672,78.8910092397316,4.000566575965161
19.199999999999932,57.4806,4.71939,244.3,-9.7,0.1,18.0,31.909418113821832,79.30151298030489,4.300572624752723
19.299999999999955,57.0869,4.54069,244.3,-8.4,0.6,17.8,32.08453865235056,79.6545920026073,4.500577902483535
19.399999999999977,56.6826,4.15354,244.4,-7.8,0.3,17.6,32.26013606423652,80.01922569767247,4.700583351961992
19.5,56.3071,3.87314,244.4,-7.6,0.0,17.4,32.42332551298777,80.35790910341504,4.900588435275111
19.600000000000023,55.9133,3.70567,244.4,-5.9,0.0,17.3,32.59376551532169,80.71339878674998,5.0005937923323565
19.699999999999932,55.5475,3.71816,244.3,-3.9,0.3,17.3,32.75086908133614,81.04418047326641,5.00059878916379
19.799999999999955,55.1656,3.85914,244.3,-2.5,0.6,17.3,32.91562432060472,81.38919354558293,5.000604030583075
19.899999999999977,54.8047,4.07347,244.3,-2.0,0.6,17.4,33.069285498795736,81.71626114790331,4.900609005263371
20.0,54.4216,4.27651,244.3,-1.9,0.5,17.6,33.230935565161396,82.06409864815542,4.700614311098208
20.100000000000023,54.059,4.54439,244.4,-1.9,0.4,17.8,33.383879266248,82.39348919206694,4.500619355180504
20.199999999999932,53.6747,4.68392,244.4,-1.4,0.5,18.1,33.53881027047605,82.74591787753636,4.2006247300532085
20.299999999999955,53.3136,4.74981,244.5,-1.9,0.8,18.4,33.68817727819768,83.0753059486002,3.9006297960268057
20.399999999999977,52.9364,4.72817,244.4,-2.9,0.4,18.7,33.836741159043235,83.42311437430976,3.6006351210148413
20.5,52.5853,4.51765,244.4,-3.7,0.0,18.9,33.974248887037035,83.7471783235634,3.4006400969348825
20.600000000000023,52.2761,4.19024,244.3,-4.9,-0.4,19.2,34.05109943927327,84.0543435558667,3.100644544787931
20.699999999999932,51.9342,3.89932,244.2,-6.1,0.0,19.4,34.18418899809011,84.37038113668437,2.900649428318612
20.799999999999955,51.5569,3.73699,244.2,-6.5,0.5,19.6,34.34032882304214,84.71458361162716,2.700654829016379
20.899999999999977,51.2017,3.73022,244.2,-6.8,0.2,19.6,34.48730752057238,85.038530320483,2.700659931079839
21.0,50.8219,3.77266,244.2,-7.7,-0.2,19.6,34.656265777905205,85.37918647305737,2.70066539544775
21.100000000000023,50.4766,4.0511,244.1,-7.6,0.2,19.5,34.797233601539354,85.69505196983698,2.8006703983816923
21.199999999999932,50.1195,4.22476,244.2,-6.2,0.9,19.3,34.940412932522136,86.02303974859535,3.000675595032151
21.299999999999955,49.7846,4.37694,244.4,-6.1,2.5,19.1,35.07803545278096,86.32906367316718,3.2006804848510484
21.399999999999977,49.4377,4.41519,244.4,-7.2,1.1,18.8,35.22438973679112,86.64407482475981,3.5006855612751746
21.5,49.1201,4.3718,244.7,-6.0,-1.3,18.5,35.35619488934388,86.93361685011638,3.800690228914755
21.600000000000023,48.7848,4.3019,244.7,-5.7,-1.6,18.2,35.4910457819436,87.24145311912807,4.100695179754441
21.699999999999932,48.4723,4.14498,244.8,-5.2,1.1,17.9,35.61953510567961,87.52687496690814,4.400699804652133
21.799999999999955,48.1519,3.90602,244.6,-4.4,1.7,17.7,35.75830318541979,87.81603634849584,4.600704555894508
21.899999999999977,47.8572,3.7211,244.7,-6.1,0.2,17.4,35.89213076962264,88.07905127677262,4.900708932616357
22.0,47.5418,3.4442,244.3,-5.7,1.8,17.2,36.02348278465426,88.36631489765838,5.1007136457296784
22.100000000000023,47.2415,3.27624,244.1,-3.7,0.7,17.0,36.14983861267359,88.63922488805109,5.300718146647929
22.199999999999932,46.9226,3.13136,244.1,-3.2,-0.2,16.9,36.28364156277966,88.92917420800569,5.400722941055536
22.299999999999955,46.6122,3.20244,244.8,-0.3,0.4,16.8,36.40423488665529,89.21632086567018,5.500727637354887
22.399999999999977,46.2802,3.4005,245.5,2.2,0.6,16.8,36.54727931065207,89.51632933048785,5.500732657590463
22.5,45.948,3.72696,245.7,3.3,0.2,16.8,36.68778240167308,89.81790719558003,5.500737703925868
22.600000000000023,45.5787,4.02051,245.7,5.0,0.7,16.9,36.84061468314083,90.15480722475314,5.400743335296482
22.699999999999932,45.2194,4.27089,245.7,5.7,1.1,17.0,36.991730492737354,90.48128665175886,5.300748832041826
22.799999999999955,44.816,4.40678,245.6,4.9,0.9,17.2,37.16106160030958,90.84810568629476,5.100755030326516
22.899999999999977,44.4269,4.3963,245.5,3.8,0.8,17.4,37.32339122378245,91.20245747576396,4.900761033215607
23.0,44.017,4.33453,245.5,3.7,0.7,17.6,37.49265742332815,91.57658126542233,4.700767384822678
23.100000000000023,43.6207,4.32936,245.5,4.4,0.6,17.7,37.658620166849516,91.93717481008632,4.600773549783675
23.199999999999932,43.2292,4.28682,245.5,3.2,0.4,17.8,37.83468762184459,92.2873514694931,4.500779647152335
23.299999999999955,42.8251,4.31549,245.5,0.6,0.2,17.8,38.00673959243531,92.65353756035024,4.5007859780725585
23.399999999999977,42.3968,4.43876,245.4,-2.2,0.0,17.8,38.18530053690202,93.04368450424839,4.500792721639055
23.5,41.9983,4.61968,245.5,-5.9,0.0,17.7,38.349719151925406,93.40745590724671,4.600799023236739
23.600000000000023,41.6348,4.86453,245.5,-17.0,-0.2,17.5,38.48414479054382,93.74712772881674,4.800804815372295
23.699999999999932,41.2565,4.98417,245.4,-23.9,0.0,17.3,38.63295183892034,94.09622336470132,5.000810854565049
23.799999999999955,40.8587,4.81114,245.5,-22.7,0.4,17.0,38.78632541177913,94.4647420155614,5.300817230507519
23.899999999999977,40.5125,4.60665,245.7,-23.5,0.5,16.7,38.92057111017674,94.78520915552852,5.6008228000859965
24.0,40.1271,4.21829,245.6,-24.7,-0.8,16.3,39.05659511565966,95.14875093284894,6.000829042885464
24.100000000000023,39.8626,3.84194,245.4,-25.7,-0.6,15.9,39.158366630097106,95.39399674734949,6.400833329226469
24.199999999999932,39.6456,3.36676,245.4,-27.9,1.1,15.6,39.24219418605433,95.59501484924162,6.700836852915836
24.299999999999955,39.4985,2.80511,245.5,-30.5,1.0,15.4,39.303507737725226,95.72895939005957,6.900839238618717
24.399999999999977,39.4846,2.07401,245.7,-29.7,-0.5,15.1,39.330910444835034,95.73073403066292,7.200839435246673
24.5,39.4618,1.3398,245.8,-22.1,-0.2,14.9,39.34314521417192,95.75012493245137,7.4008398023564865
24.600000000000023,39.4652,0.675057,245.9,-12.7,0.8,14.7,39.34057513443983,95.74752539344716,7.600839746935227
24.699999999999932,39.4716,0.0643308,245.9,-6.8,1.1,14.6,39.33502508471071,95.74317471335655,7.700839647538105
24.799999999999955,39.4672,0.588763,246.0,-3.8,0.5,14.6,39.329796509107894,95.7507926141988,7.700839729446701
24.899999999999977,39.4781,1.23476,245.9,-2.7,0.1,14.6,39.30015980732195,95.75356510950093,7.7008395882988285
25.0,39.4553,1.82853,245.9,-2.2,0.0,14.8,39.30250326976707,95.77798720122394,7.500839968619429
25.100000000000023,39.4292,2.39817,245.8,-1.4,-0.1,14.9,39.303477939179004,95.80682196082032,7.400840406865738
25.199999999999932,39.4003,2.85212,245.6,-1.3,-0.2,15.1,39.30062173356529,95.84074446408555,7.200840897724566
25.299999999999955,39.3966,3.08482,245.5,-0.7,-0.7,15.4,39.257952328520844,95.86662333774953,6.900841023473083
25.399999999999977,39.3547,3.21718,245.6,-0.2,-0.3,15.7,39.251210449062754,95.91715391610312,6.600841740881265
25.5,39.301,3.20672,245.6,-0.7,0.4,16.0,39.251078519708216,95.97760481243358,6.300842647510851
25.600000000000023,39.2274,2.8797,245.6,-1.7,0.7,16.3,39.260986526774374,96.05531893855158,6.000843877790377
25.699999999999932,39.1807,2.26147,245.5,-3.1,0.4,16.6,39.235052361956505,96.12113506110589,5.700844709369154
25.799999999999955,39.1049,1.69367,245.5,-3.1,0.2,16.8,39.247138486331465,96.20029104223872,5.500845975814723
25.899999999999977,39.0268,1.31022,245.6,-1.3,0.7,17.0,39.26143370100438,96.28094385980935,5.300847279266133
26.0,38.9355,1.0628,245.7,1.0,1.5,17.0,39.28166438829568,96.37332394286636,5.300848798119539
26.100000000000023,38.8595,1.20233,245.8,1.6,1.7,17.1,39.282376673028196,96.45859192215192,5.200850090809261
26.199999999999932,38.7603,1.65564,245.7,2.3,1.9,17.0,39.30322085683858,96.559615512112,5.300851745954645
26.299999999999955,38.6632,2.14626,245.8,2.0,2.1,16.9,39.32376594241235,96.65855802605432,5.400853370742638
26.399999999999977,38.5545,2.44377,245.9,1.3,1.8,16.7,39.347806893311514,96.76863748064974,5.600855186981292
26.5,38.4394,2.68657,246.0,4.7,2.1,16.5,39.380282483199615,96.88164942694975,5.800857102496597
26.600000000000023,38.2982,2.82021,246.0,2.2,2.0,16.2,39.432819830331724,97.01371381599931,6.100859432832962
26.699999999999932,38.1623,2.94012,246.0,1.9,2.0,16.0,39.48373526237484,97.14052169967337,6.300861679049508
26.799999999999955,38.013,2.99888,245.9,3.2,1.5,15.7,39.543447420579454,97.27794330644319,6.600864141643079
26.899999999999977,37.8594,3.03337,245.7,2.4,1.1,15.4,39.60525598768475,97.41909170571091,6.900866677348937
27.0,37.6783,2.87862,245.8,5.4,1.3,15.2,39.68076334836775,97.5841871146402,7.100869671040188
27.100000000000023,37.4818,2.76202,246.3,8.4,-0.2,15.0,39.759093966735975,97.7652551442265,7.300872930810753
27.199999999999932,37.2493,2.5612,246.3,4.5,-0.9,14.8,39.852197761374796,97.97923822807253,7.500876794811017
27.299999999999955,37.0168,2.44028,245.8,-0.9,0.3,14.6,39.944719301160205,98.19348858569657,7.700880666924203
27.399999999999977,36.7578,2.47377,245.6,-0.2,0.6,14.5,40.05682852637766,98.42746649471661,7.800884975714066
27.5,36.5054,2.74609,244.9,1.8,1.0,14.6,40.159935137185734,98.65867535315053,7.700889195299034
27.600000000000023,36.2242,3.08371,243.7,2.1,0.9,14.6,40.27596636319506,98.9157125798503,7.700893908113748
27.699999999999932,35.9401,3.52007,242.4,2.2,0.6,14.7,40.393901017246755,99.17493932479593,7.600898676529926
27.799999999999955,35.6137,3.95851,241.2,2.7,0.6,14.9,40.541960273993766,99.46619663810935,7.400904150073568
27.899999999999977,35.2986,4.39245,240.0,2.7,1.0,15.2,40.6759234305225,99.7522262798672,7.1009094682429925
28.0,34.9574,4.74788,238.8,2.4,1.4,15.4,40.82271147954783,100.06088440465044,6.900915240287286
28.100000000000023,34.6223,5.12043,237.6,2.5,1.4,15.7,40.970787419480004,100.36202171190594,6.60092092060761
28.199999999999932,34.2599,5.3424,236.4,2.9,1.2,16.1,41.136068670356245,100.68495436566404,6.20092707336353
28.299999999999955,33.9231,5.19153,235.4,2.5,1.4,16.5,41.29977631332231,100.97978120556114,5.800932790993851
28.399999999999977,33.5419,4.84635,235.2,0.9,1.7,16.9,41.46562419445287,101.32379759541993,5.400939321316759
28.5,33.1802,4.46861,235.2,0.6,1.6,17.2,41.62209177090844,101.65051866437955,5.1009455373763295
28.600000000000023,32.8055,4.16554,235.2,2.4,1.6,17.5,41.78146929522528,101.99055090600379,4.800952006985238
28.699999999999932,32.469,3.93958,235.2,3.4,2.0,17.6,41.89991762888637,102.30902130663856,4.700957882870341
28.799999999999955,32.081,3.8977,235.1,2.3,2.0,17.7,42.06975273114108,102.65859453146051,4.600964615901738
28.899999999999977,31.7126,4.02833,235.2,2.9,1.7,17.7,42.230305737337815,102.99086665253299,4.600971031665242
29.0,31.3285,4.16935,235.3,4.9,1.7,17.6,42.39569682436819,103.33839570901989,4.700977749360508
29.100000000000023,30.9719,4.49401,235.3,5.9,2.0,17.5,42.53921231999397,103.666431678094,4.8009840261998455
29.199999999999932,30.5658,4.72692,235.4,7.6,2.4,17.2,42.72283678008992,104.02912611372341,5.100991157723428
29.299999999999955,30.1723,4.94918,235.4,7.0,3.1,17.0,42.90394641313857,104.37893291409455,5.3009980874929745
29.399999999999977,29.753,4.9864,235.0,4.2,3.4,16.7,43.101478381778946,104.74923350214213,5.601005488902761
29.5,29.3537,4.99321,234.5,1.3,3.9,16.4,43.296832840466166,105.09804563248213,5.901012549762211
29.600000000000023,28.9266,4.99038,234.5,3.1,1.4,16.1,43.49870786949808,105.47490429139313,6.201020144302632
29.699999999999932,28.5182,5.01075,234.8,4.9,0.4,15.8,43.69232581424846,105.83496364839777,6.501027430681489
29.799999999999955,28.0953,4.93628,234.6,2.6,3.7,15.6,43.898119686062785,106.20491431697181,6.701034992928278
29.899999999999977,27.68,4.76174,234.9,2.1,3.4,15.4,44.10321131849727,106.56657696557934,6.901042438609686
30.0,27.2404,4.57326,235.4,1.7,3.0,15.2,44.320735482732815,106.94933266488816,7.101050353903716
30.100000000000023,26.7888,4.58537,235.9,2.4,3.4,15.0,44.54893087330397,107.33990843069569,7.301058503374726
30.199999999999932,26.2983,4.62815,235.7,2.7,3.3,15.0,44.80301191208903,107.76084979945944,7.301067381382861
30.299999999999955,25.826,4.79215,235.6,2.8,2.3,14.9,45.0510919205399,108.16445366926351,7.40107595977636
30.399999999999977,25.2887,4.95601,235.5,2.5,1.9,15.0,45.338504395477614,108.62098445284393,7.301085755593139
30.5,24.81,5.14005,235.4,2.1,1.3,15.1,45.59438913389032,109.02773228241017,7.201094519872708
30.600000000000023,24.3065,5.25066,235.4,1.3,1.2,15.2,45.86478259928583,109.45508058372658,7.10110377660742
30.699999999999932,23.8303,5.32829,235.5,0.2,1.5,15.4,46.1183709031755,109.86050895266732,6.901112575745934
30.799999999999955,23.3553,5.25147,235.8,-0.6,2.1,15.6,46.37160526221254,110.26477843155754,6.701121388531455
30.899999999999977,22.887,5.13146,235.9,-1.3,2.1,15.8,46.620271919753954,110.66393504065476,6.501130114208024
31.0,22.3965,4.98917,236.0,-1.8,1.7,16.0,46.88382942716668,111.08053424143236,6.301139288509155
31.100000000000023,21.934,4.9743,236.1,-2.2,1.4,16.1,47.12950900315488,111.47482823590184,6.201147977781503
31.199999999999932,21.4739,4.87388,236.1,-2.2,1.1,16.2,47.359713645227785,111.87446442689901,6.101156681018729
31.299999999999955,21.0182,4.81687,236.4,-2.0,0.9,16.3,47.59249645059033,112.26786884434992,6.001165325252188
31.399999999999977,20.5436,4.76962,236.7,-2.2,0.9,16.4,47.82940432976466,112.68035982297454,5.901174369748162
31.5,20.0932,4.74906,236.9,-3.1,0.7,16.4,48.053959836330755,113.07204806648312,5.9011829895493975
31.600000000000023,19.6182,4.81576,237.6,-3.9,1.2,16.4,48.29262458087166,113.48426421144984,5.901192112337345
31.699999999999932,19.1809,5.00364,238.1,-4.4,1.9,16.3,48.48716625667706,113.87643400587609,6.0012005769347105
31.799999999999955,18.7085,5.25157,238.5,-4.7,1.3,16.1,48.72399098890308,114.28668958313203,6.201209719855438
31.899999999999977,18.268,5.47411,238.7,-4.9,1.1,15.9,48.943686116436155,114.66986473503076,6.40121827890049
32.0,17.8222,5.46718,239.0,-6.0,2.3,15.6,49.16514100765026,115.05820251484215,6.7012269748883995
32.10000000000002,17.4219,5.5319,239.3,-6.6,4.3,15.3,49.358970571392625,115.40933627187158,7.001234815323816
32.19999999999993,16.973,5.41637,239.4,-5.2,2.1,14.9,49.591037978533095,115.79592409690537,7.401243622038066
32.299999999999955,16.5531,5.28634,239.1,-5.4,-0.2,14.6,49.80888707122567,116.15724801400157,7.701251890384839
32.39999999999998,16.1204,4.92992,238.4,-5.7,2.6,14.3,50.03722680310084,116.52773702452274,8.001260434859937
32.5,15.6971,4.64017,237.8,-3.3,2.2,14.0,50.26726401121484,116.88714859338094,8.30126882071303
32.60000000000002,15.2943,4.36999,238.0,-1.2,-1.5,13.7,50.483829194169296,117.23054371470411,8.601276833519965
32.69999999999993,14.9103,4.16329,239.0,-3.3,-1.7,13.5,50.68377500953092,117.56110410756696,8.801284504908413
32.799999999999955,14.5089,3.95736,239.8,-5.1,0.7,13.4,50.89012436119235,117.90796440391796,8.90129254988987
32.89999999999998,14.2126,3.84354,241.0,-4.9,1.7,13.3,51.04355149700581,118.16363845218763,9.001298508357195
33.0,13.8472,3.77765,242.1,-4.2,2.0,13.3,51.22891410625176,118.48073300330321,9.00130587564719
33.10000000000002,13.4928,3.93456,242.8,-3.6,1.6,13.4,51.410438273194686,118.78764943320459,8.901313044841782
33.19999999999993,13.0974,4.1363,243.2,-2.6,1.2,13.5,51.61422183321392,119.12954654099309,8.801321066794223
33.299999999999955,12.7246,4.27121,243.5,-2.1,1.0,13.6,51.80554940370571,119.45257103584257,8.701328660685693
33.39999999999998,12.296,4.13445,243.7,-2.2,0.6,13.8,52.002477758850134,119.83438069970751,8.501337424195338
33.5,11.9295,3.95946,243.7,-3.3,0.1,14.0,52.18674082003706,120.15383403478172,8.301344938291546
33.60000000000002,11.5498,3.83203,243.7,-3.9,0.1,14.2,52.376245699121526,120.48551594508078,8.101352748402725
33.69999999999993,11.2056,3.55264,243.9,-13.3,-0.3,14.2,52.54659010998125,120.78694921209774,8.101359849926556
33.799999999999955,10.9009,3.17985,244.1,-27.5,-1.3,14.3,52.6780488545089,121.06242977730079,8.001366155945867
33.89999999999998,10.6317,2.7308,244.2,-28.1,-1.7,14.3,52.80464464390455,121.30114336907666,8.001371739373042
34.0,10.3995,2.17673,244.2,-27.3,-1.8,14.3,52.9029278771591,121.5119309686766,8.001376563903193
34.10000000000002,10.212,1.75208,244.3,-28.4,-1.5,14.3,52.9804061865902,121.68292372799192,8.001380466816407
34.19999999999993,10.0537,1.34048,244.2,-28.6,-1.4,14.3,53.01612410657866,121.84039772264842,8.001383767325816
34.299999999999955,9.9343,0.972192,244.0,-26.4,-1.3,14.2,53.06164705494862,121.95096463092196,8.10138625878842
34.39999999999998,9.84916,0.660681,243.8,-22.5,-0.5,14.2,53.087384245813915,122.03278732350844,8.101388037321609
34.5,9.79371,0.452161,243.6,-18.3,0.1,14.2,53.09947013133113,122.08815682470191,8.10138919658753
34.60000000000002,9.77493,0.328855,243.5,-15.5,-0.2,14.2,53.07491075035311,122.11968236708665,8.101389593562597
