time,distance(meters),speed(m/s), compass_heading(degrees), pitch(degrees), roll(degrees),height_above_takeoff(meters),North,East,Down
0.0,7.09613,0.540225,240.6,-12.3,12.2,10.1,0.0,0.0,0.0
0.09999999999999432,7.09389,1.02834,239.3,-15.6,21.6,10.1,0.06517820807836365,-0.048138868820830336,7.349158052949445e-10
0.19999999999998863,7.11368,1.54189,238.7,-17.5,23.6,10.2,0.1505114270504362,-0.13780253458661462,-0.0999999973603227
0.29999999999998295,7.15819,2.00954,238.2,-19.2,21.0,10.2,0.2657666952191245,-0.2766503698574533,-0.0999999893567681
0.4000000000000057,7.22568,2.4003,238.3,-19.6,18.0,10.1,0.38745229119148084,-0.4423815937827844,2.7041298727992213e-08
0.5,7.33059,2.60043,239.0,-19.0,17.7,10.1,0.506602319641048,-0.6446425938830739,5.301950942171452e-08
0.5999999999999943,7.446,2.97277,239.3,-19.3,20.0,10.1,0.6510803800101492,-0.8670731788304439,9.194704547743626e-08
0.6999999999999886,7.59444,3.35306,239.6,-19.6,20.9,10.1,0.8218790223565168,-1.132670982257983,1.5402333469749507e-07
0.799999999999983,7.76831,3.73068,239.6,-19.7,20.6,10.1,1.0063828304754487,-1.4221231697374397,2.3770323820393457e-07
0.9000000000000057,7.97985,4.10958,239.7,-19.9,19.7,10.1,1.2297377828144525,-1.7576947011170376,3.598865043752397e-07
1.0,8.22568,4.40648,240.2,-19.2,17.4,10.1,1.447463728221389,-2.1125012481500915,5.138113929881172e-07
1.0999999999999943,8.52123,4.6125,240.7,-17.8,14.6,10.1,1.6851955192136896,-2.5125994774520337,7.166354331067382e-07
1.1999999999999886,8.833,4.81488,241.0,-16.7,12.8,10.1,1.9177300988648451,-2.9128542591778688,9.533570214381726e-07
1.299999999999983,9.20298,4.97149,241.1,-16.7,12.0,10.1,2.1705672632572934,-3.3651527049888035,1.2571126081217798e-06
1.4000000000000057,9.57089,5.14539,241.2,-17.6,12.3,10.1,2.410964727903944,-3.7986929510686425,1.5865900859779458e-06
1.5,9.98575,5.3388,241.2,-17.8,12.3,10.1,2.6672477342814114,-4.271559494112385,1.9892114262454186e-06
1.5999999999999943,10.4066,5.46407,241.4,-16.7,11.8,10.1,2.917785777734308,-4.738269704846843,2.4286548274687902e-06
1.6999999999999886,10.8725,5.60873,241.2,-15.9,11.2,10.1,3.1872662504512164,-5.242991685623216,2.9514867665447753e-06
1.799999999999983,11.3488,5.685,241.5,-14.7,9.5,10.1,3.444257184479437,-5.747481688795419,3.520266667722538e-06
1.9000000000000057,11.8453,5.55018,242.4,-12.6,2.8,10.1,3.714644493098835,-6.265079465906918,4.15963306954481e-06
2.0,12.3127,5.2854,243.6,-9.1,-10.6,10.1,3.9488105309775983,-6.744565193225325,4.788922525866823e-06
2.0999999999999943,12.7884,4.95457,243.4,-5.2,-22.0,10.1,4.157558429521785,-7.2268546268050295,5.450609758206326e-06
2.1999999999999886,13.2399,4.54157,243.3,-4.2,-25.7,10.1,4.322880998353188,-7.681170031741329,6.0915175714715275e-06
2.299999999999983,13.683,4.0834,242.5,-2.4,-27.2,10.1,4.453846664070371,-8.125046740797966,6.731008785010317e-06
2.4000000000000057,14.0622,3.66671,242.0,-1.5,-29.0,10.1,4.538793406740433,-8.504256917734802,7.283921083178768e-06
2.5,14.4138,3.36414,241.2,-0.2,-29.4,10.1,4.58792167468852,-8.855971340452875,7.797898884831511e-06
2.5999999999999943,14.7603,2.96558,241.4,-0.2,-28.5,10.1,4.640078707251765,-9.202398154250584,8.325463817904222e-06
2.6999999999999886,15.0622,2.6915,242.6,-1.9,-28.3,10.1,4.617342073644794,-9.505275506177638,8.75276358458521e-06
2.799999999999983,15.3109,2.50075,243.9,-4.3,-28.7,10.1,4.5502795668924,-9.755435246227979,9.081643493225044e-06
2.9000000000000057,15.5346,2.42573,244.2,-5.1,-29.6,10.1,4.433802049332197,-9.980506810678957,9.348410663356788e-06
3.0,15.6999,2.44217,244.2,-5.2,-29.5,10.1,4.277452786427302,-10.145884449040508,9.501663986055675e-06
3.0999999999999943,15.8571,2.52217,243.8,-4.8,-28.9,10.0,4.0808814034236605,-10.30083949053225,0.10000962012214543
3.1999999999999886,15.9754,2.69761,243.5,-4.8,-29.3,10.0,3.8559540954547273,-10.413621747713528,0.10000966242656917
3.299999999999983,16.0705,2.88893,243.3,-4.5,-29.3,10.0,3.580793022643345,-10.497549863623926,0.10000963770894211
3.4000000000000057,16.1374,3.15371,244.0,-5.7,-29.0,10.0,3.2914918359419376,-10.54756245124221,0.10000956346776246
3.5,16.1399,3.45355,244.3,-6.5,-29.1,10.0,2.9561945283993944,-10.523773805116765,0.10000936008178529
3.5999999999999943,16.1729,3.78099,244.0,-5.9,-29.0,10.0,2.603300938637608,-10.521582377533656,0.10000920267353752
3.6999999999999886,16.1969,4.06935,243.7,-5.9,-29.0,10.0,2.1977349265615764,-10.495491274007215,0.10000900646676847
3.799999999999983,16.2119,4.41675,244.1,-6.7,-28.4,10.1,1.7840064727179596,-10.44848089990783,8.799704591555546e-06
3.9000000000000057,16.2017,4.74063,244.1,-6.9,-27.0,10.1,1.326061622547976,-10.356471754286808,8.537873273262164e-06
4.0,16.2096,5.02362,243.9,-7.1,-25.7,10.1,0.8592090031513914,-10.267072538183708,8.31370621801053e-06
4.099999999999994,16.223,5.17953,244.3,-9.1,-23.1,10.1,0.34782076285219776,-10.157569154352073,8.0890414477508e-06
4.199999999999989,16.253,5.29203,244.3,-11.8,-18.3,10.1,-0.15415150210255535,-10.05034154478971,7.912239781290853e-06
4.299999999999983,16.3035,5.24219,243.4,-14.0,-9.3,10.1,-0.6926430267694123,-9.935750073306506,7.768736844493418e-06
4.400000000000006,16.3848,5.10221,242.3,-17.1,0.2,10.1,-1.1936956729541262,-9.848034780072018,7.706520925077065e-06
4.5,16.5014,4.79395,240.7,-19.0,8.7,10.1,-1.7007372537495364,-9.779322065654458,7.716441405403174e-06
4.599999999999994,16.6406,4.33934,239.7,-16.4,18.7,10.1,-2.152889571898501,-9.742644283765117,7.797758737493332e-06
4.699999999999989,16.8043,3.91363,240.4,-11.7,25.3,10.1,-2.594527494857469,-9.725478821821184,7.936024732480007e-06
4.799999999999983,16.9841,3.47304,240.0,-10.1,26.5,10.1,-2.9585368073666545,-9.752968284369029,8.137580496558883e-06
4.900000000000006,17.1841,3.05655,239.5,-8.9,26.8,10.1,-3.2892085797185704,-9.813147583127774,8.39214036418845e-06
5.0,17.3715,2.62709,240.1,-7.0,28.5,10.1,-3.5394532243789056,-9.896155474674766,8.654646402428412e-06
5.099999999999994,17.5567,2.34793,240.2,-6.4,28.3,10.1,-3.723555229351436,-10.009413163922394,8.93664007262096e-06
5.199999999999989,17.7333,2.132,240.3,-5.8,27.1,10.1,-3.8443875512849224,-10.145566302131362,9.223878566055888e-06
5.299999999999983,17.9526,1.97343,240.5,-5.5,25.6,10.1,-4.009503698728253,-10.30645166584279,9.583987677475037e-06
5.400000000000006,18.1557,1.96131,240.3,-6.3,25.2,10.1,-4.115802961698085,-10.48015937004904,9.934124032717762e-06
5.5,18.3621,2.07185,240.7,-6.2,24.3,10.1,-4.172794858547391,-10.683882052879609,1.0309731844904135e-05
5.599999999999994,18.5995,2.21264,240.9,-6.5,22.1,10.1,-4.285713317623956,-10.892897191834216,1.0737596171983554e-05
5.699999999999989,18.7898,2.42177,240.9,-7.0,20.7,10.1,-4.248296232541993,-11.127814702611492,1.111870200043441e-05
5.799999999999983,18.9653,2.64977,241.0,-6.8,20.6,10.1,-4.173077277523374,-11.364240460533878,1.1483862624839247e-05
5.900000000000006,19.1447,2.8887,240.8,-7.1,21.0,10.1,-4.053758642088674,-11.625132965990785,1.1876740413807596e-05
6.0,19.3116,3.17761,240.8,-7.2,20.9,10.1,-3.856277549519498,-11.906501875620094,1.2271975038169458e-05
6.099999999999994,19.4958,3.46734,240.9,-7.3,20.3,10.1,-3.663037576705863,-12.20002877335638,1.2712767776701384e-05
6.199999999999989,19.6732,3.72832,240.6,-8.3,19.1,10.1,-3.4498437919493674,-12.48988035218824,1.315266257639891e-05
6.299999999999983,19.8647,3.96208,240.5,-8.6,17.7,10.1,-3.1994209523247106,-12.805168559105736,1.364730335473574e-05
6.400000000000006,20.0558,4.17511,241.2,-7.9,16.8,10.1,-2.918585554766512,-13.125260336957194,1.4161453812056024e-05
6.5,20.266,4.34579,241.5,-8.3,16.1,10.1,-2.631282575008672,-13.460549569257255,1.4733847781611686e-05
6.599999999999994,20.4737,4.46223,241.6,-9.0,14.8,10.1,-2.3410683736050046,-13.786435814603557,1.5316465443504512e-05
6.699999999999989,20.7006,4.57513,241.8,-9.1,12.1,10.1,-2.022215047948284,-14.1344423512543,1.5967274838879497e-05
6.799999999999983,20.9285,4.64384,242.1,-9.5,9.4,10.1,-1.7152533202996714,-14.471253149928275,1.6632190094068022e-05
6.900000000000006,21.181,4.59016,242.5,-11.2,4.7,10.1,-1.380322105297692,-14.834052335262605,1.738365291037436e-05
7.0,21.4188,4.36089,243.8,-10.7,-7.2,10.1,-1.100893843868067,-15.158208754102606,1.8088166783725157e-05
7.099999999999994,21.6518,3.9556,244.3,-7.9,-21.7,10.1,-0.8571779458960194,-15.462398469948365,1.878163644752906e-05
7.199999999999989,21.8823,3.47523,243.6,-5.5,-27.6,10.1,-0.648502609582144,-15.751043280107146,1.946180311701573e-05
7.299999999999983,22.1353,2.93465,243.4,-4.3,-26.3,10.1,-0.44534049702369155,-16.058199982341645,2.0209983856239733e-05
7.400000000000006,22.3593,2.457,244.0,-5.2,-27.2,10.1,-0.29544230595802434,-16.321075966956933,2.0868070557150675e-05
7.5,22.5747,2.08147,244.6,-6.3,-28.8,10.0,-0.1834673713042334,-16.56532912071242,0.10002149205779046
7.599999999999994,22.7552,1.6721,244.6,-6.5,-29.1,10.0,-0.1297675738226368,-16.76093733981712,0.10002200214537214
7.699999999999989,22.9571,1.51941,244.3,-6.4,-29.0,10.0,-0.08259560850896693,-16.976838777215676,0.10002257081396325
7.799999999999983,23.0967,1.45691,244.4,-6.8,-28.6,10.0,-0.1340377444168808,-17.10915426372104,0.10002292509081213
7.900000000000006,23.2231,1.50783,244.1,-6.5,-27.9,10.0,-0.23798526517001786,-17.217300900609025,0.10002321891664503
8.0,23.3236,1.71115,243.8,-6.6,-28.7,10.0,-0.37587932395918355,-17.291560663222242,0.10002342662163025
8.099999999999994,23.3795,1.99548,243.6,-6.8,-28.9,10.0,-0.5898875862095962,-17.302982059904892,0.10002347349286494
8.199999999999989,23.4469,2.31158,243.8,-7.1,-28.8,10.1,-0.8039149742427629,-17.324209533833077,2.3555051146484374e-05
8.299999999999983,23.5069,2.65289,244.3,-7.7,-28.7,10.1,-1.0637793867323597,-17.32508250555136,2.359597424078652e-05
8.400000000000006,23.5501,3.02179,244.3,-7.7,-28.9,10.1,-1.3413365764563783,-17.301328341989553,2.358395187262996e-05
8.5,23.5826,3.3895,244.1,-7.5,-29.2,10.1,-1.6659252655547316,-17.250701830138013,2.3524077893632978e-05
8.599999999999994,23.5943,3.73289,244.2,-7.9,-28.8,10.1,-2.0190888181227074,-17.165533564405845,2.339588069744103e-05
8.699999999999989,23.6153,4.06242,244.6,-8.7,-27.9,10.1,-2.413479078702606,-17.071747095087787,2.3282927811951737e-05
8.799999999999983,23.6321,4.42295,244.6,-8.6,-28.0,10.1,-2.8183613338488476,-16.962942618235644,2.315920723905407e-05
8.900000000000006,23.6503,4.75889,244.6,-8.8,-28.9,10.1,-3.275743208799351,-16.829566427185906,2.3025278502064594e-05
9.0,23.6681,5.09454,245.0,-9.2,-28.1,10.1,-3.7515741830342386,-16.67881814861687,2.2892449328848485e-05
9.099999999999994,23.6983,5.41093,245.1,-9.1,-26.7,10.0,-4.267155261950631,-16.51427547590389,0.10002279052326912
9.199999999999989,23.7357,5.66407,245.1,-9.3,-26.4,10.1,-4.781729461250716,-16.344698655153813,2.2721736453235053e-05
9.299999999999983,23.7877,5.81165,244.4,-9.7,-23.5,10.0,-5.343435052741279,-16.156281083088697,0.10002268789812829
9.400000000000006,23.8555,5.79037,243.4,-12.5,-11.6,10.0,-5.892269904997443,-15.975349815895353,0.10002271809039742
9.5,23.9566,5.54286,241.7,-15.6,2.8,10.0,-6.4537602466725925,-15.809780237521558,0.10002285119659549
9.599999999999994,24.074,5.07414,240.0,-16.3,16.6,10.1,-6.958244819967173,-15.677790363026688,2.3058594114111486e-05
9.699999999999989,24.2199,4.5605,239.8,-14.5,24.4,10.1,-7.4459358746730615,-15.575733139597613,2.33616297942163e-05
9.799999999999983,24.3716,4.13333,239.8,-12.4,25.0,10.1,-7.887854916587937,-15.496485432453184,2.3702469110098434e-05
9.900000000000006,24.5568,3.67325,239.4,-11.7,25.1,10.1,-8.30049187051253,-15.46583526134555,2.4154215209737373e-05
10.0,24.7466,3.22555,239.6,-10.9,27.9,10.1,-8.653823578339445,-15.471124388040725,2.4637693760709567e-05
10.099999999999994,24.9553,2.77611,240.2,-9.4,28.8,10.1,-8.976890038549241,-15.513958516650437,2.519004869583341e-05
10.199999999999989,25.1502,2.44251,239.8,-9.8,27.9,10.1,-9.22614569755856,-15.585381384062849,2.5720233385762015e-05
10.299999999999983,25.3651,2.1795,239.1,-10.5,26.9,10.1,-9.447521430768933,-15.697720968340178,2.6321365471204672e-05
10.400000000000006,25.5607,2.05364,238.8,-11.3,27.2,10.1,-9.601014307909075,-15.83100854062938,2.6880130077344688e-05
10.5,25.7709,2.07325,238.6,-12.5,27.5,10.0,-9.71825460758716,-16.005718513608148,0.10002749460419924
10.599999999999994,25.9744,2.21586,238.8,-12.8,26.7,10.0,-9.786550333686517,-16.204506001191234,0.10002810067461443
10.699999999999989,26.2039,2.45907,238.9,-12.8,24.6,10.0,-9.829708294188197,-16.45059467223508,0.10002879686744492
10.799999999999983,26.4088,2.74171,239.4,-12.4,22.5,10.0,-9.816778560753846,-16.70311545945078,0.10002943166883327
10.900000000000006,26.6236,2.99809,239.6,-12.7,21.5,10.0,-9.764391911924998,-16.99142855422183,0.1000301115876372
11.0,26.8275,3.29956,239.6,-13.2,21.5,10.0,-9.682731188613541,-17.28343596418913,0.10003077009762507
11.099999999999994,27.0342,3.61049,239.7,-13.0,22.1,10.0,-9.55357191197554,-17.60533613123998,0.10003145507866407
11.199999999999989,27.2464,3.9357,239.8,-12.7,22.2,10.0,-9.40763152247449,-17.940409961845546,0.10003217064711123
11.299999999999983,27.4771,4.20892,239.7,-12.6,21.5,10.0,-9.223034611786236,-18.315207203998643,0.10003296405920015
11.400000000000006,27.7073,4.50279,239.7,-12.5,21.3,10.0,-9.023722619433043,-18.692820516071066,0.10003377129586966
11.5,27.9683,4.75666,240.0,-12.1,21.7,10.0,-8.779548750686343,-19.12419771313503,0.10003470767278877
11.599999999999994,28.2173,5.00658,240.0,-12.2,22.4,10.0,-8.533586267971703,-19.536043430100108,0.10003561862306976
11.699999999999989,28.4869,5.22855,240.7,-11.9,20.2,10.0,-8.251232659215386,-19.98249962428538,0.10003662795976176
11.799999999999983,28.7555,5.32661,241.4,-13.6,11.4,10.0,-7.971683366590097,-20.418506558916608,0.10003765091698069
11.900000000000006,29.0505,5.25946,242.4,-15.2,-0.5,10.0,-7.682419316575576,-20.880740575509527,0.10003878931755761
12.0,29.3425,4.99186,243.7,-14.5,-11.5,10.0,-7.428245320015246,-21.31623203432497,0.1000399264418359
12.099999999999994,29.6484,4.56833,244.2,-11.0,-21.5,10.1,-7.192426587997834,-21.752941936091368,4.112814527701403e-05
12.199999999999989,29.939,4.15096,244.0,-8.1,-26.2,10.1,-7.009393445078654,-22.145638076656027,4.227459839967196e-05
12.299999999999983,30.2406,3.75417,244.0,-7.4,-26.4,10.1,-6.859539604586314,-22.53321944929577,4.346592833925911e-05
12.400000000000006,30.5195,3.38729,244.3,-7.7,-26.9,10.1,-6.738441954177172,-22.882226755733548,4.457714447125838e-05
12.5,30.8034,3.06547,244.1,-7.2,-28.3,10.1,-6.669380128637631,-23.21449784888364,4.570473601672731e-05
12.599999999999994,31.0635,2.73489,244.1,-7.2,-30.0,10.1,-6.647452800792488,-23.501993744285144,4.673387577902588e-05
12.699999999999989,31.3246,2.56743,244.6,-8.1,-29.3,10.1,-6.668315442706742,-23.773887497066323,4.7762057673761404e-05
12.799999999999983,31.5734,2.46383,244.5,-7.7,-29.2,10.1,-6.722515647382715,-24.019838696685433,4.873913254188622e-05
12.900000000000006,31.8194,2.4392,244.6,-7.9,-29.1,10.1,-6.843068736733552,-24.237523878099623,4.9692167718884406e-05
13.0,32.0451,2.49937,244.6,-8.1,-28.5,10.1,-6.9969919078691065,-24.420686413945855,5.055609245996351e-05
13.099999999999994,32.2741,2.64121,244.6,-8.2,-28.3,10.1,-7.1975221767823,-24.5892949976827,5.142752216524826e-05
13.199999999999989,32.495,2.82054,244.9,-8.7,-28.5,10.1,-7.441993940987085,-24.731283277362998,5.225836074096435e-05
13.299999999999983,32.7099,3.06674,244.8,-8.7,-28.9,10.1,-7.718694389431662,-24.85285241032345,5.306052539655326e-05
13.400000000000006,32.9096,3.35099,244.6,-8.5,-29.4,10.1,-8.020305741805846,-24.946311989886574,5.379787520043422e-05
13.5,33.1142,3.64934,244.5,-8.4,-29.5,10.1,-8.37539122438828,-25.020635476866026,5.4547488249401255e-05
13.599999999999994,33.2997,3.9518,244.5,-8.5,-29.4,10.1,-8.748459928374277,-25.06340131369074,5.521813453635005e-05
13.699999999999989,33.4778,4.27462,244.7,-9.0,-29.2,10.1,-9.197795609270457,-25.060664612392372,5.584202366559765e-05
13.799999999999983,33.6564,4.59582,244.8,-9.2,-29.2,10.1,-9.634087848406136,-25.058781302292445,5.6480491488208884e-05
13.900000000000006,33.8459,4.89766,244.6,-9.1,-29.4,10.1,-10.124894452097303,-25.03771798745316,5.7162079143857625e-05
14.0,34.0255,5.206,244.8,-9.7,-29.4,10.1,-10.616271790962681,-24.9986391465607,5.7809849297818516e-05
14.099999999999994,34.2002,5.50894,244.9,-10.0,-29.5,10.1,-11.159133843076026,-24.92062163505102,5.843539024663613e-05
14.199999999999989,34.3888,5.83443,245.2,-10.5,-29.2,10.0,-11.71009802178633,-24.845015102022412,0.10005913183053305
14.299999999999983,34.5985,6.12934,245.4,-11.1,-29.2,10.0,-12.323065007213568,-24.750116314226986,0.10005992224893756
14.400000000000006,34.8101,6.3035,244.9,-12.4,-24.6,10.0,-12.930179214885634,-24.649344695732218,0.1000607400074518
14.5,35.0538,6.22862,244.0,-16.1,-10.9,10.0,-13.610339930272971,-24.53095292809169,0.10006170380083379
14.599999999999994,35.2988,5.95697,242.3,-16.5,3.0,10.0,-14.207479345993747,-24.45218134980763,0.10006270801372708
14.699999999999989,35.5707,5.56544,240.8,-13.8,14.9,10.0,-14.800733683023086,-24.397580650504587,0.1000638528511466
14.799999999999983,35.8336,5.08006,240.5,-10.5,23.0,10.1,-15.319309138443304,-24.372515989723716,6.498807566046594e-05
14.900000000000006,36.1053,4.62067,239.7,-10.4,24.9,10.1,-15.799938665152577,-24.377068781489342,6.618160516413951e-05
15.0,36.3744,4.10908,239.3,-10.1,26.2,10.2,-16.23447134858512,-24.405229527194425,-0.09993261657951713
15.099999999999994,36.6562,3.62472,240.9,-6.4,28.8,10.1,-16.644062260172202,-24.462680907121488,6.866279836348355e-05
15.199999999999989,36.9251,3.14261,240.8,-6.3,29.7,10.1,-16.99388151629228,-24.543940672074427,6.990203380574656e-05
15.299999999999983,37.202,2.76139,240.8,-6.1,29.6,10.1,-17.311807249255153,-24.65629605716542,7.11934591119956e-05
15.400000000000006,37.4805,2.42683,241.3,-5.2,29.2,10.1,-17.614665367155272,-24.78050584435192,7.250677550629803e-05
15.5,37.7214,2.22774,241.3,-5.0,27.6,10.1,-17.80467333603213,-24.940019003453045,7.365673167214482e-05
15.599999999999994,37.9256,2.12151,241.0,-5.3,25.8,10.1,-17.92192087517649,-25.107394203148864,7.464162487913484e-05
15.699999999999989,38.1052,2.14899,240.4,-6.4,24.8,10.0,-17.968852240786063,-25.29574750255209,0.10007551821465377
15.799999999999983,38.2244,2.28578,240.2,-7.4,24.7,10.0,-17.932665913655555,-25.46951824068657,0.10007610674982281
15.900000000000006,38.4112,2.50004,240.1,-8.3,23.8,9.9,-17.920433539801873,-25.708855560180123,0.20007703112554864
16.0,38.5974,2.76649,240.2,-8.8,23.1,9.9,-17.88266785068703,-25.96496774103649,0.2000779615997743
16.099999999999994,38.7978,3.04572,240.4,-8.8,22.1,9.9,-17.812198083038403,-26.260551336935443,0.20007897223787463
16.19999999999999,39.0435,3.34421,240.4,-9.2,21.6,9.9,-17.778510806226155,-26.584067114105125,0.20008021707918466
16.299999999999983,39.2139,3.65016,240.4,-9.2,21.6,9.9,-17.618149859103852,-26.901725017376933,0.2000811021612403
16.400000000000006,39.3704,3.96038,240.6,-8.9,22.1,9.9,-17.426906788009816,-27.220310712626514,0.20008192375056222
16.5,39.5302,4.21078,240.9,-8.4,20.9,9.9,-17.188066892405637,-27.570776653697116,0.20008277644932804
16.599999999999994,39.6618,4.42085,241.1,-8.9,18.8,9.9,-16.907727251770005,-27.909748869214674,0.20008349850708917
16.69999999999999,39.8156,4.60637,241.2,-9.3,16.8,10.0,-16.61937361297954,-28.27467561032553,0.10008434381088804
16.799999999999983,39.9656,4.69659,242.0,-8.6,14.0,10.0,-16.330112403591716,-28.630105360727242,0.10008517713619991
16.900000000000006,40.1289,4.62117,242.2,-9.6,6.1,10.0,-16.022225058134484,-29.00668933807747,0.10008609301211724
17.0,40.2858,4.51225,242.4,-10.0,-1.2,10.1,-15.73373414679904,-29.35857597615125,8.698088088010536e-05
17.099999999999994,40.4426,4.40858,242.5,-8.7,-3.3,10.1,-15.424246002560121,-29.717075654624814,8.788001788406774e-05
17.19999999999999,40.6099,4.30401,242.8,-8.3,-2.5,10.1,-15.152176174855615,-30.06126762337175,8.883678747295676e-05
17.299999999999983,40.7875,4.05712,243.6,-6.5,-3.7,10.1,-14.874392197500239,-30.415582319211524,8.985975196384999e-05
17.400000000000006,40.9431,3.58575,242.4,2.4,-20.3,10.1,-14.63137980810092,-30.72201734863077,9.076210092295867e-05
17.5,41.0871,3.0594,239.7,8.0,-31.3,10.1,-14.385820315262212,-31.013136479302688,9.161013854974698e-05
17.599999999999994,41.1958,2.47934,239.3,8.3,-27.8,10.1,-14.216673868757226,-31.222372645986795,9.22480004152959e-05
17.69999999999999,41.2819,1.83646,240.1,7.0,-24.8,10.0,-14.079022008475434,-31.388791950550267,0.10009275717742394
17.799999999999983,41.3454,1.33892,241.5,3.3,-26.1,10.0,-13.97358181345591,-31.512823036436004,0.10009313679737009
17.900000000000006,41.404,1.20049,242.6,-0.2,-23.2,10.0,-13.910807402609997,-31.60966297092402,0.10009347599685636
18.0,41.4481,0.898862,242.9,-2.0,-17.9,9.9,-13.852988416132472,-31.687516999994166,0.2000937365403841
18.099999999999994,41.4869,0.586504,242.8,-3.2,-14.3,9.9,-13.811312180045187,-31.751334893807623,0.20009396201939555
18.19999999999999,41.513,0.416469,242.5,-3.8,-12.0,9.9,-13.783807830005816,-31.793937428601595,0.200094114385152
18.299999999999983,41.5303,0.271351,242.2,-4.3,-10.3,9.9,-13.781933893801568,-31.8141409300749,0.20009421090809631
18.400000000000006,41.539,0.168843,242.1,-4.8,-8.4,10.0,-13.778075072881212,-31.825741917240364,0.10009426144098743
18.5,41.5428,0.0550165,242.1,-5.4,-7.0,10.0,-13.785176147184167,-31.826517085712837,0.10009428017750377
18.599999999999994,41.5405,0.0782715,242.1,-6.1,-5.5,10.0,-13.795132131241022,-31.819105474217057,0.10009426499957375
18.69999999999999,41.5338,0.12514,242.1,-6.4,-3.9,10.0,-13.806788633103707,-31.805870707762285,0.1000942252017909
18.799999999999983,41.5115,0.158234,242.1,-6.3,-2.8,10.0,-13.846660274559873,-31.76137806618249,0.10009408976176903
18.900000000000006,41.5066,0.198294,242.0,-6.5,-2.9,10.0,-13.865141910544303,-31.746852686830913,0.10009405809821992
19.0,41.4979,0.197648,242.0,-7.2,-2.8,10.0,-13.883799815865528,-31.72785587239859,0.10009400370889754
19.099999999999994,41.4849,0.222807,242.0,-7.6,-1.9,10.0,-13.903590445275611,-31.703566674304177,0.1000939266471601
19.19999999999999,41.4607,0.248537,242.2,-7.7,-2.1,10.1,-13.941571103288432,-31.65766550084172,9.378169310636508e-05
19.299999999999983,41.4492,0.374249,242.5,-8.3,-6.7,10.1,-13.970608308202975,-31.63037501385097,9.371078842335123e-05
19.400000000000006,41.4413,0.588154,243.0,-9.0,-14.4,10.1,-14.011095380457098,-31.60140443692257,9.36567135649824e-05
19.5,41.4359,0.879844,243.4,-9.3,-19.8,10.1,-14.075664016847806,-31.563082517186533,9.361048234257652e-05
19.599999999999994,41.4211,1.21963,243.4,-9.1,-20.9,10.1,-14.169048814901794,-31.499509167448927,9.350335513946817e-05
19.69999999999999,41.4145,1.54595,243.6,-9.3,-20.0,10.1,-14.289031951663883,-31.431258275487743,9.343512593584791e-05
19.799999999999983,41.4133,1.81466,243.7,-9.7,-19.4,10.1,-14.42950926898579,-31.35802053122205,9.339319773982169e-05
19.900000000000006,41.4179,1.98863,243.7,-9.8,-18.3,10.1,-14.601885853751618,-31.274098816092014,9.337550163035502e-05
20.0,41.4248,2.14412,243.7,-9.8,-16.9,10.1,-14.781808504697533,-31.187763845913267,9.336856255437453e-05
20.099999999999994,41.4334,2.30281,243.6,-9.5,-14.7,10.1,-14.989140056265068,-31.087758852996785,9.336670919335432e-05
20.19999999999999,41.4448,2.39832,243.4,-9.2,-11.7,10.1,-15.197834031744407,-30.988681746148426,9.337985665425208e-05
20.299999999999983,41.4594,2.48565,243.2,-8.3,-10.0,10.1,-15.426148105253684,-30.8809940583375,9.340944041547061e-05
20.400000000000006,41.4781,2.55144,243.2,-8.1,-9.9,10.1,-15.656947179347828,-30.774913941657825,9.346128333120873e-05
20.5,41.5042,2.60979,243.2,-8.2,-9.8,10.1,-15.933613649807356,-30.64958124832235,9.354621554003018e-05
20.599999999999994,41.526,2.65601,243.3,-8.1,-8.9,10.1,-16.17026552155943,-30.539858323742,9.361803645013822e-05
20.69999999999999,41.5502,2.73462,243.2,-8.2,-9.1,10.0,-16.418125734917137,-30.42439197284849,0.10009370200349554
20.799999999999983,41.5773,2.79291,243.3,-8.9,-10.4,10.0,-16.666364726355802,-30.310002909791365,0.1000938051701592
20.900000000000006,41.608,2.88033,243.4,-8.9,-10.9,10.0,-16.949581825553523,-30.176758348513864,0.10009392267382289
21.0,41.6443,2.93954,243.3,-9.9,-10.6,10.0,-17.212252705866717,-30.059830033998303,0.10009407694491745
21.099999999999994,41.6898,2.98797,243.2,-12.1,-8.3,10.0,-17.489973814786794,-29.942115151526764,0.10009428172623736
21.19999999999999,41.7438,2.89262,242.9,-13.6,-4.0,10.0,-17.75774615025066,-29.8381581728626,0.10009453766169685
21.299999999999983,41.8128,2.61467,241.9,-13.8,5.4,10.0,-18.036163583002942,-29.742998974847694,0.10009487783553439
21.400000000000006,41.8848,2.17304,241.1,-11.0,17.4,10.0,-18.267524527376338,-29.679628374004395,0.10009524413244364
21.5,41.9638,1.69827,241.4,-7.9,24.9,10.0,-18.468565319847862,-29.64292967681203,0.10009565463360026
21.599999999999994,42.0383,1.256,240.7,-7.8,26.0,10.0,-18.6187397695342,-29.63356724350394,0.10009604944056427
21.69999999999999,42.1228,0.875112,239.9,-7.7,24.4,10.0,-18.75685316471887,-29.643503307932093,0.10009650154497507
21.799999999999983,42.1926,0.614133,240.0,-7.2,26.0,10.0,-18.83282665653446,-29.676980048946852,0.10009688248586457
21.900000000000006,42.2624,0.74238,240.5,-6.8,27.1,9.9,-18.86986447486607,-29.736181227541195,0.2000972663312819
22.0,42.3227,1.09188,240.3,-7.6,26.4,9.9,-18.85443978351002,-29.81882047066115,0.20009760813617916
22.099999999999994,42.3809,1.49556,240.0,-8.6,24.9,9.8,-18.78952389113499,-29.931487529412436,0.3000979416615408
22.19999999999999,42.4598,1.87805,240.0,-9.4,23.8,9.9,-18.73514528801,-30.061678508899803,0.20009839230660376
22.299999999999983,42.5118,2.24139,240.1,-9.5,23.7,9.9,-18.59468941105599,-30.21520722974555,0.2000987057709569
22.400000000000006,42.5567,2.65879,240.3,-9.4,24.5,9.9,-18.41891592529273,-30.381810275783227,0.20009898295181827
22.5,42.6,3.05616,240.4,-9.1,24.5,9.9,-18.189507900488763,-30.578857789594537,0.2000992632255585
22.599999999999994,42.6319,3.4511,240.6,-9.1,24.0,9.9,-17.922290045948483,-30.783358828578123,0.20009948727503613
22.69999999999999,42.678,3.84889,240.6,-9.9,23.9,10.0,-17.628731194780062,-31.01736174796797,0.1000997983248979
22.799999999999983,42.7299,4.19632,240.6,-10.9,22.9,10.0,-17.317211993111663,-31.26516023074302,0.10010015154110619
22.900000000000006,42.7964,4.49606,240.7,-11.8,21.1,10.0,-16.960358463154513,-31.55186110766585,0.10010059793972559
23.0,42.8789,4.7936,240.6,-12.9,20.3,10.0,-16.57355171548988,-31.868441374005208,0.10010115141658638
23.099999999999994,42.9646,5.08486,240.5,-14.0,20.1,10.1,-16.166794262084736,-32.19305610702182,0.00010173236438948408
23.19999999999999,43.058,5.34635,240.4,-14.6,19.3,10.1,-15.765973139579584,-32.5164293341841,0.00010236335732027868
23.299999999999983,43.1708,5.57998,240.4,-14.8,18.8,10.1,-15.33065494511299,-32.87277106393666,0.00010312304370874159
23.400000000000006,43.2828,5.76661,240.2,-15.8,18.6,10.1,-14.904960450418695,-33.21548086613827,0.00010388319234166943
23.5,43.4301,5.84082,240.9,-18.4,12.0,10.2,-14.451312484584472,-33.60378738392835,-0.09989513365420066
23.599999999999994,43.5953,5.6689,242.8,-21.5,-2.0,10.3,-14.033984737077361,-33.9861944714613,-0.19989404377166586
23.69999999999999,43.7927,5.28009,244.8,-20.0,-16.7,10.3,-13.632341182297306,-34.38958352910278,-0.1998927578614591
23.799999999999983,43.9933,4.80186,244.7,-14.2,-24.4,10.3,-13.301368989659016,-34.75825529998374,-0.19989146273920255
23.900000000000006,44.2201,4.29268,245.3,-13.0,-25.0,10.2,-13.003207413345258,-35.13627040612661,-0.09989001119872931
24.0,44.4292,3.83801,246.2,-13.6,-25.0,10.3,-12.763838720535144,-35.46589537661351,-0.19988867290461343
24.099999999999994,44.6496,3.48454,246.0,-13.1,-26.0,10.2,-12.558356856384815,-35.79078445076319,-0.09988726987261032
24.19999999999999,44.863,3.08131,245.7,-12.9,-26.7,10.2,-12.406243925860288,-36.08404590035944,-0.09988591877159081
24.299999999999983,45.1059,2.91559,245.8,-13.8,-26.6,10.2,-12.264403240125972,-36.403544060681874,-0.09988437960141638
24.400000000000006,45.3331,2.64439,245.6,-13.7,-26.2,10.1,-12.206102424060495,-36.671656850230676,0.00011704229832432134
24.5,45.576,2.40797,245.7,-13.8,-26.1,10.1,-12.195034439155208,-36.937540400876074,0.00011855441130848021
24.599999999999994,45.7975,2.2768,245.9,-13.8,-26.6,10.1,-12.22834581702263,-37.16279182836547,0.00011992479827860336
24.69999999999999,46.0014,2.21026,245.9,-13.6,-27.3,10.1,-12.321281836332025,-37.34559741492649,0.000121172346345233
24.799999999999983,46.2159,2.27644,245.9,-13.5,-27.3,10.1,-12.437785050306728,-37.53064834904178,0.00012248343688625596
24.900000000000006,46.4466,2.41168,245.7,-13.4,-27.1,10.2,-12.599586530327631,-37.715112001921675,-0.09987611079459668
25.0,46.6614,2.60323,245.8,-13.5,-27.2,10.1,-12.78916066973202,-37.87121866459566,0.00012519326481186255
25.099999999999994,46.8914,2.82662,245.8,-13.5,-27.3,10.2,-13.029799417305478,-38.02290492691831,-0.09987341764278046
25.19999999999999,47.1014,3.08522,245.8,-13.5,-27.5,10.2,-13.290310983309103,-38.14416895860493,-0.09987215478209777
25.299999999999983,47.3226,3.38122,246.0,-13.8,-27.8,10.2,-13.600975120960372,-38.25592903237434,-0.09987082856996743
25.400000000000006,47.535,3.66719,246.2,-14.2,-27.7,10.3,-13.934152063828792,-38.34736028473424,-0.19986955775561466
25.5,47.7623,3.95126,246.3,-14.7,-27.3,10.2,-14.321803914365784,-38.429927891724105,-0.09986819971799132
25.599999999999994,47.9737,4.24044,246.5,-15.7,-27.1,10.3,-14.740475698526497,-38.47916542906644,-0.19986694566353158
25.69999999999999,48.2092,4.53648,246.6,-16.4,-26.7,10.3,-15.185125739035481,-38.5401060765755,-0.19986552988460904
25.799999999999983,48.4416,4.84745,246.6,-17.4,-26.5,10.2,-15.64352840871026,-38.5880481149769,-0.09986413055673982
25.900000000000006,48.6968,5.1649,246.5,-18.0,-26.2,10.2,-16.161774004362513,-38.62952632773584,-0.09986258167393469
26.0,48.9381,5.45095,246.3,-18.3,-25.6,10.2,-16.697332465210668,-38.642557028574444,-0.09986111890338378
26.099999999999994,49.2166,5.62944,245.8,-19.7,-21.9,10.1,-17.268894429123158,-38.6740571940324,0.00014060110572877704
26.19999999999999,49.4973,5.64475,244.3,-21.2,-11.7,10.1,-17.819468349067996,-38.713057357388465,0.00014235699849152184
26.299999999999983,49.8101,5.44448,241.8,-19.6,2.5,10.2,-18.384971333435495,-38.77531648313293,-0.0998556543870972
26.400000000000006,50.1088,5.13823,240.6,-15.7,14.3,10.1,-18.894300799221604,-38.846165739201744,0.00014627091115571034
26.5,50.4503,4.83793,239.7,-14.5,19.0,10.2,-19.3973950033378,-38.965121254099756,-0.09985148834061874
26.599999999999994,50.7807,4.5076,238.9,-13.5,20.8,10.3,-19.838540021461355,-39.101893516051376,-0.19984929137585006
26.69999999999999,51.1323,4.22792,239.3,-11.2,22.3,10.2,-20.259963077716435,-39.27156060525418,-0.09984691946022295
26.799999999999983,51.4691,3.97814,239.3,-11.3,22.9,10.2,-20.629446678524076,-39.45143869755567,-0.09984462155516383
26.900000000000006,51.8264,3.78575,239.5,-10.6,22.9,10.1,-20.963093521589172,-39.67404470061406,0.00015785082636377012
27.0,52.1705,3.61006,239.7,-9.9,21.8,10.1,-21.243364803075256,-39.91104294215998,0.0001602587648825704
27.099999999999994,52.5348,3.51785,239.6,-10.3,20.4,10.1,-21.500421272411995,-40.18420964364911,0.00016283585928000832
27.19999999999999,52.8781,3.46179,239.9,-10.5,19.1,10.0,-21.70633803546243,-40.462308979418886,0.1001652928079757
27.299999999999983,53.2545,3.47632,240.5,-10.2,17.4,10.0,-21.912015146718087,-40.77865855887352,0.10016801065250824
27.400000000000006,53.5962,3.50364,240.4,-11.3,15.5,9.9,-22.054604297394526,-41.09106276882852,0.20017050654501034
27.5,53.9568,3.58871,240.8,-11.2,15.0,9.9,-22.176166371323383,-41.43721899078178,0.20017316790284312
27.599999999999994,54.3021,3.66541,240.6,-11.8,14.8,9.9,-22.26524983603992,-41.78416933067565,0.20017573946106992
27.69999999999999,54.6824,3.75347,240.7,-12.0,14.9,9.9,-22.334002183843545,-42.182619284978045,0.2001786019486893
27.799999999999983,55.0304,3.858,240.7,-11.8,15.4,9.9,-22.37247785131174,-42.560670852533875,0.2001812466377242
27.900000000000006,55.3962,4.0047,240.9,-11.5,15.7,9.9,-22.38756243293259,-42.971561157533955,0.20018405217216362
28.0,55.737,4.14025,240.7,-12.0,15.2,9.9,-22.371841531657083,-43.37030096370766,0.20018669190655558
28.099999999999994,56.0973,4.27443,240.6,-12.5,15.1,9.9,-22.318547556529015,-43.810910112186036,0.20018951217659797
28.19999999999999,56.4428,4.42648,240.7,-12.4,15.4,9.9,-22.256313343070566,-44.23803620620277,0.20019224079912767
28.299999999999983,56.813,4.57825,240.8,-12.1,15.3,9.9,-22.171248584189662,-44.70420222548176,0.20019518944714498
28.400000000000006,57.1573,4.72834,240.8,-12.3,14.7,10.0,-22.068124526841437,-45.148855598270195,0.10019795996925751
28.5,57.5215,4.90698,240.7,-12.3,14.3,9.9,-21.9430505683912,-45.62552914085143,0.20020091559996267
28.599999999999994,57.8652,5.05308,240.6,-12.4,14.2,10.0,-21.799877187294854,-46.08628480778266,0.10020373243776781
28.69999999999999,58.2307,5.17258,240.7,-12.8,13.8,10.0,-21.630469014941397,-46.58253994123753,0.10020675470620155
28.799999999999983,58.581,5.25597,241.4,-13.7,10.4,10.0,-21.457986423425297,-47.06065730185741,0.10020967663021274
28.900000000000006,58.9561,5.26679,242.0,-16.3,2.4,10.0,-21.277022831260258,-47.56790190310181,0.10021282645363705
29.0,59.3186,5.19115,242.9,-19.4,-4.2,10.0,-21.11656939018497,-48.04862348290702,0.10021589251248386
29.099999999999994,59.7154,5.06457,244.2,-19.5,-10.8,10.0,-20.967697100970845,-48.55950338182082,0.10021926345450538
29.19999999999999,60.0989,4.88009,245.0,-18.1,-18.0,10.1,-20.855719104325324,-49.03626619830406,0.00022254048725578457
29.299999999999983,60.5071,4.68649,245.4,-17.5,-22.5,10.0,-20.776357653508278,-49.52350932917447,0.1002260398113517
29.400000000000006,60.9076,4.50123,245.7,-16.9,-24.2,10.0,-20.73684358956436,-49.982809855321776,0.10022949028711814
29.5,61.3253,4.34825,245.7,-16.5,-24.7,10.0,-20.740906878506383,-50.44033119836976,0.10023310186599232
29.599999999999994,61.7269,4.25722,246.0,-16.8,-24.9,10.1,-20.78403452402855,-50.861933204670194,0.00023658839913842655
29.69999999999999,62.1523,4.24622,246.3,-16.6,-25.2,10.1,-20.87008899355117,-51.29025896367843,0.00024029636754541173
29.799999999999983,62.5633,4.23452,246.3,-16.2,-25.2,10.0,-20.975656394641895,-51.69374106829785,0.1002438989946377
29.900000000000006,62.9971,4.25942,246.3,-16.1,-24.7,10.1,-21.14414159103376,-52.0941894473487,0.00024771206532570034
30.0,63.4126,4.28979,246.3,-15.9,-24.7,10.0,-21.34115196241676,-52.46182043799255,0.10025138043443427
30.099999999999994,63.8513,4.33974,246.0,-15.4,-25.1,10.1,-21.586716125724468,-52.83312288598549,0.0002552726194924304
30.19999999999999,64.3018,4.44911,245.7,-15.7,-25.0,10.1,-21.870372952874515,-53.2001175078812,0.00025928998152124905
30.299999999999983,64.7532,4.57709,246.0,-16.4,-23.6,10.2,-22.18497441468577,-53.55388598257434,-0.09973666286974137
30.400000000000006,65.1785,4.68222,246.2,-16.5,-21.8,10.2,-22.510879641260672,-53.87336766199553,-0.09973282769670533
30.5,65.6212,4.7745,246.1,-15.6,-22.4,10.2,-22.879931676057538,-54.19177279108001,-0.09972881414598334
30.599999999999994,66.0326,4.88918,246.0,-15.5,-24.1,10.2,-23.25073207391412,-54.474116321316004,-0.09972506718322549
30.69999999999999,66.4202,5.02676,245.9,-15.6,-24.3,10.2,-23.669169910418837,-54.70694602566132,-0.09972153046856924
30.799999999999983,66.8409,5.18225,245.9,-15.8,-23.8,10.2,-24.103968251592477,-54.967371938665444,-0.0997176593130007
30.900000000000006,67.2966,5.34353,246.1,-16.6,-23.2,10.2,-24.59428929277299,-55.238726639436024,-0.09971344000753746
31.0,67.7228,5.49783,246.3,-17.3,-22.3,10.2,-25.070980450357276,-55.48201935383945,-0.09970946526836855
31.099999999999994,68.179,5.67568,246.2,-17.5,-21.8,10.3,-25.618743486946357,-55.72204474748011,-0.19970519102191098
31.19999999999999,68.6073,5.83437,246.2,-17.8,-21.2,10.3,-26.129095162398514,-55.947157957751664,-0.19970114449884413
31.299999999999983,69.0635,6.0057,246.2,-18.0,-20.6,10.3,-26.686017721955725,-56.17774332429964,-0.1996968048139376
31.400000000000006,69.5065,6.16352,246.0,-17.8,-20.8,10.3,-27.237666942309247,-56.39378795591082,-0.19969255918959838
31.5,69.971,6.26647,245.9,-18.1,-20.8,10.3,-27.842888501075734,-56.60351333184601,-0.19968808031843466
31.599999999999994,70.4189,6.39973,245.8,-18.9,-19.5,10.2,-28.41908697749438,-56.80669283088466,-0.09968372446590124
31.69999999999999,70.8909,6.51986,245.2,-19.2,-16.8,10.2,-29.03161909386536,-57.014818358011894,-0.09967910038924188
31.799999999999983,71.3596,6.54893,244.3,-18.8,-12.3,10.2,-29.63419670773127,-57.22153484749218,-0.09967446936537883
31.900000000000006,71.8677,6.50026,243.1,-17.5,-5.6,10.2,-30.281680767898504,-57.44554547842951,-0.09966940486611975
32.0,72.3527,6.36374,242.0,-15.8,-0.6,10.1,-30.878784976486667,-57.667870999527715,0.000335473296020794
32.099999999999994,72.8594,6.15285,240.8,-13.5,5.3,10.1,-31.482425722214025,-57.90882018218397,0.00034061670869078853
32.19999999999999,73.3375,5.90199,240.2,-11.1,12.0,10.1,-32.02757613613083,-58.14776816542175,0.0003455121774997849
32.29999999999998,73.8348,5.65165,239.9,-9.7,16.2,10.1,-32.564231107526936,-58.41191805068189,0.00035065233138098506
32.400000000000006,74.3094,5.38172,240.3,-8.4,19.0,10.1,-33.060487241843965,-58.671722305475726,0.0003555960698111704
32.5,74.7988,5.13224,240.6,-7.6,21.0,10.0,-33.51451467406252,-58.97248236358142,0.10036074531098649
32.599999999999994,75.252,4.87607,241.3,-5.8,22.1,10.0,-33.89540801769569,-59.273685862871794,0.10036555547380921
32.69999999999999,75.7161,4.691,241.2,-5.9,21.9,9.9,-34.245671362464435,-59.60556590621489,0.2003705230600641
32.79999999999998,76.1601,4.49859,241.3,-5.5,22.0,9.9,-34.547587192618224,-59.94265499601076,0.20037531232694228
32.900000000000006,76.6248,4.34744,241.7,-4.6,22.0,9.9,-34.83936627477446,-60.30987945140208,0.20038036531735237
33.0,77.0442,4.22109,241.4,-5.1,21.5,9.9,-35.06186548029513,-60.66584663539369,0.20038496192047361
33.099999999999994,77.4636,4.16584,241.5,-5.1,21.1,9.9,-35.240634014997205,-61.04816867410521,0.20038959479474983
33.19999999999999,77.9021,4.13876,241.5,-5.3,20.9,9.9,-35.41003730858928,-61.458273902277654,0.2003944704596563
33.29999999999998,78.3204,4.13835,241.5,-5.6,20.5,9.8,-35.52066356978314,-61.87986376946196,0.30039916112211174
33.400000000000006,78.7026,4.1774,241.5,-5.9,20.2,9.8,-35.58342787958714,-62.28764670849872,0.3004034770851973
33.5,79.0891,4.25148,241.5,-5.8,19.5,9.8,-35.608477564201536,-62.72251767108962,0.3004078756396993
33.599999999999994,79.4166,4.34781,241.4,-5.8,18.6,9.8,-35.559260084605576,-63.1318043813039,0.3004116330397082
33.69999999999999,79.7726,4.47526,241.2,-6.4,18.5,9.8,-35.50766428625439,-63.574586732109,0.30041573919175235
33.79999999999998,80.114,4.60635,241.1,-6.4,19.0,9.8,-35.43158529498553,-64.0137642753886,0.30041970266037765
33.900000000000006,80.4739,4.73013,241.1,-6.3,18.7,9.8,-35.324258408761246,-64.49083615359538,0.30042390647004424
34.0,80.8031,4.86767,241.2,-6.0,18.5,9.8,-35.19491037795187,-64.94359183031355,0.3004277770068242
34.099999999999994,81.1395,5.02786,240.9,-7.0,18.5,9.8,-35.025065041460586,-65.42566548184602,0.3004317609411551
34.19999999999999,81.4514,5.17347,241.1,-6.5,18.2,9.8,-34.843245524712344,-65.88432414587581,0.3004354777298417
34.29999999999998,81.7744,5.31257,241.2,-6.3,18.0,9.8,-34.62498563837413,-66.3735990710993,0.30043935390921206
34.400000000000006,82.0747,5.4621,241.0,-7.6,17.9,9.9,-34.390056555045376,-66.84344651720117,0.2004429781126138
34.5,82.3837,5.61358,240.9,-8.5,17.1,9.8,-34.11442103828482,-67.3423959817668,0.30044673573781644
34.599999999999994,82.678,5.7363,241.1,-9.2,14.9,9.8,-33.835101973235965,-67.82355234491878,0.3004503361676747
34.69999999999999,82.9894,5.83542,241.1,-10.8,12.4,9.9,-33.52706682162876,-68.33581484821305,0.20045416646082614
34.79999999999998,83.2855,5.83507,241.7,-12.9,7.8,9.9,-33.226370750687906,-68.8235311542717,0.2004578253054472
34.900000000000006,83.5984,5.66915,243.1,-14.7,-2.9,9.9,-32.899339065307885,-69.34023710062735,0.20046171458775852
35.0,83.9063,5.35986,244.8,-15.5,-17.0,9.9,-32.634745094240756,-69.81663564551572,0.20046554167928043
35.099999999999994,84.2379,4.96836,245.0,-13.5,-25.3,9.9,-32.40342714608028,-70.30065607671942,0.20046966875269945
35.19999999999999,84.5552,4.59558,244.8,-11.5,-25.9,9.9,-32.22820150963541,-70.73916068543166,0.20047362256651446
35.29999999999998,84.8888,4.24233,245.3,-12.0,-25.1,10.0,-32.074639293120796,-71.18393648145242,0.10047778841129329
35.400000000000006,85.2043,3.94199,245.5,-12.8,-26.1,10.0,-31.980954240478813,-71.57860557582256,0.1004817284807622
35.5,85.5346,3.76879,245.3,-12.6,-26.9,9.9,-31.92690758188718,-71.97028014247083,0.20048586093486875
35.599999999999994,85.851,3.54816,245.2,-12.4,-27.2,9.9,-31.91562417872328,-72.32574937741856,0.2004898203014278
35.69999999999999,86.1856,3.40169,245.3,-12.7,-27.4,9.9,-31.946753622110812,-72.68124946675034,0.2004940138382203
35.79999999999998,86.508,3.33417,245.5,-13.0,-27.3,9.9,-31.998231454207637,-73.01347230064874,0.20049806387814328
35.900000000000006,86.845,3.3061,245.8,-13.6,-27.4,9.9,-32.121156498605416,-73.3284896248455,0.2005022939394845
36.0,87.1735,3.3521,246.2,-14.6,-27.1,9.9,-32.2813974338825,-73.616564083589,0.20050642227133864
36.099999999999994,87.525,3.46841,246.3,-15.2,-26.5,9.9,-32.49154670324715,-73.90682308442896,0.20051084647516326
36.19999999999999,87.8706,3.60181,246.4,-15.7,-26.0,10.0,-32.7335192838225,-74.175501501757,0.10051520356743104
36.29999999999998,88.2117,3.7372,246.4,-15.9,-25.9,10.1,-33.011178022163136,-74.42213996046667,0.0005195120919019303
36.400000000000006,88.5374,3.92224,246.5,-16.1,-26.2,10.1,-33.30745383530923,-74.6428118011822,0.0005236335846383611
36.5,88.8829,4.15419,246.4,-16.2,-26.3,10.1,-33.65290984920354,-74.86146023790138,0.0005280142246615327
36.599999999999994,89.183,4.34571,246.6,-16.7,-26.0,10.2,-34.028808333946955,-75.01447814692818,-0.09946818806295887
36.69999999999999,89.5412,4.50825,246.9,-17.4,-25.6,10.2,-34.43834610572249,-75.21488243196507,-0.09946362416893706
36.79999999999998,89.8876,4.71927,246.9,-17.7,-25.6,10.2,-34.85214609058027,-75.39905824302193,-0.09945919651600654
36.900000000000006,90.2587,4.91549,246.7,-17.7,-25.6,10.2,-35.31248808577977,-75.58680088454855,-0.09945443354841643
37.0,90.6148,5.13435,246.7,-18.3,-25.5,10.2,-35.77179575534933,-75.75689453559069,-0.09944984984537442
37.099999999999994,91.0008,5.391,246.6,-19.3,-24.7,10.2,-36.278489138361856,-75.93532812491904,-0.09944485639288558
37.19999999999999,91.3848,5.60937,246.7,-21.9,-22.7,10.2,-36.792779207112964,-76.10580408360075,-0.09943986948339756
37.29999999999998,91.8069,5.763,245.9,-24.2,-17.6,10.2,-37.35850899443386,-76.2909739519721,-0.09943435882569318
37.400000000000006,92.2241,5.81187,243.8,-23.8,-8.6,10.2,-37.89967464793331,-76.48116876608867,-0.09942887789867072
37.5,92.6913,5.69479,241.6,-21.3,2.7,10.2,-38.48091526165801,-76.70503523014895,-0.09942270034078149
37.599999999999994,93.1231,5.52485,240.1,-18.0,12.1,10.2,-38.976295637671804,-76.93218494583807,-0.09941694690197522
37.69999999999999,93.5763,5.31789,238.8,-16.2,17.9,10.2,-39.456066405853875,-77.19056205732346,-0.09941086718434988
37.79999999999998,94.0201,5.08902,238.4,-14.0,22.6,10.2,-39.88883558524062,-77.46262425536035,-0.09940486940408277
37.900000000000006,94.4872,4.9017,239.2,-11.2,24.9,10.2,-40.32154964875404,-77.76033135216693,-0.0993985193332847
38.0,94.9361,4.72296,239.3,-10.5,25.6,10.3,-40.66995565931536,-78.08242383431721,-0.19939236755105583
38.099999999999994,95.401,4.59908,240.0,-9.1,26.2,10.2,-40.978744284047806,-78.44417228472126,-0.09938594971195158
38.19999999999999,95.8432,4.51426,240.5,-8.1,26.3,10.2,-41.23099359727409,-78.81080917632525,-0.09937980259363854
38.29999999999998,96.3066,4.49796,240.4,-8.3,25.7,10.1,-41.457048147993106,-79.21585851944585,0.0006266812499085006
38.400000000000006,96.7461,4.50877,240.9,-7.7,25.4,10.1,-41.62688991987909,-79.6243071036265,0.0006328729374835973
38.5,97.2056,4.57039,240.9,-7.8,24.8,10.1,-41.76225320108621,-80.07417826553976,0.0006393870735728058
38.599999999999994,97.6448,4.6587,240.8,-8.1,23.9,10.1,-41.85060629792849,-80.52647761184919,0.000645658128124893
38.69999999999999,98.1433,4.77179,240.8,-8.1,22.8,10.0,-41.92019619838712,-81.05605388640467,0.10065281675632676
38.79999999999998,98.572,4.90981,240.9,-8.0,22.3,10.0,-41.928392785047926,-81.53900731365681,0.10065902062570942
38.900000000000006,99.014,5.06515,240.7,-8.3,21.8,9.9,-41.897963737737804,-82.05700512409184,0.2006654570199622
39.0,99.4202,5.22427,240.5,-8.4,21.6,9.9,-41.827653882243304,-82.55468193510039,0.20067140910002124
39.099999999999994,99.8352,5.38933,240.6,-8.2,21.3,9.9,-41.71281282492312,-83.08474668571816,0.20067753040107306
39.19999999999999,100.212,5.56005,240.5,-8.8,21.6,9.9,-41.54516817156002,-83.59800205307238,0.20068313277105432
39.29999999999998,100.622,5.7101,240.6,-8.6,21.4,9.9,-41.37231042121276,-84.14966358900377,0.20068925182688702
39.400000000000006,101.012,5.87564,240.6,-8.6,20.5,9.9,-41.18296499797507,-84.68442438869472,0.20069509268300223
39.5,101.42,6.05263,240.6,-9.0,20.8,9.9,-40.95776274774266,-85.257423094237,0.20070126352438677
39.599999999999994,101.805,6.22919,240.6,-9.4,20.9,9.9,-40.718176454715675,-85.80786971266156,0.2007070970617022
39.69999999999999,102.207,6.42008,240.7,-10.0,20.3,9.9,-40.43906361744358,-86.39498861768708,0.20071323253224094
39.79999999999998,102.589,6.54134,240.8,-11.0,18.9,9.9,-40.1513602833497,-86.96197640236602,0.20071910609960852
39.900000000000006,102.996,6.60363,241.6,-14.2,12.1,9.9,-39.83634164726817,-87.56548382560794,0.20072537282182878
40.0,103.389,6.53752,242.8,-18.9,1.0,9.9,-39.541917063085236,-88.1412997914183,0.20073145709404727
40.099999999999994,103.813,6.36832,244.5,-21.1,-10.0,9.9,-39.262619022597676,-88.74243236443456,0.2007380524590019
40.19999999999999,104.231,6.14445,245.5,-20.9,-17.3,9.9,-39.033368324725046,-89.30979475189031,0.2007445508894108
40.29999999999998,104.681,5.88313,246.1,-19.8,-20.7,10.0,-38.83622095947028,-89.89698433965793,0.10075158389637551
40.400000000000006,105.114,5.65894,246.2,-18.7,-22.0,10.0,-38.672696130096526,-90.44691977050991,0.10075835554648549
40.5,105.584,5.49084,246.4,-18.6,-22.5,10.1,-38.56011453890698,-91.01365835607712,0.0007657247697778757
40.599999999999994,106.037,5.30747,246.4,-18.7,-23.3,10.0,-38.492577324521875,-91.54059834285707,0.10077284907272954
40.69999999999999,106.52,5.21037,246.0,-18.3,-23.9,10.0,-38.46578614354074,-92.08220307955783,0.10078047492875442
40.79999999999998,106.989,5.12606,246.2,-19.3,-24.1,10.0,-38.485912953755324,-92.58664684438733,0.1007878921290839
40.900000000000006,107.493,5.1135,246.2,-19.4,-23.9,10.0,-38.543956258055616,-93.11265771412502,0.10079589423322233
41.0,107.982,5.11469,246.3,-19.3,-23.4,10.0,-38.653873170885674,-93.59862854563124,0.1008036676099735
41.099999999999994,108.504,5.13165,246.7,-20.0,-23.7,10.0,-38.81292388584508,-94.09933153731306,0.10081199658852924
41.19999999999999,109.012,5.18684,246.5,-19.9,-24.0,10.0,-39.005207597449115,-94.57115954527535,0.10082014657153948
41.29999999999998,109.578,5.28668,246.4,-20.2,-23.7,10.0,-39.26036763711967,-95.07790431887167,0.10082924419048211
41.400000000000006,110.1,5.39558,246.3,-20.2,-22.5,10.0,-39.532793273961474,-95.5289529917236,0.10083766556953222
41.5,110.652,5.50379,246.5,-21.0,-21.3,10.0,-39.854973994538966,-95.99142705936752,0.10084661545324991
41.599999999999994,111.173,5.63657,246.5,-21.4,-20.5,10.1,-40.18630980040821,-96.41522158355477,0.0008550878690023467
41.69999999999999,111.694,5.77239,246.4,-21.3,-20.4,10.1,-40.577669925056114,-96.81259899729648,0.0008635887100787443
41.79999999999998,112.22,5.90949,246.6,-21.5,-20.2,10.1,-40.959696671838046,-97.21924761236053,0.0008722199531625563
41.900000000000006,112.782,6.06862,246.6,-21.3,-20.5,10.2,-41.38838149916047,-97.64371526358919,-0.099118525510562
42.0,113.328,6.20526,246.6,-21.2,-20.8,10.2,-41.8232841802338,-98.04833304221901,-0.09910947695344419
42.099999999999994,113.911,6.32707,246.6,-21.5,-20.3,10.2,-42.32736268239194,-98.46032884748202,-0.09909979783085632
42.19999999999999,114.475,6.4643,246.7,-22.0,-20.0,10.2,-42.80705632225617,-98.86280880347582,-0.09909036504466684
42.29999999999998,115.074,6.61773,246.8,-22.6,-19.7,10.2,-43.33104083946773,-99.2829917045865,-0.09908029296605037
42.400000000000006,115.651,6.75784,246.7,-22.9,-19.1,10.3,-43.847105982695936,-99.68054019411676,-0.19907055813395047
42.5,116.264,6.87514,246.2,-23.7,-16.7,10.3,-44.4046093123737,-100.09862336759201,-0.1990601462542223
42.599999999999994,116.861,6.95695,245.2,-24.7,-11.4,10.2,-44.9551164698595,-100.50076661146838,-0.0990499574481376
42.69999999999999,117.496,6.97629,244.2,-24.1,-5.9,10.2,-45.52452744221685,-100.93495633678245,-0.09903905292316395
42.79999999999998,118.106,6.94504,243.2,-21.4,-1.8,10.3,-46.05749618238839,-101.35810428386489,-0.19902850903392277
42.900000000000006,118.75,6.89133,242.1,-18.8,2.4,10.3,-46.602698229689516,-101.81297474752171,-0.19901729519318323
43.0,119.37,6.77218,241.0,-17.4,6.7,10.3,-47.112387765466494,-102.25651163878442,-0.19900644929276368
43.099999999999994,120.016,6.6431,240.1,-15.4,11.7,10.3,-47.61680063642112,-102.73097821982213,-0.1989950717848572
43.19999999999999,120.629,6.50241,239.7,-13.9,16.1,10.3,-48.067878228185194,-103.19386665406327,-0.19898421081389017
43.29999999999998,121.271,6.40952,239.8,-12.9,19.6,10.3,-48.50573279231827,-103.69548201788871,-0.19897275593095287
43.400000000000006,121.925,6.28819,239.9,-11.9,21.2,10.3,-48.94472568585828,-104.20913328142225,-0.19896102586013242
43.5,122.576,6.18532,239.9,-11.5,21.6,10.2,-49.31577249235204,-104.75369665223342,-0.09894924619545264
43.599999999999994,123.177,6.10259,240.2,-10.9,22.0,10.2,-49.61556967676012,-105.27584646047009,-0.09893832286325477
43.69999999999999,123.79,6.06569,240.2,-11.0,21.6,10.2,-49.87920660969273,-105.83073555970415,-0.09892708472696654
43.79999999999998,124.386,6.0402,240.3,-11.1,21.1,10.2,-50.09377884358221,-106.39004596710825,-0.0989161016893334
43.900000000000006,125.012,6.03999,240.6,-10.5,21.0,10.1,-50.29308140443547,-106.99065523750808,0.0010955103440046798
44.0,125.588,6.05428,240.4,-10.8,20.3,10.1,-50.44022862162723,-107.56009920251748,0.0011062442939007155
44.099999999999994,126.175,6.07949,240.4,-10.5,19.4,10.1,-50.55322675789115,-108.15877709251302,0.0011172569889765782
44.19999999999999,126.733,6.13143,240.4,-10.2,19.3,10.0,-50.63117970926814,-108.74275175969238,0.10112779813376349
44.29999999999998,127.287,6.20457,240.2,-10.8,19.4,10.0,-50.65741020776865,-109.34548393199563,0.10113830056278417
44.400000000000006,127.851,6.27609,240.4,-9.9,19.3,10.0,-50.67949690137796,-109.96184039765734,0.10114906183307326
44.5,128.446,6.35652,240.7,-9.2,18.6,9.9,-50.674541804625164,-110.62475739493166,0.2011604752084999
44.599999999999994,128.992,6.43019,240.4,-10.1,17.6,9.9,-50.63616731308866,-111.24935345266121,0.2011710222643046
44.69999999999999,129.554,6.54117,240.4,-10.2,16.9,9.9,-50.54918428260055,-111.9129051088791,0.2011819273495874
44.79999999999998,130.084,6.61666,240.6,-9.7,16.4,9.9,-50.45664208038776,-112.54289987001066,0.20119226522207256
44.900000000000006,130.641,6.66193,240.5,-10.1,16.1,9.9,-50.33765997315924,-113.21353059267483,0.2012031779022294
45.0,131.167,6.70003,240.6,-10.6,15.5,9.9,-50.207686296098146,-113.8541250108687,0.20121354082715115
45.099999999999994,131.714,6.64156,241.6,-8.9,11.1,9.9,-50.05379248586778,-114.52715330084544,0.20122436544649958
45.19999999999999,132.212,6.2407,242.6,-3.2,-0.6,9.8,-49.90385140915948,-115.1440557927347,0.3012342831061581
45.29999999999998,132.688,5.54677,239.1,16.1,-20.1,9.9,-49.75323600766036,-115.73525585740892,0.20124379028991513
45.400000000000006,133.093,4.95998,236.5,20.8,-27.3,9.8,-49.6294929190085,-116.23490835158769,0.30125190127947477
45.5,133.482,4.29323,239.0,16.8,-23.5,9.8,-49.49438901982802,-116.72207607515631,0.3012597352522626
45.599999999999994,133.792,3.54503,236.3,22.8,-23.2,9.8,-49.39168975244098,-117.10693946122726,0.30126598334489785
45.69999999999999,134.062,2.93207,237.2,20.7,-23.8,9.8,-49.29527869391174,-117.4449578083328,0.30127144378913684
45.79999999999998,134.277,2.25136,237.7,19.3,-24.0,9.7,-49.20858807475207,-117.71854901119536,0.40127580949032904
45.900000000000006,134.455,1.64267,236.6,21.5,-24.2,9.7,-49.12972366262688,-117.94768741227952,0.40127942855505694
46.0,134.608,1.19344,239.4,14.2,-20.8,9.7,-49.0320138194507,-118.1565570968275,0.4012825372368134
46.099999999999994,134.714,0.856872,240.4,10.0,-17.0,9.6,-48.99307761205614,-118.29003355512262,0.5012847087238086
46.19999999999999,134.786,0.59151,241.7,3.9,-14.3,9.7,-48.9707930906856,-118.37818856743212,0.40128616942947914
46.29999999999998,134.84,0.456464,242.8,-3.0,-11.5,9.7,-48.959499960452746,-118.44182720914391,0.4012872633579363
46.400000000000006,134.902,0.375725,242.6,-4.9,-8.8,9.7,-48.97283740182948,-118.50374020579196,0.4012885146414398
46.5,134.928,0.341067,242.3,-5.2,-6.5,9.8,-48.97104629059308,-118.53337344061813,0.3012890509678847
46.599999999999994,134.947,0.317048,242.1,-5.5,-5.1,9.7,-48.973148878153665,-118.55294514039369,0.4012894307530104
46.69999999999999,134.961,0.279408,242.0,-5.9,-4.3,9.7,-48.978546405511445,-118.56580584272939,0.4012897114823204
