time,distance(meters),speed(m/s), compass_heading(degrees), pitch(degrees), roll(degrees),height_above_takeoff(meters),North,East,Down
0.0,143.015,0.651475,251.6,7.0,-3.2,25.9,0.0,0.0,0.0
0.09999999999999432,142.937,0.937518,251.7,7.6,-3.1,25.9,0.032311069030067405,0.07126829995561651,1.1173666783492742e-09
0.19999999999998863,142.852,1.36962,251.4,8.1,-2.7,25.9,0.06529251820160295,0.14947096713976954,2.8492066518615022e-09
0.30000000000001137,142.754,1.88269,251.8,8.4,-0.3,25.9,0.10502396835782744,0.238945826307722,5.897690211198459e-09
0.4000000000000057,142.655,2.13652,252.5,9.0,1.5,25.7,0.14090653085265942,0.3312158029009572,0.20000001030932887
0.5,142.516,2.29303,253.7,14.6,1.6,25.6,0.195837073895126,0.45968505666446025,0.30000001944122245
0.5999999999999943,142.34,2.41291,255.6,20.3,-0.2,25.4,0.2598119400931381,0.6239106392292363,0.5000000355954822
0.6999999999999886,142.129,2.31064,256.3,10.5,-3.9,25.2,0.3276414926935517,0.8246256956315595,0.7000000609206416
0.8000000000000114,141.91,2.30843,257.0,-0.7,-2.2,25.1,0.392176933088937,1.0363685418479172,0.8000000958228592
0.9000000000000057,141.669,2.41566,257.0,-1.2,-3.4,25.0,0.45827853495372894,1.2703960834436099,0.9000001424368959
1.0,141.438,2.35535,257.2,-1.3,-2.6,25.1,0.5209242438598035,1.4965270303200768,0.8000001967190605
1.0999999999999943,141.166,2.42867,257.2,-0.4,-2.9,25.1,0.6044210074514342,1.7566425006628363,0.8000002705543785
1.1999999999999886,140.926,2.69345,257.2,1.5,-2.5,25.2,0.6732214969865999,1.9890968704770082,0.7000003450874469
1.3000000000000114,140.655,3.01699,257.2,2.3,-1.7,25.2,0.7498353497313623,2.25238932941763,0.7000004407236062
1.4000000000000057,140.391,3.20533,257.2,4.7,-1.8,25.0,0.8244207083983783,2.5087931373821815,0.9000005462288034
1.5,140.113,3.13727,257.3,7.2,-1.7,24.8,0.908518513104591,2.775797058260095,1.1000006672719878
1.5999999999999943,139.816,3.0165,257.8,2.9,0.0,24.7,1.0120341734523797,3.0554325627719487,1.2000008116565957
1.6999999999999886,139.509,3.00615,257.8,1.3,-3.5,24.5,1.1049451433194988,3.350341953094407,1.4000009759355065
1.8000000000000114,139.214,3.20865,257.9,0.6,-3.8,24.5,1.1887887143224938,3.6364994641317274,1.4000011459126775
1.9000000000000057,138.902,3.53631,257.9,1.6,-3.5,24.5,1.276452304365955,3.939916538433822,1.4000013427156541
2.0,138.591,3.42022,258.1,2.0,-2.5,24.7,1.3868567704210384,4.231252026273072,1.200001552893108
2.0999999999999943,138.263,3.2495,258.0,2.5,-2.8,24.8,1.4760692128222674,4.551394143463773,1.1000017941915061
2.1999999999999886,137.949,3.22457,257.9,3.4,-3.2,25.0,1.5620973823792024,4.858003621625121,0.9000020409813788
2.3000000000000114,137.616,3.35735,257.9,3.0,-2.3,25.0,1.6511653560531854,5.1830944345764305,0.9000023173493876
2.4000000000000057,137.275,3.53554,257.7,2.5,-2.4,25.0,1.7536408912516186,5.510995652194273,0.9000026201477885
2.5,136.91,3.5238,257.8,4.3,-2.8,25.0,1.8586766028822213,5.865145138471184,0.9000029660650293
2.5999999999999943,136.556,3.52617,258.0,2.9,-1.5,24.8,1.9592045484097436,6.208396468679022,1.1000033203563129
2.6999999999999886,136.199,3.58909,258.7,1.5,-2.2,24.8,2.0523468498798034,6.558444885563386,1.1000036996382891
2.8000000000000114,135.856,3.80947,259.0,1.2,-2.7,24.7,2.139756236471973,6.895670701270651,1.2000040832008367
2.9000000000000057,135.488,4.10455,259.3,1.4,-2.6,24.8,2.2437691258269066,7.253188174202744,1.100004515913891
3.0,135.137,4.00849,259.7,1.0,-2.2,24.9,2.3410493429913433,7.595225499425034,1.0000049493765348
3.0999999999999943,134.769,3.7575,259.7,0.6,-2.1,25.1,2.422084537727236,7.9625642677192,0.8000054272653456
3.1999999999999886,134.42,3.6353,259.8,1.3,-3.1,25.3,2.5003457470994253,8.311276470179603,0.6000059016269386
3.3000000000000114,134.041,3.63905,259.9,1.0,-2.9,25.4,2.5728567438514967,8.694958282501403,0.5000064418022234
3.4000000000000057,133.69,3.80645,259.9,0.7,-2.2,25.4,2.657168642437348,9.042119915244847,0.5000069590529654
3.5,133.325,3.79637,260.1,0.4,-1.6,25.4,2.7508427466341914,9.402027651302642,0.5000075187365587
3.5999999999999943,132.975,3.69161,260.5,1.3,-2.0,25.2,2.840396233604698,9.745675952257127,0.7000080720266968
3.6999999999999886,132.594,3.68918,261.4,1.1,-3.3,25.1,2.9446518971499436,10.117214606144248,0.8000086982702708
3.8000000000000114,132.24,3.84395,261.8,1.7,-3.6,25.0,3.0270566861898187,10.469286621601485,0.9000093032340344
3.9000000000000057,131.874,3.93735,262.3,1.6,-3.1,25.1,3.106317764593432,10.836434341200963,0.8000099551722735
4.0,131.527,3.78588,262.5,1.0,-2.7,25.2,3.1818281893236873,11.184100155590219,0.7000105916190487
4.099999999999994,131.169,3.60601,262.5,1.4,-3.3,25.4,3.271491754220418,11.537677150553673,0.5000112668542689
4.199999999999989,130.823,3.65267,262.4,1.7,-3.1,25.5,3.3520820449076867,11.881318284479292,0.40001193941115676
4.300000000000011,130.455,3.83129,262.4,1.6,-3.1,25.5,3.43746900863203,12.247915973835147,0.40001267749201563
4.400000000000006,130.104,4.06065,262.5,0.8,-1.4,25.4,3.5186140219938946,12.597192798876124,0.5000134016451856
4.5,129.719,3.92594,262.4,1.3,0.4,25.3,3.5907436738192855,12.988549365327824,0.6000142260342429
4.599999999999994,129.363,3.78484,263.0,0.2,0.1,25.1,3.6742060857345256,13.342904543837513,0.8000150043922094
4.699999999999989,128.982,3.69493,263.1,2.4,-2.9,25.0,3.771798547628595,13.71881142358717,0.9000158581587039
4.800000000000011,128.621,3.77893,262.3,2.2,-3.5,24.9,3.861664303546999,14.07578624279045,1.0000166907456647
4.900000000000006,128.262,3.78946,261.9,1.1,-2.6,24.9,3.9528651083910407,14.42948499413781,1.0000175351959089
5.0,127.935,3.69541,262.1,0.0,-1.5,25.0,4.049868175445363,14.74536567024515,0.9000183175089811
5.099999999999994,127.565,3.63438,261.8,-1.0,-1.6,25.0,4.149489189826566,15.107831652570322,0.900019229575153
5.199999999999989,127.214,3.79857,261.6,-1.6,-1.6,25.0,4.245781422599064,15.450548424920653,0.9000201141235362
5.300000000000011,126.844,3.98064,261.2,-2.9,0.5,25.0,4.345922590425686,15.812304152409972,0.9000210663963331
5.400000000000006,126.485,3.84645,260.9,-4.3,2.9,24.8,4.452605566140904,16.159335268514482,1.1000220090601502
5.5,126.122,3.61455,261.2,-3.8,1.9,24.7,4.571991128422226,16.50449553799991,1.2000229771242281
5.599999999999994,125.783,3.45819,262.0,-1.5,-2.6,24.5,4.685984669724245,16.826515507661625,1.4000239008824158
5.699999999999989,125.433,3.44896,262.0,-1.0,-5.1,24.5,4.796487784654034,17.161251542806042,1.4000248737779348
5.800000000000011,125.093,3.55589,261.8,0.2,-4.5,24.4,4.897351264684269,17.489717366712846,1.500025843966028
5.900000000000006,124.75,3.46876,261.7,0.1,-2.7,24.5,4.998480749503308,17.82240696892117,1.4000268418520319
6.0,124.422,3.4125,261.7,-0.2,-3.2,24.6,5.0973968140879675,18.138050864607006,1.3000278090745514
6.099999999999994,124.073,3.42477,261.7,-0.9,-3.2,24.6,5.217516435472892,18.468189398402043,1.3000288538654687
6.199999999999989,123.742,3.62842,261.8,-2.8,-1.8,24.6,5.332613972714527,18.77998393554094,1.3000298587710515
6.300000000000011,123.406,3.55731,261.8,-3.8,-0.2,24.5,5.450456530929262,19.096329786352648,1.4000308955857337
6.400000000000006,123.095,3.29232,262.7,-4.1,-0.4,24.4,5.565501945128446,19.386900839310663,1.5000318722454695
6.5,122.782,3.06554,263.3,-4.1,-1.2,24.3,5.681986362473553,19.678594521111677,1.6000328675687125
6.599999999999994,122.493,3.05924,263.5,-2.7,-2.8,24.2,5.7890392229343695,19.947850763278332,1.700033800047878
6.699999999999989,122.188,3.17184,263.5,-1.1,-2.8,24.2,5.8996868308367025,20.23335114733274,1.7000347994689822
6.800000000000011,121.898,3.02232,263.6,-1.1,-1.5,24.3,6.006075292429906,20.504257600637075,1.6000357638559013
6.900000000000006,121.59,2.92176,263.5,-0.9,-2.4,24.4,6.116295361673366,20.793026935432003,1.5000368037875673
7.0,121.301,2.93459,263.6,-1.3,-2.9,24.5,6.221574248182286,21.06310859971004,1.4000377909862949
7.099999999999994,121.024,2.97873,263.7,-2.8,-1.6,24.5,6.3236340593367935,21.320986063503643,1.4000387472236726
7.199999999999989,120.757,2.86451,263.9,-3.5,-1.2,24.4,6.428704669188219,21.566972407424984,1.5000396790038955
7.300000000000011,120.471,2.73296,264.5,-1.8,-1.6,24.3,6.542160822774993,21.831134708772858,1.6000406924602322
7.400000000000006,120.204,2.77904,264.4,-1.8,-2.5,24.2,6.647242993374752,22.076891922559913,1.700041646090129
7.5,119.943,2.98173,264.3,-1.3,-3.4,24.3,6.726481175368925,22.32803393272711,1.6000426041185158
7.599999999999994,119.69,2.88647,264.2,-1.0,-2.7,24.3,6.817947832356636,22.56515409276701,1.6000435350572468
7.699999999999989,119.421,2.69364,264.1,-1.4,-3.7,24.5,6.919718924359406,22.815379981354305,1.4000445340707497
7.800000000000011,119.165,2.64973,264.1,-1.7,-4.5,24.6,7.017184433229263,23.05227137477408,1.3000454914995458
7.900000000000006,118.899,2.84988,264.1,-2.6,-3.9,24.6,7.120833525880858,23.298067110451044,1.3000464991528098
8.0,118.647,3.16007,264.2,-3.5,-2.7,24.6,7.219177359621448,23.53105564268718,1.3000474652438023
8.099999999999994,118.391,3.39455,264.2,-3.9,-2.0,24.5,7.318636462716809,23.766495261916564,1.400048450431528
8.199999999999989,118.152,3.34198,264.4,-4.2,-1.7,24.2,7.4144139968669585,23.986033949754113,1.7000493820348237
8.300000000000011,117.898,3.08785,265.3,-3.3,-0.6,24.0,7.521819256634396,24.216516750084956,1.9000503789062901
8.400000000000006,117.675,2.67196,266.2,-2.0,-3.1,23.8,7.616464154043893,24.4188496765684,2.100051262164923
8.5,117.433,2.40843,266.7,-4.2,-7.1,23.6,7.709837691384495,24.642650120771854,2.3000522344606096
8.599999999999994,117.211,2.39047,267.4,-3.9,-8.0,23.5,7.790162066573449,24.850863919246063,2.400053139720247
8.699999999999989,116.983,2.57176,267.6,-3.3,-5.8,23.4,7.870122368153243,25.065317098839053,2.500054077311021
8.800000000000011,116.755,3.00443,267.5,-3.4,-3.8,23.4,7.941558616723344,25.284505614508134,2.5000550314179972
8.900000000000006,116.524,3.27164,267.5,-3.0,-1.6,23.2,8.02611897703349,25.500684329169765,2.700055995337709
9.0,116.307,3.19909,267.6,-3.1,0.9,23.0,8.109361671939235,25.701176696977083,2.900056905486368
9.099999999999994,116.092,2.97492,267.5,-2.8,2.6,22.7,8.202185986311305,25.895963796407866,3.2000578120777528
9.199999999999989,115.889,2.42539,267.1,-4.0,-1.0,22.5,8.293178425888916,26.07742477757637,3.4000586690563
9.300000000000011,115.692,1.95727,267.3,-5.4,-6.0,22.3,8.379021645432339,26.25423484342377,3.6000595055414073
9.400000000000006,115.517,1.76702,267.4,-4.1,-5.1,22.2,8.450064635912677,26.41446548315009,3.7000602607856146
9.5,115.341,1.92641,267.2,-3.1,-2.8,22.2,8.519397137661414,26.57665161183528,3.7000610259749425
9.599999999999994,115.174,2.34432,266.7,-1.7,-1.1,22.2,8.58733685717674,26.72969628345928,3.700061756088225
9.699999999999989,114.992,2.23764,266.6,-1.0,-0.2,22.3,8.669042611361741,26.89329562493505,3.600062554604172
9.800000000000011,114.816,1.95331,266.5,-1.9,-0.6,22.5,8.748321248579682,27.04999158540665,3.4000633255591546
9.900000000000006,114.632,1.79724,266.4,-2.2,-1.1,22.6,8.826022082792036,27.217012306917326,3.300064142980943
10.0,114.459,1.84382,266.5,-3.1,0.3,22.7,8.899613946323516,27.373784237553274,3.2000649156652465
10.099999999999994,114.324,1.75115,266.3,-2.7,0.3,22.7,8.934554863537103,27.507622026606988,3.200065539827392
10.199999999999989,114.169,1.77797,266.3,-3.6,1.0,22.6,9.004291729796043,27.64599563380623,3.300066237115182
10.300000000000011,114.002,1.98619,266.2,-4.8,0.6,22.6,9.085569660314341,27.792594665784854,3.300066989016638
10.400000000000006,113.848,2.40458,266.4,-4.5,-0.6,22.7,9.164680520436328,27.924913006540322,3.2000676789875433
10.5,113.685,2.39482,266.4,-3.7,-1.4,22.8,9.237856277188012,28.070718246562024,3.100068425031093
10.599999999999994,113.533,1.99244,266.9,-4.1,-2.8,23.0,9.319073779448576,28.200936853573516,2.900069116579006
10.699999999999989,113.375,1.66478,267.2,-4.0,-4.1,23.2,9.402926573659713,28.336600623985785,2.700069839968391
10.800000000000011,113.225,1.5647,267.1,-3.8,-3.2,23.3,9.481956539884663,28.464924835606183,2.600070528660634
10.900000000000006,113.082,1.83324,267.1,-4.1,-2.1,23.3,9.54138071542216,28.595883418772814,2.600071202514703
11.0,112.937,2.10838,267.1,-3.8,-2.3,23.3,9.616379585845898,28.720121418335673,2.6000718751128074
11.099999999999994,112.771,2.25816,267.1,-3.3,-2.0,23.2,9.713073154298321,28.858067262061166,2.700072642963899
11.199999999999989,112.616,2.01034,267.0,-3.3,-0.8,23.0,9.805692272800542,28.986817741957406,2.9000733693319307
11.300000000000011,112.446,1.56411,267.1,-2.8,-2.8,22.9,9.92628246767567,29.116989065414458,3.0000741488185314
11.400000000000006,112.313,1.27976,267.3,-6.4,-4.0,22.7,10.005014296667898,29.227838516166017,3.2000747771657103
11.5,112.186,1.347,267.2,-7.2,-3.9,22.6,10.067180439267078,29.3383218956408,3.3000753832258765
11.599999999999994,112.075,1.26379,267.0,-6.1,-2.7,22.7,10.121400578711,29.43630449725505,3.200075920120252
11.699999999999989,111.968,1.13577,266.9,-5.7,-2.2,22.7,10.172901467809897,29.530345971145902,3.2000764357339553
11.800000000000011,111.883,1.15353,267.0,-3.7,-2.1,22.8,10.193631576344114,29.61460504343522,3.1000768604310864
11.900000000000006,111.771,1.50212,266.8,-3.3,-1.3,22.8,10.249183644463143,29.71180821013254,3.100077401561354
12.0,111.665,1.91013,266.8,-1.9,0.2,22.8,10.303105985132154,29.804169538984922,3.1000779183802147
12.099999999999994,111.549,2.01912,267.0,-1.4,1.0,22.7,10.363084703059307,29.903938242851517,3.200078483800772
12.199999999999989,111.441,1.72578,267.2,1.1,-0.7,22.5,10.408442088559461,30.00291226571576,3.400079021548552
12.300000000000011,111.321,1.26751,267.9,-2.3,-1.7,22.3,10.463147209725546,30.10916429567346,3.600079610878979
12.400000000000006,111.218,1.02012,268.3,-8.6,-1.8,22.2,10.512882405059726,30.20038724367565,3.7000801255565663
12.5,111.119,1.2681,268.3,-6.6,-2.2,22.2,10.567905640607602,30.283759850511352,3.7000806107755326
12.599999999999994,111.031,1.38937,268.1,-3.7,-1.9,22.2,10.611887856179077,30.360022471227904,3.7000810465508667
12.699999999999989,110.938,1.14152,268.2,-1.7,-1.9,22.3,10.659684468360378,30.44084482773244,3.6000815116052225
12.800000000000011,110.845,1.00162,268.1,-0.4,-2.5,22.4,10.705169425494717,30.522430880878545,3.500081977979635
12.900000000000006,110.739,1.15952,268.3,1.7,-1.7,22.5,10.753188584457346,30.616495741984956,3.400082509322115
13.0,110.637,1.59479,268.1,3.5,-0.1,22.5,10.797745870747832,30.70888763125143,3.400083027636042
13.099999999999994,110.537,1.80988,268.2,5.0,1.1,22.4,10.825818066538147,30.806724253163615,3.5000835473833813
13.199999999999989,110.425,1.71937,268.0,6.5,-0.8,22.3,10.853566679242446,30.917001492016496,3.600084128564687
13.300000000000011,110.278,1.51315,269.0,4.8,-3.6,22.1,10.89960900532978,31.058024606646104,3.800084890846749
13.400000000000006,110.135,1.49167,269.6,-1.9,-2.1,22.0,10.9367574436389,31.199353711106866,3.900085643954825
13.5,109.986,1.82453,269.7,-2.0,-2.1,22.0,10.9660638309594,31.35065720654948,3.9000864363155743
13.599999999999994,109.844,1.76481,269.6,-0.9,-0.9,22.1,10.990481234064497,31.4958516326547,3.800087192338577
13.699999999999989,109.687,1.58588,269.7,-0.1,0.0,22.2,11.017233451922934,31.65727461549536,3.7000880370881526
13.800000000000011,109.535,1.61041,270.2,0.7,-0.6,22.3,11.041939862019396,31.813703027528607,3.6000888573125054
13.900000000000006,109.371,1.81086,270.8,1.6,-0.9,22.3,11.048462176621783,31.99277460541432,3.600089763146581
14.0,109.213,1.86101,270.7,4.1,-0.3,22.2,11.06617842274052,32.15892389580395,3.700090628147866
14.099999999999994,109.046,1.8045,270.6,2.2,1.4,22.2,11.079898627746147,32.33804891455087,3.7000915582448095
14.199999999999989,108.88,1.95106,270.8,0.0,-0.6,22.1,11.091613310984062,32.51661592120073,3.800092485926018
14.300000000000011,108.711,2.37662,270.2,0.2,-0.8,22.1,11.074776495605676,32.71250417297745,3.800093456440336
14.400000000000006,108.526,2.83281,269.1,1.4,0.2,22.1,11.088074908070102,32.91194352462335,3.8000945046603243
14.5,108.32,2.66753,268.6,2.5,1.3,22.3,11.110183999418409,33.12962094772344,3.6000956694632755
14.599999999999994,108.12,2.3833,268.5,2.6,0.7,22.5,11.133145499769828,33.34119645194646,3.4000968098381152
14.699999999999989,107.897,2.20173,268.5,3.8,0.5,22.7,11.170303469675233,33.5711693684531,3.20009808076409
14.800000000000011,107.688,2.27862,268.5,4.4,1.9,22.8,11.197269752468543,33.78982382165064,3.100099282778702
14.900000000000006,107.466,2.44047,267.9,5.6,2.5,22.8,11.22029167849696,34.02601986831078,3.100100576576958
15.0,107.235,2.72298,267.6,6.6,2.9,22.7,11.249647370583432,34.269019902467285,3.200101927258201
15.099999999999994,106.964,3.03727,267.0,5.4,1.6,22.7,11.292483174147925,34.54944155431733,3.2001035157978155
15.199999999999989,106.705,3.56778,266.6,4.5,0.3,22.8,11.324283905065254,34.82275376854885,3.1001050579461182
15.300000000000011,106.421,3.55066,266.2,3.8,-0.6,22.9,11.365036577075383,35.118312456477554,3.00010674894979
15.400000000000006,106.149,3.33764,266.2,3.1,-0.9,23.2,11.403030056843235,35.40379146149401,2.7001083940328767
15.5,105.854,3.13937,266.1,4.1,-0.5,23.3,11.442280234306915,35.71283705633468,2.600110185709185
15.599999999999994,105.582,3.08811,265.7,3.9,0.2,23.5,11.480201313455698,35.99819335347323,2.4001118577350544
15.699999999999989,105.27,3.27437,265.2,3.8,0.2,23.5,11.529085174636169,36.322084631044866,2.4001137796359338
15.800000000000011,104.973,3.56648,264.7,5.7,0.1,23.5,11.574657561075746,36.630633249910005,2.4001156257733554
15.900000000000006,104.672,3.63103,264.1,7.0,1.5,23.3,11.613291779196093,36.94771122359292,2.6001175226624165
16.0,104.377,3.57019,263.7,6.7,1.4,23.1,11.6511198036293,37.25861087100067,2.80011939913357
16.099999999999994,104.041,3.56132,263.5,5.5,1.2,23.0,11.706328855733158,37.60739037587607,2.900121544895608
16.19999999999999,103.709,3.6529,262.9,3.7,1.1,22.9,11.761618800063218,37.95013666689988,3.000123676460716
16.30000000000001,103.354,3.70826,263.1,1.8,1.1,22.9,11.814308456607288,38.32140762479432,3.0001259920495276
16.400000000000006,103.013,3.80652,263.0,1.5,0.3,22.9,11.864287662166156,38.67813779425709,3.0001282359369252
16.5,102.641,4.01595,263.0,1.1,1.0,22.9,11.910721536766882,39.071311588905544,3.0001307158162325
16.599999999999994,102.287,4.35219,262.3,0.4,1.6,22.8,11.956510780577531,39.44563673443177,3.100133104046626
16.69999999999999,101.918,4.64629,260.6,1.8,1.9,22.6,12.02101555992442,39.82713990414952,3.3001355942870294
16.80000000000001,101.564,4.59727,258.9,2.3,2.7,22.4,12.08475744543911,40.19209375278087,3.500138002754664
16.900000000000006,101.184,4.328,259.0,2.5,3.7,22.1,12.163530706357452,40.57907952202945,3.8001406005833616
17.0,100.815,4.16842,259.0,3.5,3.1,21.8,12.237146087143234,40.95511385312162,4.100143143604437
17.099999999999994,100.425,4.06409,258.2,4.0,3.5,21.7,12.323019440699483,41.34968430736812,4.200145851619481
17.19999999999999,100.049,4.17366,258.1,3.9,3.4,21.6,12.407838045709367,41.729148827923325,4.300148486696869
17.30000000000001,99.7022,4.37914,257.2,3.0,4.7,21.5,12.485051227254093,42.08021149554332,4.400150941211582
17.400000000000006,99.3258,4.50383,255.8,3.2,5.4,21.4,12.56806968119143,42.46122628519895,4.500153628324048
17.5,98.9125,4.61041,255.1,3.7,5.6,21.3,12.658893003674823,42.87988363360917,4.600156605972169
17.599999999999994,98.514,4.63201,254.6,2.4,6.4,21.1,12.752296426055075,43.28071559128563,4.800159498466372
17.69999999999999,98.0675,4.41572,254.4,2.1,7.7,20.9,12.850814622807052,43.73306645663476,5.000162778800906
17.80000000000001,97.6546,4.30535,254.1,1.4,7.4,20.7,12.973047198937167,44.13533396010865,5.2001657953835085
17.900000000000006,97.2233,4.27932,253.7,1.2,7.4,20.6,13.117073093034064,44.54709478770363,5.300168950911099
18.0,96.8123,4.36034,252.6,1.1,7.1,20.6,13.267158487988262,44.932814217576606,5.3001719659864746
18.099999999999994,96.4148,4.2048,251.6,0.8,6.7,20.7,13.426695754236864,45.29840326242345,5.200174882643447
18.19999999999999,96.0137,4.20166,251.6,0.1,6.7,20.8,13.58751024791518,45.66739075715381,5.100177854746455
18.30000000000001,95.5837,4.26501,251.5,-0.4,7.3,20.8,13.762211872384158,46.06172453724449,5.1001810636266995
18.400000000000006,95.1762,4.3324,251.5,-1.0,7.9,20.8,13.931128515102191,46.4337125800423,5.100184126097422
18.5,94.7508,4.19887,251.7,-2.2,7.6,20.7,14.116397023862689,46.81740726848608,5.200187336687746
18.599999999999994,94.348,4.09153,252.9,-1.8,5.8,20.6,14.304450943877935,47.17403651913056,5.300190382497733
18.69999999999999,93.9411,4.12605,253.3,-0.3,5.1,20.6,14.494548026452687,47.53421766494476,5.3001934859385225
18.80000000000001,93.5521,4.21149,253.4,0.8,4.9,20.5,14.680440494706135,47.876390118243364,5.40019646835223
18.900000000000006,93.137,4.1249,253.8,1.2,4.3,20.6,14.875091819026384,48.24358269716524,5.300199685854912
19.0,92.7668,4.114,254.0,1.2,5.4,20.7,15.032300106715368,48.57953264441725,5.200202603080896
19.099999999999994,92.3564,4.1398,253.9,0.9,5.9,20.7,15.229800294760063,48.939820630972335,5.2002058231223645
19.19999999999999,91.9666,4.41405,253.9,0.0,4.6,20.7,15.417776423860447,49.281879211255145,5.20020890774205
19.30000000000001,91.5563,4.52405,253.9,-1.0,3.2,20.6,15.618206399716549,49.640478603167345,5.300212177542399
19.400000000000006,91.1795,4.36566,254.1,-0.1,3.7,20.3,15.80284718858593,49.96962836366566,5.600215200465651
19.5,90.766,4.15463,254.1,0.1,3.5,20.2,16.00528253149591,50.33085480118339,5.700218544629778
19.599999999999994,90.3723,4.06165,254.1,-1.3,7.0,20.0,16.20592888147428,50.67065875391718,5.900221741399135
19.69999999999999,89.9563,4.08953,253.4,-0.5,6.7,19.9,16.425516618692807,51.02574492788939,6.000225134932198
19.80000000000001,89.5768,4.13184,252.8,0.4,5.3,19.9,16.628469272981675,51.34828323977477,6.0002282480886775
19.900000000000006,89.1704,4.07011,252.9,0.2,4.4,20.0,16.857945543639673,51.68744023997716,5.900231588828517
20.0,88.7845,4.08494,252.9,-0.1,4.8,20.0,17.074996368958104,52.010016640880984,5.900234787229291
20.099999999999994,88.3788,4.1427,252.3,-1.2,5.4,20.0,17.29680930298284,52.352418550566,5.900238186478198
20.19999999999999,87.994,4.40554,251.7,-2.5,5.5,20.0,17.50888435009127,52.67628559866634,5.9002414311733435
20.30000000000001,87.6056,4.45309,251.4,-2.9,5.5,19.9,17.729650911653604,52.9997622733196,6.000244720860003
20.400000000000006,87.2257,4.30968,251.4,-1.6,3.7,19.7,17.947013253414827,53.315440766648464,6.200247958789829
20.5,86.8433,4.02986,251.6,-2.8,4.6,19.5,18.1630406313875,53.63475443139663,6.400251246438164
20.599999999999994,86.4853,3.86138,252.7,-4.7,8.2,19.3,18.378229885548308,53.92694922715088,6.600254327386612
20.69999999999999,86.1204,3.81619,253.6,-3.3,6.9,19.2,18.599744701333833,54.223719343625774,6.700257485357091
20.80000000000001,85.7631,3.93217,253.8,-1.9,4.9,19.2,18.837903574460213,54.503452144945626,6.700260569140018
20.900000000000006,85.3992,3.8747,254.1,-1.1,3.3,19.3,19.087681665765565,54.78468257603491,6.600263721235456
21.0,85.0539,3.75947,256.1,-0.8,3.2,19.4,19.322520697636588,55.05281569964269,6.500266738621631
21.099999999999994,84.7128,3.69716,259.1,-0.7,3.5,19.5,19.5558975937765,55.317145627690245,6.400269736587691
21.19999999999999,84.3671,3.87754,263.1,-0.4,1.5,19.5,19.78331020603843,55.58965388320537,6.400272806979121
21.30000000000001,84.0005,4.1811,266.6,0.5,-0.8,19.5,20.024546550405514,55.87876480082966,6.400276086042002
21.400000000000006,83.6518,4.47129,269.1,2.6,-3.0,19.3,20.250031227353922,56.15581527591682,6.600279232063638
21.5,83.2878,4.40152,271.2,3.8,-5.7,19.1,20.46732412676022,56.45428743838914,6.800282561801626
21.599999999999994,82.9419,4.14645,276.7,4.3,-6.8,18.8,20.659977390931793,56.74489274693644,7.100285760592309
21.69999999999999,82.5761,3.9184,282.8,2.9,-2.4,18.6,20.841200047300248,57.06367171201574,7.300289194219267
21.80000000000001,82.2207,3.81158,285.2,3.6,0.9,18.4,21.00549854205383,57.379266123899285,7.500292564662937
21.900000000000006,81.8387,3.86905,287.5,3.0,0.2,18.3,21.17754153501385,57.72072009461435,7.60029621293815
22.0,81.4677,4.02417,288.6,2.3,0.7,18.2,21.322835924179238,58.06338084847792,7.70029980587989
22.099999999999994,81.0763,4.18659,288.2,3.1,-0.4,18.1,21.488212806988038,58.41884862230523,7.800303605519542
22.19999999999999,80.7032,4.383,285.9,2.2,-2.2,18.0,21.642224985893623,58.75952366514908,7.90030725395376
22.30000000000001,80.3125,4.23496,284.0,3.6,-1.6,17.8,21.79607801269386,59.119916380876084,8.100311106250118
22.400000000000006,79.9307,4.02593,284.1,2.4,-1.0,17.5,21.926256579504212,59.482393152307125,8.400314921777785
22.5,79.5382,3.95502,283.1,1.2,1.0,17.4,22.066283493398615,59.851882426531624,8.500318859771792
22.599999999999994,79.1578,4.01681,280.9,0.5,3.2,17.3,22.20396113235722,60.20893872975075,8.600322698102746
22.69999999999999,78.7503,4.03538,277.3,0.1,3.5,17.3,22.35028483585843,60.59212956165757,8.600326835310351
22.80000000000001,78.3764,4.08888,276.0,0.0,3.5,17.3,22.46836589420407,60.95198202929364,8.60033067643675
22.900000000000006,77.9542,4.20681,274.4,-0.2,4.2,17.3,22.623057861736218,61.347506459105844,8.600335014022885
23.0,77.5542,4.45619,274.1,-1.4,5.3,17.2,22.770664172871356,61.72164648796749,8.700339145706174
23.099999999999994,77.1497,4.45734,274.0,-1.3,5.6,17.1,22.924630410497045,62.097634600639644,8.800343347123492
23.19999999999999,76.7618,4.29203,274.1,-0.3,4.6,16.9,23.07691735145245,62.45585818050127,9.000347392562517
23.30000000000001,76.3497,4.19422,274.2,-0.4,3.5,16.7,23.23702358115802,62.83732090754656,9.200351718732712
23.400000000000006,75.954,4.19321,274.5,0.3,2.2,16.6,23.39193754224906,63.2030677837795,9.300355898064236
23.5,75.5276,4.30373,274.6,0.8,1.4,16.6,23.56319539674339,63.59488807807185,9.300360421149264
23.599999999999994,75.1147,4.54837,274.6,1.5,1.1,16.6,23.726310410445436,63.97567301339117,9.30036483233454
23.69999999999999,74.6536,4.75221,274.6,2.1,0.9,16.7,23.909424737060917,64.40047819847719,9.200369788470391
23.80000000000001,74.2206,4.63178,274.6,2.8,0.8,16.9,24.07467895894999,64.80285478754254,9.0003744851287
23.900000000000006,73.7698,4.48643,274.6,2.0,1.0,17.0,24.241305496757263,65.22465875818726,8.900379414095983
24.0,73.3423,4.42642,274.5,1.6,0.9,17.2,24.397671494619317,65.62542403066905,8.700384119371662
24.099999999999994,72.9303,4.37017,274.6,2.4,0.1,17.2,24.52490709846694,66.0238887141763,8.700388716962298
24.19999999999999,72.5068,4.5329,275.0,4.1,-0.8,17.3,24.666512918067408,66.42792167117273,8.600393455472341
24.30000000000001,72.0397,4.78935,275.3,5.3,-0.4,17.3,24.821159213886048,66.87434621282999,8.600398719254066
24.400000000000006,71.5854,4.95795,275.7,5.8,0.1,17.4,24.96491223870776,67.31213446444515,8.500403884363367
24.5,71.0992,4.88204,276.6,4.8,0.9,17.5,25.13409643796881,67.77269594448629,8.400409422112862
24.599999999999994,70.6382,4.84803,276.7,5.2,2.1,17.6,25.277277437357387,68.21848008751198,8.30041473705056
24.69999999999999,70.1566,4.87669,276.7,6.6,2.8,17.7,25.417548849342104,68.68916071836159,8.200420344507254
24.80000000000001,69.6952,5.0374,276.7,6.4,2.8,17.7,25.551269126718303,69.14048828334171,8.20042575190525
24.900000000000006,69.194,5.1771,276.7,5.6,3.3,17.7,25.68413444019079,69.63758408724922,8.200431690084372
25.0,68.7152,5.1485,278.1,6.0,3.1,17.5,25.82134466672069,70.10713880057978,8.400437385785605
25.099999999999994,68.2315,4.92993,280.3,2.4,0.7,17.4,25.955706255186563,70.5838656978747,8.50044318652024
25.19999999999999,67.7746,4.85958,280.9,-1.0,-0.2,17.3,26.079688402682635,71.03601693408324,8.600448706952383
25.30000000000001,67.2843,4.84655,282.7,-3.0,-0.9,17.2,26.212813357827834,71.52127807760462,8.700454672847926
25.400000000000006,66.8437,4.9177,284.4,-3.7,0.0,17.2,26.326012043375968,71.96095551092617,8.700460081330155
25.5,66.3625,5.10294,284.4,-4.0,0.9,17.1,26.452517023167488,72.43994289890725,8.800466024629191
25.599999999999994,65.9049,5.3082,283.1,-5.1,1.2,17.0,26.573262951945566,72.89531685607054,8.900471710191995
25.69999999999999,65.4216,5.16021,280.1,-3.9,2.9,16.8,26.70443130219867,73.37451684658114,9.100477750132356
25.80000000000001,64.9575,4.87866,277.9,-3.8,3.6,16.6,26.825954197671013,73.83734706354052,9.300483598840612
25.900000000000006,64.5018,4.72568,277.5,-2.3,4.3,16.4,26.975681873021124,74.27536458336834,9.50048931378658
26.0,64.0657,4.71122,277.5,-1.1,5.1,16.3,27.12680836929353,74.69022418408122,9.600494796151729
26.099999999999994,63.5993,4.68406,277.7,-0.5,5.1,16.3,27.286459721398394,75.13523553400023,9.600500700851573
26.19999999999999,63.1867,4.90091,277.4,-0.3,5.7,16.3,27.43457556191352,75.52512347824569,9.600505939611205
26.30000000000001,62.7104,5.14779,276.9,-0.9,6.6,16.1,27.60291502934562,75.97674976694333,9.800512027531939
26.400000000000006,62.2543,5.46524,276.4,-2.1,7.5,16.0,27.76652746719001,76.40797133089893,9.90051788587035
26.5,61.7651,5.68567,276.0,-2.9,7.9,15.8,27.944945800456566,76.86895272115345,10.100524202106465
26.599999999999994,61.2689,5.73888,275.5,-3.6,8.3,15.5,28.12774430804084,77.33563380701537,10.400530643737943
26.69999999999999,60.7856,5.52305,274.9,-4.6,8.3,15.1,28.326119789590944,77.77880315240071,10.800536908664277
26.80000000000001,60.3266,5.27102,274.4,-4.5,8.4,14.8,28.52762776767227,78.19244155866434,11.100542863979218
26.900000000000006,59.8452,5.07338,275.1,-1.7,9.9,14.6,28.753815968281337,78.61805568186946,11.300549109599327
27.0,59.3805,4.97837,275.2,-0.7,9.7,14.3,28.984583493863205,79.02185736560003,11.600555142758886
27.099999999999994,58.9324,4.88507,275.5,1.2,6.5,14.2,29.203825397707917,79.41306825166508,11.700560999840413
27.19999999999999,58.4621,5.0305,275.5,2.6,3.8,14.2,29.44012784655069,79.82027197940562,11.700567169591348
27.30000000000001,57.9556,5.05438,275.5,3.3,3.0,14.2,29.694744559844835,80.2587755599987,11.700573851466974
27.400000000000006,57.4724,5.05305,275.7,2.9,2.9,14.2,29.935624187787447,80.6782135907857,11.700580268016402
27.5,56.9647,5.08909,275.6,2.8,4.0,14.3,30.203192344357102,81.11074238118783,11.600587015542034
27.599999999999994,56.473,5.27244,275.6,2.8,4.9,14.3,30.448325508326235,81.5375347209904,11.600593621560622
27.69999999999999,55.9486,5.40709,275.6,2.5,3.9,14.2,30.707050911044185,81.99423954245886,11.70060071446117
27.80000000000001,55.4442,5.38235,275.8,4.2,3.0,14.0,30.95089451810607,82.43629168759057,11.900607591656778
27.900000000000006,54.8852,5.34886,276.1,6.0,3.1,13.8,31.207117442504053,82.9340246208379,12.100615290443814
28.0,54.3604,5.46956,276.2,5.3,7.0,13.7,31.448953522025484,83.40061166091508,12.200622559946751
28.099999999999994,53.8115,5.57637,276.0,5.1,7.5,13.6,31.702530045371784,83.88820778656424,12.300630209414086
28.19999999999999,53.2759,5.73712,276.0,5.0,5.9,13.6,31.95104738086414,84.36342957873092,12.30063771590049
28.30000000000001,52.7358,5.67925,276.2,3.5,5.1,13.7,32.21174470024991,84.8369991653611,12.200645306492644
28.400000000000006,52.1852,5.72307,276.0,2.1,5.7,13.8,32.47194226686989,85.32282604600958,12.100653105916107
28.5,51.6025,5.817,276.0,1.1,6.4,13.7,32.74114584774716,85.84059545976626,12.200661427793259
28.599999999999994,51.0482,5.89219,276.0,0.4,5.4,13.7,32.997037575508344,86.33314149197531,12.200669392245453
28.69999999999999,50.4645,5.82715,275.7,0.5,3.4,13.5,33.260163987756926,86.85533895517764,12.400677847598711
28.80000000000001,49.8978,5.84525,276.3,3.9,3.3,13.4,33.494685747510836,87.37405934403887,12.500686157597436
28.900000000000006,49.2986,5.95112,276.3,4.6,5.6,13.3,33.76144937098303,87.91213523517419,12.600694955475232
29.0,48.719,6.06153,276.2,4.4,4.8,13.3,34.018068157789685,88.43333873736938,12.600703522983189
29.099999999999994,48.1058,5.93932,276.7,3.5,3.6,13.3,34.285778829519344,88.98696855001245,12.600712654049016
29.19999999999999,47.5252,5.98188,277.9,2.9,4.2,13.4,34.52887807283744,89.51704764509438,12.500721380059401
29.30000000000001,46.9175,6.05865,277.9,2.7,5.6,13.4,34.79938726437575,90.06279224393569,12.500730532405063
29.400000000000006,46.3395,6.25,277.9,1.4,5.6,13.4,35.05662740941527,90.58190311154593,12.500739289042256
29.5,45.7254,6.31676,277.8,-0.7,3.3,13.2,35.32977810008846,91.1335939569995,12.700748653055795
29.599999999999994,45.1465,6.17942,278.8,-1.3,2.2,13.0,35.59412833926401,91.6497157783185,12.900757516808703
29.69999999999999,44.537,6.12425,281.3,1.3,4.8,12.8,35.86298948714716,92.1985732190668,13.100766931433915
29.80000000000001,43.9422,6.20477,282.4,4.9,7.0,12.6,36.125778135266984,92.73408511980627,13.300776175822515
29.900000000000006,43.2895,6.31575,282.3,4.2,6.7,12.6,36.41504250783669,93.32110693434649,13.300786380264746
30.0,42.667,6.32181,282.1,3.0,5.1,12.5,36.690546036406445,93.88132937502192,13.400796177881759
30.099999999999994,42.0392,6.19969,282.6,1.3,4.6,12.6,36.96733954615851,94.44687000986175,13.300806124081767
30.19999999999999,41.4436,6.3061,282.5,0.6,5.0,12.6,37.22918311275549,94.9838662501962,13.300815618824961
30.30000000000001,40.8132,6.41048,282.5,-0.2,5.2,12.5,37.50164846737594,95.55500560168335,13.400825743953074
30.400000000000006,40.2145,6.62267,282.5,-1.6,4.3,12.4,37.76085483721823,96.09729650944634,13.500835417794876
30.5,39.5918,6.69216,282.5,-1.9,2.9,12.3,38.026924147034514,96.6633610752501,13.600845550653085
30.599999999999994,38.9908,6.55663,282.5,-0.9,1.9,12.0,38.28875741557812,97.20685163262712,13.900855374460896
30.69999999999999,38.3524,6.37474,282.9,-2.0,2.2,11.8,38.56108219819797,97.78759268117881,14.10086589115849
30.80000000000001,37.7428,6.34281,283.0,1.5,6.5,11.6,38.82463691478092,98.34026802799627,14.300875985219882
30.900000000000006,37.1026,6.41918,283.2,3.7,8.5,11.4,39.10116169389924,98.92079888074747,14.500886648426473
31.0,36.4867,6.50531,283.2,4.8,6.1,11.3,39.376835851131204,99.47373517927781,14.600896942682015
31.099999999999994,35.8401,6.44393,283.3,4.8,4.8,11.3,39.666711643608295,100.0540417140423,14.600907812480044
31.19999999999999,35.2213,6.56455,282.7,4.8,5.2,11.3,39.94205711644591,100.61061659586795,14.600918284369893
31.30000000000001,34.5637,6.70331,281.4,5.8,6.3,11.3,40.24669430413777,101.19500866856819,14.600929443116963
31.400000000000006,33.9267,6.90243,280.7,5.6,6.1,11.2,40.52808866124643,101.76931287016619,14.700940359806255
31.5,33.2494,6.8842,280.4,4.8,3.7,11.0,40.817368433251936,102.38597929965522,14.900952070646468
31.599999999999994,32.5926,6.93756,280.2,6.6,3.2,10.8,41.08963438716849,102.98918001416075,15.100963527284133
31.69999999999999,31.8396,7.03414,280.6,7.8,6.8,10.6,41.38613752048717,103.69031257434477,15.300976801430403
31.80000000000001,31.1398,7.22271,280.3,7.1,7.9,10.5,41.671882952931995,104.33605042242912,15.40098918811999
31.900000000000006,30.3945,7.38172,280.0,6.6,6.8,10.5,41.97790262538312,105.02302333311223,15.40100246617586
32.0,29.6841,7.38454,279.8,5.3,6.0,10.5,42.268945453804676,105.67870403969764,15.401015214554853
32.099999999999994,28.9596,7.24805,279.7,5.1,6.0,10.6,42.564940380588105,106.3480869673387,15.301028306281175
32.19999999999999,28.3084,7.35573,279.4,5.2,6.8,10.6,42.82466000794422,106.95422146723814,15.301040176245596
32.30000000000001,27.5706,7.42046,278.9,5.0,6.9,10.5,43.126851919874596,107.63634885755994,15.401053683240168
32.400000000000006,26.8575,7.47847,278.8,4.2,4.6,10.4,43.41701730964133,108.29729720807379,15.501066838864435
32.5,26.0691,7.59228,278.8,5.9,4.0,10.3,43.731509272044136,109.03266708920154,15.601081509897309
32.599999999999994,25.2629,7.87096,279.0,8.3,6.1,10.3,44.04225303751973,109.79256274294691,15.601096678688029
32.69999999999999,24.4644,8.05268,279.0,8.2,5.9,10.4,44.36198103438272,110.53844813189673,15.501111774584404
32.80000000000001,23.7016,8.01409,279.5,6.3,5.3,10.4,44.66640351197704,111.25254320409911,15.501126310056035
32.900000000000006,22.9012,7.962,280.6,3.6,5.9,10.6,44.98603846718915,112.00271651873635,15.301141681547243
33.0,22.1451,7.94374,280.5,2.3,7.3,10.7,45.29820998727811,112.70548955763218,15.201156265992989
33.099999999999994,21.3751,7.85808,280.4,0.9,7.3,10.6,45.60433687929748,113.43057991074835,15.301171297793285
33.19999999999999,20.6378,7.99095,280.3,-0.7,5.7,10.6,45.90112440833849,114.12359128233346,15.301185785215402
33.30000000000001,19.8345,7.84188,280.2,-1.7,4.4,10.4,46.237021272197914,114.87125603095853,15.50120162906325
33.400000000000006,19.0882,7.72449,280.5,-4.8,3.2,10.3,46.555187960461886,115.56283235490169,15.601216431787947
33.5,18.3527,7.77197,280.5,-1.3,7.2,10.1,46.87081462730626,116.24427357779356,15.801231123982962
33.599999999999994,17.6384,7.93002,281.6,7.1,10.8,10.1,47.183365884999795,116.9030739810097,15.801245465697441
33.69999999999999,16.8429,7.96216,282.0,7.1,10.1,10.0,47.53426386552951,117.63619839831107,15.90126154652075
33.80000000000001,16.0852,8.02548,282.7,5.9,9.9,10.1,47.870549067470975,118.33491847151548,15.801276984896354
33.900000000000006,15.273,8.14587,282.8,5.2,10.0,10.0,48.239756208463035,119.07936142650371,15.901293617687664
34.0,14.5178,8.3012,282.7,3.9,9.1,9.9,48.58193825768005,119.77465052653083,16.001309231287905
34.099999999999994,13.7486,8.12788,282.4,2.4,7.6,9.8,48.93043998821527,120.48586246589727,16.101325288197206
34.19999999999999,13.0185,8.0347,282.8,-1.1,5.8,9.5,49.2661578083899,121.1597395034726,16.40134063391766
34.30000000000001,12.223,7.98499,283.1,-2.1,7.6,9.3,49.63637843924655,121.89408802389792,16.60135749500977
34.400000000000006,11.4536,8.12396,283.9,4.2,11.6,9.1,50.00512290585985,122.59921282262087,16.80137388677056
34.5,10.6467,8.14915,283.9,4.2,10.9,9.0,50.40004865880363,123.33640560995435,16.901391204432024
34.599999999999994,9.8832,8.17512,284.7,0.3,8.2,9.0,50.77792280223853,124.03583493859827,16.901407763597902
34.69999999999999,9.08678,8.2206,284.8,-2.0,6.6,9.0,51.1761362718935,124.76938620134779,16.901425251943035
34.80000000000001,8.34572,8.06579,284.6,-3.8,5.2,8.9,51.55463508932502,125.45286947295388,17.00144170606402
34.900000000000006,7.59557,7.71891,284.8,-7.7,1.5,8.8,51.948296626444474,126.1446690754519,17.10145854360915
35.0,6.91179,7.46385,284.6,-8.0,0.0,8.7,52.31391039311138,126.78086075033097,17.201474143018014
35.099999999999994,6.23505,7.14701,284.8,-4.9,1.6,8.6,52.67638123515039,127.42880322043752,17.301490037940525
35.19999999999999,5.60709,7.07088,285.2,-3.8,2.8,8.5,53.02435112496386,128.03912945147113,17.401505143411427
35.30000000000001,4.98548,6.72269,285.2,-5.7,1.1,8.5,53.38137680302806,128.66087781747325,17.40152063209161
35.400000000000006,4.45864,6.19627,286.5,-18.9,-14.3,8.6,53.69720211693266,129.21266165312753,17.301534436965106
35.5,3.99391,5.59336,287.9,-20.8,-20.5,8.6,53.99124226184943,129.73465556309424,17.301547514099088
35.599999999999994,3.63737,5.0608,286.8,-17.5,-18.6,8.6,54.231389194570795,130.1871422730008,17.301558769557456
35.69999999999999,3.33793,4.48422,287.5,-18.2,-17.7,8.6,54.45686208407431,130.6255287738287,17.30156965336319
35.80000000000001,3.12705,3.95219,288.6,-20.9,-18.2,8.6,54.64358510504672,131.00360065530668,17.30157900286103
35.900000000000006,2.98117,3.44694,288.9,-21.7,-18.3,8.6,54.80848259375964,131.3649368660815,17.301587846943658
36.0,2.90865,2.93766,289.2,-22.4,-18.9,8.6,54.93823994347832,131.6901936086116,17.3015956682273
36.099999999999994,2.87069,2.34333,289.3,-22.8,-18.8,8.6,55.048021882585815,131.93890123025398,17.301601753046025
36.19999999999999,2.86352,1.88917,289.2,-23.1,-18.3,8.6,55.128581239304495,132.133267942437,17.301606472288498
36.30000000000001,2.88154,1.44313,289.3,-24.1,-17.7,8.6,55.181602885604946,132.2941654930901,17.301610262916167
36.400000000000006,2.93813,1.08664,288.6,-22.9,-15.7,8.6,55.1747169383139,132.4052967980508,17.301612507423354
36.5,2.96586,0.80533,287.3,-19.4,-11.7,8.6,55.19347100625962,132.49704831587326,17.301614573464132
36.599999999999994,2.99135,0.608466,286.2,-16.0,-8.4,8.6,55.20215390414724,132.5625735400207,17.30161601065524
36.69999999999999,3.02114,0.513635,285.6,-13.3,-6.5,8.6,55.19969813753943,132.61594273170613,17.301617096428476
36.80000000000001,3.04821,0.404529,285.3,-11.7,-5.3,8.6,55.19260211043701,132.65569465062362,17.30161786136553
36.900000000000006,3.08556,0.303542,285.1,-10.6,-4.0,8.6,55.17292477890917,132.69431217729147,17.30161849167149
