time,distance(meters),speed(m/s), compass_heading(degrees), pitch(degrees), roll(degrees),height_above_takeoff(meters),North,East,Down
0.0,111.475,0.539703,264.0,2.5,-6.5,31.0,0.0,0.0,0.0
0.10000000000002274,111.416,0.706218,264.0,2.6,-6.1,31.0,0.0026439481426379025,0.06028622701656247,-1.0433972728787072e-09
0.19999999999998863,111.338,0.855708,264.0,2.6,-5.9,31.0,0.007134326207888019,0.14083333465466857,-3.1043983356182636e-10
0.30000000000001137,111.251,1.01253,264.1,2.1,-5.7,31.0,0.01207837232409299,0.22966654956739452,3.745510640355831e-09
0.39999999999997726,111.15,1.12947,264.1,1.6,-5.9,31.0,0.017949969606215588,0.33362096300854216,7.454621735875078e-09
0.5,111.038,1.26884,264.0,1.3,-6.1,31.0,0.028118344947036376,0.4469994016654857,1.513843541148252e-08
0.6000000000000227,110.912,1.37947,264.1,1.1,-6.0,31.0,0.055343815533021236,0.5704739008828371,2.4904254897900602e-08
0.6999999999999886,110.775,1.49726,264.4,0.0,-6.7,31.0,0.07234889206754619,0.7087870378581372,3.872487017164694e-08
0.8000000000000114,110.624,1.68449,264.3,-0.5,-7.7,31.0,0.08745554184127645,0.8621679077013221,5.861701177917178e-08
0.8999999999999773,110.472,1.85501,264.1,2.6,-5.7,30.9,0.10223567349061974,1.0165644823286506,0.10000008104778155
1.0,110.305,1.99543,264.0,3.0,-4.6,30.8,0.11859061758815499,1.185837856121439,0.20000010989060002
1.1000000000000227,110.125,2.14686,264.1,1.9,-5.4,30.7,0.1356679495925107,1.3684682929195242,0.3000001494407849
1.1999999999999886,109.915,2.25753,264.2,1.3,-5.7,30.6,0.15401670177957844,1.5822575463897448,0.40000019797449105
1.3000000000000114,109.709,2.34989,264.2,0.8,-5.4,30.5,0.17341437946637284,1.7918999099251383,0.5000002535938929
1.3999999999999773,109.462,2.41996,264.2,0.5,-5.6,30.4,0.19931645855837266,2.0419265635769217,0.6000003298055041
1.5,109.248,2.51004,264.2,0.1,-5.9,30.3,0.2214650044596029,2.2588393124597737,0.7000004038523513
1.6000000000000227,109.023,2.58721,264.2,0.0,-5.8,30.2,0.24653778499930823,2.4863139789740796,0.8000004885510759
1.6999999999999886,108.792,2.62395,264.3,0.1,-5.8,30.1,0.27464461836629717,2.7187068366855245,0.9000005843939158
1.8000000000000114,108.517,2.69098,264.4,-0.1,-5.7,30.1,0.33028322012996303,2.989330388526276,0.900000707794428
1.8999999999999773,108.264,2.78592,264.4,-0.1,-5.8,30.0,0.36116982866511727,3.2449625280055603,1.0000008342100393
2.0,107.998,2.84273,264.4,0.5,-5.5,29.9,0.3897274621797705,3.5143717459006627,1.100000980292863
2.1000000000000227,107.729,2.88175,264.4,0.6,-5.0,29.8,0.41988592686218745,3.7865302582276126,1.200001136280631
2.1999999999999886,107.425,2.94307,264.5,0.1,-4.7,29.8,0.4565719342251663,4.092887166653216,1.2000013282015936
2.3000000000000114,107.109,3.11518,264.5,0.0,-4.8,29.8,0.5002998195068615,4.409905269221739,1.200001542093048
2.3999999999999773,106.8,3.32881,264.4,-0.6,-5.7,29.9,0.5275254206184745,4.724578900619175,1.1000017691396462
2.5,106.507,3.52546,264.7,-0.8,-6.0,30.0,0.5521042039428817,5.0236884044980945,1.0000020002140542
2.6000000000000227,106.21,3.6353,264.6,-0.7,-5.7,30.2,0.5759259249173372,5.327456544231147,0.8000022483392105
2.6999999999999886,105.947,3.63885,264.6,-0.6,-5.7,30.3,0.5869439857265458,5.598927900518312,0.7000024806544027
2.8000000000000114,105.595,3.67218,264.6,-0.8,-5.9,30.5,0.6222315599056987,5.9555973329314735,0.5000028076195587
2.8999999999999773,105.258,3.69856,264.7,-1.1,-6.0,30.6,0.6553866181380011,6.298459065287462,0.40000313988099134
3.0,104.903,3.69669,264.7,-1.5,-5.9,30.8,0.6889260321226891,6.659641987997512,0.2000035091901003
3.1000000000000227,104.512,3.73814,264.7,-2.0,-5.9,30.9,0.7405714768210582,7.052861884285272,0.10000393800253277
3.1999999999999886,104.161,3.74269,264.7,-2.5,-6.1,31.0,0.7783701202709754,7.408691209381789,4.345535483840646e-06
3.3000000000000114,103.826,3.76571,264.7,-2.7,-6.6,31.2,0.8188387317644558,7.7477804361555815,-0.19999524574888372
3.3999999999999773,103.471,3.74403,264.8,-2.9,-7.0,31.3,0.867054283770812,8.104663673015486,-0.2999947987225468
3.5,103.136,3.70166,264.9,-3.4,-7.3,31.4,0.9164083200800551,8.4397662915225,-0.39999435514979775
3.6000000000000227,102.784,3.6086,264.9,-4.2,-8.6,31.5,0.9476534893322822,8.799360679052564,-0.49999386698719883
3.6999999999999886,102.445,3.51326,265.0,-3.2,-7.8,31.5,0.9763471675804247,9.145811726156483,-0.49999337465551896
3.8000000000000114,102.082,3.53378,264.9,-3.3,-7.9,31.5,1.0063816432976895,9.516135919606675,-0.49999282831830016
3.8999999999999773,101.747,3.7008,264.8,-4.1,-9.3,31.5,1.0358468428574141,9.858608091294274,-0.49999230505179715
4.0,101.443,3.84551,264.7,-3.0,-7.3,31.3,1.0520691388876762,10.171647083916746,-0.2999918101772726
4.100000000000023,101.109,3.97394,264.7,-2.1,-5.9,31.2,1.0833287706816868,10.51243130668918,-0.19999125317159172
4.199999999999989,100.726,4.03445,264.7,-2.5,-6.4,31.0,1.1206305345843104,10.902977829582765,9.407781566106443e-06
4.300000000000011,100.363,4.07648,264.8,-3.5,-7.4,30.9,1.1576086590374959,11.272026428856027,0.10001005547482555
4.399999999999977,99.9137,4.04515,265.0,-4.5,-8.1,30.6,1.21573268529135,11.725065982223189,0.40001088305580246
4.5,99.5639,4.02791,265.1,-5.2,-8.1,30.5,1.2453279999801317,12.082796567595516,0.5000115547552493
4.600000000000023,99.2088,3.99951,265.3,-5.2,-7.9,30.2,1.2654628710182914,12.449248176922936,0.8000122618633441
4.699999999999989,98.8781,3.87355,265.3,-4.7,-7.4,30.1,1.2822949915772128,12.791070936174428,0.9000129417287918
4.800000000000011,98.5551,3.84992,265.2,-4.9,-7.3,29.9,1.2822058081800196,13.130289302627329,1.100013631471258
4.899999999999977,98.2347,3.7989,265.2,-4.4,-7.0,29.8,1.2980294827002505,13.46192431442979,1.200014324648555
5.0,97.8998,3.72821,265.1,-4.1,-6.5,29.6,1.316335299451738,13.807977699086583,1.4000150679969696
5.100000000000023,97.5904,3.61846,265.1,-3.9,-6.6,29.5,1.3310753884275899,14.12843217380089,1.5000157711860713
5.199999999999989,97.328,3.47017,265.0,-4.1,-5.8,29.4,1.350866367403848,14.39797862293645,1.6000163780787564
5.300000000000011,97.0227,3.39255,264.8,-4.1,-6.1,29.3,1.3615495230824968,14.715592133068547,1.7000171047396926
5.399999999999977,96.6751,3.40199,264.6,-3.3,-6.0,29.3,1.3710307230237344,15.078141777554059,1.7000179530662924
5.5,96.3456,3.47982,264.7,-2.2,-5.3,29.4,1.375163350519147,15.423569587617461,1.6000187785071236
5.600000000000023,96.0001,3.55878,264.7,-1.5,-5.1,29.5,1.3751032603238866,15.787226854594987,1.500019667045517
5.699999999999989,95.6013,3.58605,264.5,-1.5,-5.1,29.6,1.3746387497374781,16.207313676769857,1.4000207195393337
5.800000000000011,95.2564,3.66695,264.2,-1.3,-5.1,29.7,1.3798781467411458,16.568916619629164,1.3000216505076978
5.899999999999977,94.9267,3.81843,264.0,-1.0,-5.3,29.8,1.3867241197735818,16.914077172539127,1.200022554534415
6.0,94.5788,3.90692,263.8,-1.0,-5.3,30.0,1.396555087453576,17.27768892136422,1.000023531208674
6.100000000000023,94.2484,3.9624,263.8,-1.4,-5.7,30.2,1.4029763455802737,17.623911325834108,0.8000244790630766
6.199999999999989,93.892,3.97118,263.8,-1.6,-6.1,30.3,1.4122958774256862,17.99683992693186,0.7000255216210585
6.300000000000011,93.5432,3.99903,263.8,-1.7,-5.9,30.5,1.4207630161723368,18.362055494659394,0.5000265634356365
6.399999999999977,93.1649,3.97852,263.8,-1.6,-5.8,30.6,1.4289788029940584,18.75875801768154,0.4000277186143084
6.5,92.7978,3.98672,263.8,-1.6,-5.6,30.7,1.4214927230009953,19.148930964580966,0.3000288749805575
6.600000000000023,92.4485,3.96458,263.9,-1.9,-5.7,30.9,1.427532665005053,19.516040561931995,0.10002998737712565
6.699999999999989,92.1037,3.82192,263.9,-2.7,-6.9,31.0,1.4389731889016757,19.876666077149,3.110343226941925e-05
6.800000000000011,91.7113,3.8084,264.0,-2.1,-6.3,31.0,1.4628302418202197,20.283449099659876,3.238738130029173e-05
6.899999999999977,91.3127,3.85147,263.9,-1.6,-5.4,31.0,1.479307391872428,20.6995415861371,3.372776737664562e-05
7.0,90.9125,3.90771,264.0,-1.5,-5.7,31.0,1.4979257341649372,21.116802530648037,3.509699540960032e-05
7.100000000000023,90.5249,3.99003,264.0,-1.5,-5.6,30.9,1.5198785848308214,21.5196750770668,0.10003644905822673
7.199999999999989,90.1136,4.04959,264.0,-2.1,-5.7,30.9,1.5481596722995974,21.94556576335862,0.10003790408223068
7.300000000000011,89.7316,4.14729,264.0,-2.5,-6.4,30.8,1.575435113432832,22.34091586576381,0.20003928300799
7.399999999999977,89.3357,4.20562,264.0,-2.7,-6.1,30.6,1.6076835196999764,22.749393531825923,0.4000407334366304
7.5,88.9673,4.26547,264.0,-2.8,-5.8,30.5,1.635976084516015,23.13030208767306,0.5000421089907086
7.600000000000023,88.5804,4.29153,264.0,-2.9,-5.5,30.4,1.6678979955983257,23.529608076075657,0.6000435784369442
7.699999999999989,88.2082,4.22941,264.0,-3.5,-5.5,30.2,1.6985224494170728,23.91386885330885,0.8000450134775607
7.800000000000011,87.8212,4.24393,264.1,-4.3,-6.1,30.0,1.7284736905691334,24.314197782343648,1.0000465323402785
7.899999999999977,87.4489,4.27019,264.1,-4.5,-6.3,29.9,1.7608637133818168,24.698176328716144,1.1000480161814048
8.0,87.0653,4.26839,264.1,-4.4,-6.3,29.7,1.7987410331454636,25.092395613242168,1.300049563764667
8.100000000000023,86.7019,4.26256,264.2,-4.2,-6.2,29.5,1.8363698130775776,25.465284835274574,1.500051050383861
8.199999999999989,86.3334,4.17106,264.3,-4.1,-5.7,29.4,1.8989008635389992,25.834798826635044,1.6000525533987977
8.300000000000011,85.9776,4.02258,264.4,-3.9,-4.6,29.2,1.9365903312424884,26.19978374359443,1.800054052402543
8.399999999999977,85.6156,3.89153,264.5,-4.2,-4.3,29.1,1.972436304064924,26.57203943541002,1.9000556011147103
8.5,85.2582,3.81657,264.3,-4.2,-5.4,29.0,2.0070686769622954,26.93999551188402,2.0000571543613654
8.600000000000023,84.8357,3.80828,264.1,-4.2,-6.1,29.1,2.0374941033868788,27.378953301550595,1.9000590324501294
8.699999999999989,84.4662,3.80451,263.9,-4.0,-6.1,29.1,2.0658735631908804,27.762305931974097,1.9000606966679612
8.800000000000011,84.0887,3.89885,263.9,-3.4,-5.6,29.3,2.0918894662104117,28.15521329897149,1.7000624251833711
8.899999999999977,83.7351,4.00072,263.9,-2.7,-5.3,29.4,2.113859902462627,28.52426999848561,1.6000640706233975
9.0,83.3706,4.04669,263.8,-2.5,-5.4,29.5,2.1333598048585474,28.905965906916357,1.5000657929761454
9.100000000000023,83.0195,4.07408,263.8,-2.8,-5.7,29.7,2.141942969349203,29.277657882715175,1.300067490787928
9.199999999999989,82.6378,4.0604,263.8,-3.1,-5.9,29.8,2.172767145532659,29.673802913145735,1.2000693302065832
9.300000000000011,82.2745,4.01955,263.9,-3.5,-6.3,30.0,2.201256542747679,30.051413519262866,1.0000711056742173
9.399999999999977,81.8934,3.922,264.0,-4.4,-7.3,30.1,2.229555285123313,30.44827645452216,0.9000729972764724
9.5,81.5158,3.87022,264.0,-4.7,-7.8,30.2,2.259717779837805,30.840816876495307,0.8000748913616201
9.600000000000023,81.131,3.88468,264.0,-4.8,-7.4,30.2,2.301652358198134,31.23676287018177,0.8000768319448506
9.699999999999989,80.775,3.92931,263.9,-4.7,-7.0,30.1,2.3392351407008185,31.603741362361347,0.9000786509983243
9.800000000000011,80.4256,4.07134,263.8,-4.0,-5.6,30.0,2.371038794236573,31.965847485558463,1.0000804647975499
9.899999999999977,80.0745,4.23241,263.7,-3.7,-5.1,29.8,2.3996436771879157,32.33117589041852,1.200082316363646
10.0,79.6731,4.33554,263.7,-3.9,-5.7,29.6,2.436249949986096,32.74752681358854,1.4000844515601174
10.100000000000023,79.301,4.42253,263.7,-4.4,-5.4,29.4,2.470911459200466,33.13332984817111,1.6000864554960565
10.199999999999989,78.925,4.42662,263.7,-4.4,-5.0,29.2,2.5072142547535288,33.52289023778336,1.800088503621819
10.300000000000011,78.5614,4.43267,263.7,-4.5,-5.2,29.0,2.5347703365526533,33.90257603642056,2.0000905193886673
10.399999999999977,78.1852,4.40869,263.7,-4.8,-5.6,28.7,2.569061992573745,34.29347994940865,2.300092621266459
10.5,77.8299,4.37764,263.7,-5.0,-6.1,28.5,2.6010535429535384,34.66286341072076,2.5000946283250323
10.600000000000023,77.4599,4.32752,263.7,-5.0,-6.0,28.3,2.6335999477894747,35.04802481323096,2.7000967441614407
10.699999999999989,77.1127,4.19298,263.8,-4.7,-5.4,28.0,2.6655943330805574,35.40906046888186,3.0000987507502406
10.800000000000011,76.7516,4.16929,263.8,-4.4,-5.4,27.9,2.704546923839734,35.78237741305402,3.100100848457906
10.899999999999977,76.4207,4.17064,263.7,-4.2,-5.9,27.7,2.7367840413465845,36.126085305809795,3.3001027974998185
11.0,76.0972,4.17164,263.7,-4.3,-6.0,27.5,2.765758820257187,36.463194852700425,3.500104725318768
11.100000000000023,75.7756,4.16751,263.7,-4.0,-5.2,27.2,2.793719328657122,36.79879168412717,3.8001066645897845
11.199999999999989,75.4176,4.08172,263.8,-3.1,-4.5,27.0,2.8233473119269172,37.17304735309777,4.000108844681337
11.300000000000011,75.0696,3.98217,263.9,-2.8,-4.4,26.9,2.855552791720987,37.53572593648924,4.100110982159518
11.399999999999977,74.7075,3.83248,264.2,-3.2,-4.7,26.7,2.8909108107052783,37.91256283815686,4.300113224984026
11.5,74.3632,3.69581,264.4,-4.3,-4.4,26.6,2.926523090718626,38.27019334896097,4.40011537483263
11.600000000000023,73.9796,3.62576,264.3,-4.1,-4.9,26.5,2.9703650015789655,38.66707778998712,4.500117785928489
11.699999999999989,73.6393,3.5609,264.2,-3.7,-5.5,26.5,3.005254946840544,39.02096677258917,4.50011995540744
11.800000000000011,73.2841,3.64963,264.1,-3.0,-6.0,26.6,3.0364781734670445,39.39255886906222,4.40012225233913
11.899999999999977,72.9494,3.78702,264.0,-1.9,-5.9,26.7,3.065534162594365,39.743187521353875,4.300124439715919
12.0,72.6166,3.87202,263.9,-0.9,-5.6,26.8,3.0915879023861943,40.09303721795186,4.200126638451627
12.100000000000023,72.2773,3.98499,263.8,-0.3,-5.4,27.0,3.1230827723677512,40.447912666672785,4.000128893034053
12.199999999999989,71.9107,4.02393,263.8,-0.2,-4.9,27.1,3.1575481899708335,40.83132679470051,3.900131351080864
12.300000000000011,71.5516,4.09342,263.8,-0.3,-4.6,27.3,3.193675136415415,41.20608127027183,3.700133776665487
12.399999999999977,71.1638,4.1112,263.9,-0.6,-4.7,27.4,3.2357604543663143,41.60979443988304,3.600136415836775
12.5,70.7859,4.08463,263.9,-1.0,-5.0,27.5,3.270763427683309,42.00584777786118,3.500139027244336
12.600000000000023,70.3937,4.03777,263.9,-1.0,-5.9,27.6,3.3015188491403,42.419534891018465,3.4001417789951507
12.699999999999989,70.0192,3.98773,263.9,-0.2,-5.1,27.6,3.3369494491491762,42.81223494726774,3.4001444183673013
12.800000000000011,69.6255,4.03844,263.9,-0.5,-5.3,27.6,3.3832708955481516,43.22135060917391,3.4001471998629698
12.899999999999977,69.2598,4.19026,263.8,-0.6,-6.3,27.6,3.3993819292800844,43.613294687814644,3.4001498733929356
13.0,68.8593,4.33072,263.7,0.1,-5.3,27.5,3.4438222871377957,44.03115397638176,3.500152766575261
13.100000000000023,68.4755,4.52251,263.7,-0.3,-4.5,27.3,3.491039391011742,44.429862870604474,3.7001555530885932
13.199999999999989,68.0686,4.65987,263.6,-0.6,-4.7,27.1,3.547272035260762,44.850008632071635,3.9001585225168443
13.300000000000011,67.6723,4.77106,263.7,-0.5,-4.1,26.9,3.6114162463129533,45.2552966203488,4.100161418584395
13.399999999999977,67.2533,4.82132,263.7,-1.8,-3.9,26.7,3.673413651261577,45.686599901136255,4.300164525727794
13.5,66.8533,4.85931,263.8,-2.8,-4.6,26.4,3.7342753147293037,46.09778667476033,4.600167517151957
13.600000000000023,66.433,4.84233,263.9,-3.6,-5.0,26.2,3.7994223651804715,46.529528991994724,4.800170687961474
13.699999999999989,66.037,4.82057,264.1,-3.7,-5.4,26.0,3.870963881392413,46.931891856276806,5.000173675316921
13.800000000000011,65.6297,4.65938,264.1,-3.6,-6.0,25.7,3.9339436670475645,47.35073455731437,5.300176807309813
13.899999999999977,65.2435,4.67772,264.2,-3.4,-6.4,25.5,3.9916037528636457,47.749004018250766,5.50017980917294
14.0,64.8382,4.6487,264.1,-3.5,-6.4,25.3,4.048660028367806,48.168782941967365,5.700182998498467
14.100000000000023,64.4619,4.5747,264.1,-2.7,-5.7,25.1,4.09981281223194,48.55957579255855,5.9001859924043645
14.199999999999989,64.1246,4.44443,264.1,-1.9,-4.6,24.9,4.130842538888611,48.91689210722586,6.100188741285773
14.300000000000011,63.744,4.33434,264.3,-3.6,-4.4,24.8,4.182388407340239,49.31271078376802,6.200191818583895
14.399999999999977,63.3126,4.22192,264.4,-4.6,-4.9,24.7,4.245767299135851,49.759311340120604,6.300195325879057
14.5,62.9102,4.16965,264.2,-4.4,-5.4,24.7,4.301118935660762,50.17798435192401,6.3001986397097545
14.600000000000023,62.4311,4.16836,263.9,-3.8,-5.6,24.8,4.354078545579378,50.682879410467024,6.200202664093106
14.699999999999989,62.054,4.17174,263.9,-2.8,-5.1,24.8,4.3979961239852585,51.07957713562051,6.200205854437089
14.800000000000011,61.6749,4.28197,263.9,-2.1,-4.6,25.0,4.442792288583626,51.47827733557182,6.000209088406986
14.899999999999977,61.3119,4.41368,263.9,-2.0,-4.4,25.1,4.487042187744166,51.859789780526164,5.900212208655309
15.0,60.9637,4.48289,263.8,-1.8,-4.6,25.3,4.533297443826811,52.22413897937237,5.700215211388046
15.100000000000023,60.5804,4.55368,263.8,-2.1,-4.7,25.5,4.582664966683158,52.626210939744595,5.500218547348364
15.199999999999989,60.1565,4.57742,263.8,-2.4,-4.9,25.6,4.63396867911584,53.072908644322155,5.400222282634058
15.300000000000011,59.7482,4.60477,263.8,-2.7,-5.1,25.8,4.683717811324819,53.503359569874476,5.200225911191127
15.399999999999977,59.2536,4.53046,263.9,-3.6,-5.9,26.0,4.727908005173869,54.03317120795654,5.000230405805925
15.5,58.8464,4.39215,263.9,-4.8,-7.4,26.1,4.781280618673048,54.461551690147004,4.9002340868000855
15.600000000000023,58.4226,4.2966,264.1,-3.9,-6.6,26.2,4.840952578175221,54.905599380836605,4.800237933996191
15.699999999999989,58.0254,4.18511,264.1,-3.5,-5.7,26.3,4.900896003552974,55.32017985844624,4.700241558730315
15.800000000000011,57.6175,4.27098,263.9,-4.3,-6.6,26.2,4.967320641088781,55.74389237323402,4.800245296125967
15.899999999999977,57.2503,4.45255,263.9,-4.2,-6.2,26.1,5.037952221059165,56.11998077302212,4.900248647258737
16.0,56.8515,4.58782,263.7,-3.5,-4.5,26.0,5.098580396361263,56.537041489525876,5.000252374758624
16.100000000000023,56.4711,4.71066,263.4,-2.8,-3.2,25.8,5.156512426569169,56.93497837130349,5.20025595780017
16.19999999999999,56.0673,4.75847,263.1,-3.1,-3.5,25.6,5.218423538116154,57.3576742136579,5.400259791656673
16.30000000000001,55.7102,4.79178,262.9,-3.7,-4.0,25.3,5.2665106626963105,57.73518896391082,5.700263233978492
16.399999999999977,55.2947,4.78899,262.7,-4.6,-3.9,25.1,5.3319037914733425,58.170027479377566,5.900267235436953
16.5,54.9037,4.77575,262.6,-4.7,-4.2,24.8,5.396083071515891,58.5781127957906,6.20027102118247
16.600000000000023,54.4988,4.74363,262.4,-4.4,-4.6,24.6,5.466301710060464,58.999162691222764,6.400274957752557
16.69999999999999,54.1036,4.63984,262.4,-3.4,-4.6,24.4,5.532833243731125,59.411533168309674,6.600278840389329
16.80000000000001,53.741,4.61801,262.4,-3.2,-4.0,24.1,5.595053262263777,59.789597500576306,6.900282423762588
16.899999999999977,53.3776,4.61679,262.3,-3.5,-4.3,23.9,5.6563920727894486,60.16935051524909,7.100286045878232
17.0,52.9603,4.60572,262.3,-3.1,-4.8,23.7,5.724885794678416,60.606838834628,7.300290245569483
17.100000000000023,52.5504,4.58939,262.3,-3.0,-4.6,23.5,5.777839488450354,61.04492670999266,7.500294467196548
17.19999999999999,52.1446,4.50346,262.3,-2.8,-3.7,23.3,5.846350497529758,61.470226380097394,7.700298611269628
17.30000000000001,51.7631,4.39291,262.4,-1.0,-3.7,23.1,5.912694202420622,61.869464929831665,7.900302528662286
17.399999999999977,51.3665,4.29801,262.7,-1.0,-3.7,23.0,5.9847045152428135,62.28335206377723,8.000306619073479
17.5,50.9807,4.20971,263.2,-3.8,-4.0,22.9,6.058624776620899,62.68403869350095,8.100310610717184
17.600000000000023,50.5747,4.12388,263.5,-4.4,-4.7,22.8,6.139734388885941,63.10427585369304,8.2003148295801
17.69999999999999,50.2021,4.06156,263.3,-3.4,-5.2,22.9,6.2152642511657685,63.489766883909425,8.100318725075542
17.80000000000001,49.8395,4.15113,263.1,-2.8,-5.4,23.0,6.290603341224288,63.86414997905974,8.000322532744743
17.899999999999977,49.4817,4.28597,263.2,-1.9,-4.7,23.1,6.36076146420318,64.23623056393816,7.900326334897503
18.0,49.1169,4.36951,263.2,-1.5,-4.6,23.2,6.4278365102088895,64.6186286977532,7.800330261306128
18.100000000000023,48.7399,4.45223,263.2,-1.7,-4.8,23.4,6.496946002531837,65.01428942649275,7.6003343488415975
18.19999999999999,48.3598,4.47177,263.2,-2.0,-5.2,23.5,6.565104790184149,65.41451604051562,7.5003385063673
18.30000000000001,47.979,4.49662,263.2,-2.0,-5.2,23.7,6.63168600505151,65.81703098057349,7.30034271342347
18.399999999999977,47.5323,4.49759,263.3,-1.9,-5.0,23.8,6.690364746246997,66.30121454462439,7.200347784111312
18.5,47.1231,4.46688,263.4,-2.6,-5.1,24.0,6.766337268853208,66.73241767438876,7.000352356395348
18.600000000000023,46.697,4.36531,263.5,-3.3,-6.2,24.1,6.852900041078092,67.17751132137482,6.900357116601685
18.69999999999999,46.2979,4.3279,263.6,-2.9,-6.4,24.1,6.935206208183954,67.59421356854364,6.9003616049947
18.80000000000001,45.8879,4.18514,263.4,-2.8,-6.4,24.1,7.03050389738812,68.01630739953325,6.900366192501707
18.899999999999977,45.4962,4.36211,263.4,-2.7,-6.6,24.1,7.113122123713357,68.42514356658377,6.900370652792971
19.0,45.0795,4.49318,263.3,-1.3,-5.2,23.9,7.201487658914233,68.86038993048766,7.100375431936328
19.100000000000023,44.6785,4.66295,263.3,-0.9,-4.5,23.8,7.287469315069016,69.27927137812962,7.20038006087789
19.19999999999999,44.2519,4.75581,263.3,-1.5,-4.7,23.6,7.37982543327332,69.72480080925438,7.400385017616347
19.30000000000001,43.8413,4.84149,263.4,-1.9,-4.8,23.4,7.471654089100777,70.15255138973501,7.600389811814308
19.399999999999977,43.4176,4.87357,263.5,-2.4,-5.1,23.2,7.565612465069458,70.5949343114569,7.8003947985752164
19.5,43.0176,4.90158,263.6,-3.3,-5.6,23.0,7.650545165272252,71.01571232445269,8.000399567026335
19.600000000000023,42.6018,4.87253,263.6,-4.3,-5.8,22.8,7.7341271611654605,71.4568122512356,8.200404590064915
19.69999999999999,42.2219,4.74639,263.7,-4.4,-5.8,22.6,7.7999670499343985,71.86738737041021,8.400409279318934
19.80000000000001,41.8047,4.63789,263.5,-4.7,-5.4,22.4,7.8889221999323125,72.30820844052025,8.600414365752586
19.899999999999977,41.4199,4.48019,263.9,-5.3,-5.5,22.3,7.970706808218743,72.71568772732586,8.700419096287966
20.0,41.0313,4.29274,264.4,-5.3,-5.0,22.2,8.052992798905413,73.12810810575864,8.800423911527618
20.100000000000023,40.6606,4.2036,264.8,-4.2,-4.8,22.1,8.124876297577961,73.52677057532802,8.90042858154284
20.19999999999999,40.2634,4.18555,265.1,-2.8,-4.3,22.1,8.200028256859154,73.95600486532261,8.900433635378532
20.30000000000001,39.8901,4.26891,265.2,-2.3,-3.8,22.2,8.269976078426879,74.36073720717388,8.800438427663506
20.399999999999977,39.5009,4.35075,265.3,-1.8,-3.5,22.3,8.343966555731425,74.78295431930846,8.700443454946988
20.5,39.1237,4.42904,265.4,-1.6,-3.9,22.4,8.417513399994165,75.19173614010867,8.600448354396685
20.600000000000023,38.7273,4.47234,265.4,-1.5,-4.5,22.5,8.500516478817737,75.61831771202282,8.500453501521903
20.69999999999999,38.3519,4.41648,265.5,-1.7,-4.8,22.7,8.575872338759108,76.0256573319583,8.300458442350822
20.80000000000001,37.9596,4.43816,265.6,-1.9,-4.6,22.8,8.650505874793287,76.45516967534044,8.200463670640051
20.899999999999977,37.586,4.45156,265.9,-2.0,-4.6,23.0,8.723376778990692,76.86405392112603,8.00046868102519
21.0,37.2092,4.35576,266.1,-2.8,-6.2,23.1,8.78402483944695,77.28708644390025,7.90047387170068
21.100000000000023,36.8327,4.34407,266.1,-2.4,-6.2,23.2,8.860205660468553,77.69935838152688,7.800478981222739
21.19999999999999,36.4336,4.36693,266.0,-2.4,-5.5,23.2,8.941560323549078,78.13725485377137,7.800484440628214
21.30000000000001,36.0518,4.4875,266.0,-2.9,-5.6,23.1,9.018739306618315,78.55798225168766,7.900489711089768
21.399999999999977,35.6417,4.62008,266.0,-2.2,-5.0,23.0,9.086849777314121,79.02271763180534,8.000495543733228
21.5,35.2601,4.77272,265.9,-1.6,-4.2,22.8,9.166138043482245,79.44436971666872,8.200500890933105
21.600000000000023,34.8618,4.87774,265.9,-2.4,-3.4,22.6,9.253114126220922,79.88256714789848,8.400506484365394
21.69999999999999,34.4862,4.87609,266.0,-3.3,-3.3,22.4,9.335228339022295,80.29711486913556,8.600511805843034
21.80000000000001,34.1141,4.88694,266.3,-4.0,-3.5,22.2,9.415870325280267,80.70969031628533,8.800517126304085
21.899999999999977,33.7425,4.91667,266.3,-4.1,-4.3,21.9,9.500522865141267,81.11986642565796,9.100522450243
22.0,33.3513,4.90621,266.2,-3.7,-5.2,21.7,9.592390965046972,81.55095940889444,9.300528081395354
22.100000000000023,32.9886,4.88838,266.0,-4.0,-5.6,21.5,9.676923675740644,81.9525107840179,9.500533349609103
22.19999999999999,32.6621,4.85521,266.0,-4.7,-5.5,21.3,9.750439659238827,82.3174506859197,9.70053815702088
22.30000000000001,32.3166,4.81989,265.9,-5.5,-4.8,21.1,9.829343422122307,82.70415582300001,9.90054327746439
22.399999999999977,31.9429,4.71682,265.9,-4.5,-4.4,20.8,9.917233818308926,83.12175864247013,10.200548837031567
22.5,31.5756,4.50863,265.8,-4.8,-3.8,20.6,10.00373589855062,83.53388703935602,10.400554353011234
22.600000000000023,31.1775,4.2646,266.2,-5.9,-3.9,20.5,10.097462360473546,83.98266637731729,10.500560387025244
22.69999999999999,30.7433,3.99516,266.5,-4.8,-4.0,20.4,10.204095383668074,84.47068231119687,10.600566995814638
22.80000000000001,30.3659,3.96351,266.6,-3.1,-3.8,20.4,10.2927694962355,84.90072762966327,10.600572843384148
22.899999999999977,30.0228,4.07634,266.3,-1.8,-3.7,20.4,10.371403548329534,85.29539104278089,10.600578231812921
23.0,29.6787,4.21059,266.3,-0.6,-3.1,20.5,10.448293971881833,85.69521266755319,10.500583710827764
23.100000000000023,29.3468,4.34956,266.4,-0.4,-3.0,20.7,10.521084212471191,86.08420648870978,10.300589066052071
23.19999999999999,28.994,4.43192,266.6,-1.0,-3.6,20.8,10.604619300537385,86.49419474966413,10.200594744428171
23.30000000000001,28.6568,4.50704,266.8,-1.6,-4.2,21.0,10.684991813382391,86.88785470872355,10.00060022476909
23.399999999999977,28.3012,4.52993,266.9,-1.7,-4.5,21.1,10.769336096405024,87.30582932460148,9.900606070152444
23.5,27.9882,4.47799,267.1,-2.4,-4.8,21.3,10.839258401751422,87.68049059229523,9.700611322127882
23.600000000000023,27.6302,4.36044,267.4,-2.9,-5.7,21.5,10.926252674841367,88.10482052960492,9.500617312998425
23.69999999999999,27.2907,4.20869,267.5,-2.6,-5.9,21.5,11.008819641557245,88.50996754373554,9.500623059707586
23.80000000000001,26.9352,4.2035,267.6,-2.6,-5.5,21.6,11.09527635855235,88.93740244722274,9.400629149701711
23.899999999999977,26.6246,4.34527,267.5,-3.6,-6.0,21.5,11.15617572390928,89.32973345804469,9.50063473380461
24.0,26.2814,4.5549,267.5,-3.7,-5.7,21.4,11.23870081429412,89.75022932731505,9.600640776952572
24.100000000000023,25.9495,4.77528,267.5,-1.6,-3.9,21.2,11.3201969386962,90.15860010820873,9.800646674977063
24.19999999999999,25.5905,4.90694,267.5,-0.4,-2.2,21.0,11.411858867462527,90.60058192970571,10.000653094767047
24.30000000000001,25.251,5.03301,267.5,-2.4,-2.2,20.8,11.500899755176983,91.01978654550115,10.200659218255678
24.399999999999977,24.882,5.03152,267.6,-4.0,-3.0,20.5,11.597359802529061,91.48073604080668,10.50066598189218
24.5,24.5533,5.02936,267.5,-4.1,-4.1,20.2,11.688256989874251,91.88971516434316,10.800672022424747
24.600000000000023,24.2173,4.98157,267.2,-3.8,-4.9,19.9,11.782010623560518,92.31146413914524,11.100678278967887
24.69999999999999,23.8998,4.85331,267.0,-4.1,-5.2,19.7,11.872866032468428,92.7116163068655,11.300684247798962
24.80000000000001,23.577,4.83085,266.9,-5.1,-4.4,19.5,11.971477044040723,93.11494343493634,11.500690301334267
24.899999999999977,23.2656,4.79109,266.8,-4.7,-4.0,19.2,12.062952077903494,93.51366213817681,11.800696302201041
25.0,22.944,4.63591,266.7,-3.8,-3.9,19.0,12.155642560706758,93.93335044825301,12.000702638797375
25.100000000000023,22.6424,4.5455,266.8,-5.0,-3.5,18.8,12.243999953156372,94.33055464519617,12.200708665839656
25.19999999999999,22.325,4.32256,266.8,-6.0,-3.5,18.6,12.336112618546348,94.75627608289957,12.400715148209816
25.30000000000001,22.0336,4.09468,267.1,-6.1,-3.4,18.5,12.425637531329352,95.1461263582765,12.500721120654028
25.399999999999977,21.733,3.94363,267.2,-4.7,-3.2,18.4,12.520014184481559,95.55165521287861,12.600727361878056
25.5,21.4602,3.91924,267.1,-3.7,-2.9,18.4,12.605930123854918,95.92547132148076,12.600733139068147
25.600000000000023,21.1905,3.97864,267.1,-2.7,-2.9,18.5,12.685688725906559,96.3099969391518,12.500739086398786
25.69999999999999,20.9355,3.97317,267.4,-1.8,-2.4,18.6,12.766363115630664,96.67172150190783,12.400744715321379
25.80000000000001,20.6735,3.98153,267.3,-1.3,-3.5,18.7,12.84922074838933,97.05077618268476,12.30075063195686
25.899999999999977,20.4232,4.08654,267.4,-0.1,-3.9,18.8,12.929117947006377,97.41912581582088,12.200756403773589
26.0,20.1564,4.20298,267.4,0.1,-3.3,18.9,13.01580592708006,97.81819785890717,12.100762683225753
26.100000000000023,19.925,4.30565,267.5,-0.6,-3.4,19.1,13.079027813013152,98.19602856077668,11.900768612376805
26.19999999999999,19.6672,4.34931,267.5,-1.4,-4.0,19.2,13.160449733094104,98.60700475224283,11.800775115981818
26.30000000000001,19.4277,4.42173,267.5,-1.3,-4.0,19.3,13.238431420465385,98.99573982594704,11.7007812937859
26.399999999999977,19.1812,4.44202,267.4,-0.8,-4.0,19.5,13.322373215305571,99.4006356984212,11.50078775860959
26.5,18.9639,4.47085,267.4,-0.8,-3.8,19.7,13.38697796259854,99.79120677388727,11.300793988296133
26.600000000000023,18.7247,4.45417,267.4,-1.4,-3.8,19.8,13.471920916137519,100.20542629670314,11.200800655390353
26.69999999999999,18.4977,4.2988,267.6,-2.5,-4.5,20.0,13.555747154651637,100.60651615250589,11.00080714122068
26.80000000000001,18.2612,4.17977,267.7,-3.8,-6.2,20.1,13.646849370134854,101.03396758547535,10.900814086194362
26.899999999999977,18.0375,4.14264,267.7,-3.9,-6.1,20.2,13.735453495405547,101.45224325758682,10.800820910619283
27.0,17.8172,4.18355,267.7,-3.4,-4.7,20.2,13.827880318107578,101.8716408805027,10.800827789229162
27.100000000000023,17.6148,4.3616,267.7,-3.1,-4.0,20.1,13.91627577544348,102.26886164866771,10.900834332396911
27.19999999999999,17.4101,4.51491,267.6,-2.4,-3.0,20.0,14.00940453558422,102.68430838532082,11.000841205340755
27.30000000000001,17.2268,4.64914,267.8,-1.7,-1.9,19.8,14.095285810722768,103.07432921800327,11.20084767967803
27.399999999999977,17.0327,4.71439,267.8,-3.1,-2.2,19.5,14.193592251446898,103.49048952517089,11.500854631535109
27.5,16.8583,4.76167,267.9,-4.8,-3.3,19.3,14.288038094954974,103.8711191456149,11.700861024535792
27.600000000000023,16.691,4.71656,267.8,-4.3,-4.6,19.1,14.385540944634055,104.23712396112133,11.90086720990887
27.69999999999999,16.5409,4.56329,267.4,-3.7,-5.6,18.8,14.475435189666534,104.58636982623923,12.200873125413283
27.80000000000001,16.4295,4.48721,267.1,-5.1,-5.2,18.6,14.53980571753687,104.88904366854044,12.400878238274274
27.899999999999977,16.2857,4.45717,267.1,-6.1,-4.2,18.4,14.630914228790074,105.27658558379355,12.600884825111192
28.0,16.1281,4.40495,267.2,-6.0,-3.8,18.2,14.73945161485856,105.7116142669256,12.800892265246233
28.100000000000023,15.9914,4.37983,267.2,-5.1,-3.9,18.0,14.841274692296064,106.10568487703178,13.000899037910797
28.19999999999999,15.8257,4.26694,267.2,-5.7,-2.9,17.8,14.97719251321391,106.57842095273142,13.200907231412653
28.30000000000001,15.7134,4.16318,267.4,-6.0,-2.6,17.7,15.075978576415348,106.94023543980887,13.300913516406226
28.399999999999977,15.6066,4.05152,267.5,-4.9,-3.3,17.5,15.17742580717233,107.3130838246999,13.500920013008818
28.5,15.5157,3.86326,267.3,-4.9,-3.2,17.3,15.27124145695486,107.66082232734912,13.700926092497486
28.600000000000023,15.4549,3.68266,267.4,-5.7,-2.7,17.2,15.342794742740281,108.00606946204006,13.800932096430136
28.69999999999999,15.3822,3.52308,267.5,-4.8,-2.5,17.2,15.433068110454698,108.3373436576898,13.800937928075397
28.80000000000001,15.3117,3.49066,267.3,-3.9,-3.0,17.2,15.529421231455204,108.67843590852662,13.800943959118442
28.899999999999977,15.2528,3.52219,267.2,-4.0,-3.3,17.2,15.620565800711535,109.00674216998888,13.800949779379419
29.0,15.2196,3.58777,267.2,-3.2,-2.9,17.2,15.697483980764764,109.36614669096252,13.800956115403594
29.100000000000023,15.1778,3.69631,267.4,-2.5,-2.3,17.4,15.787729018082263,109.69888749022545,13.600962047637266
29.19999999999999,15.1414,3.75764,267.4,-2.9,-2.5,17.5,15.882722963027842,110.04517685234265,13.500968242541179
29.30000000000001,15.1108,3.79269,267.4,-3.6,-3.1,17.6,15.976719815662833,110.37336572446574,13.400974144771888
29.399999999999977,15.0821,3.77376,267.4,-4.1,-3.6,17.8,16.079680502418963,110.71537335874531,13.20098032691363
29.5,15.074,3.69681,267.5,-4.6,-4.1,17.9,16.165989688812452,111.04094214885488,13.100986199628815
29.600000000000023,15.059,3.57148,267.6,-5.3,-4.9,18.0,16.271544968404474,111.38224185928837,13.000992413901042
29.69999999999999,15.0547,3.36176,267.9,-10.7,-6.0,18.1,16.368405355025516,111.70287277518017,12.900998264365079
29.80000000000001,15.0617,3.12045,269.1,-23.6,-9.3,18.1,16.4609123523618,112.02221182022026,12.901004098547912
29.899999999999977,15.0851,2.79378,269.9,-26.8,-10.8,18.1,16.527674329056985,112.29502357080978,12.901009064826795
30.0,15.0969,2.38865,269.8,-26.1,-10.3,18.1,16.605422200141113,112.54952181325677,12.901013749271424
30.100000000000023,15.11,1.99524,270.0,-26.7,-10.5,18.1,16.667685809778124,112.7537572213596,12.901017515753981
30.19999999999999,15.1241,1.57163,270.2,-27.3,-11.2,18.1,16.720188163939767,112.92817908581881,12.901020735579554
30.30000000000001,15.1601,1.2075,269.9,-25.7,-11.3,18.1,16.742859935251715,113.08158538558814,12.90102351180619
30.399999999999977,15.1839,0.894858,269.4,-22.3,-10.1,18.1,16.76527991238157,113.19873674064019,12.901025645712654
30.5,15.2064,0.641553,268.9,-19.1,-8.5,18.1,16.777352022924394,113.28582635776131,12.901027222391782
30.600000000000023,15.2282,0.459972,268.5,-16.5,-7.4,18.1,16.783704086057615,113.35630664974312,12.901028491321272
30.69999999999999,15.2874,0.332627,268.2,-14.3,-6.8,18.1,16.74563920957612,113.4177128571078,12.901029480127416
30.80000000000001,15.3122,0.2668,268.0,-12.7,-6.3,18.1,16.73134490586893,113.44704651039012,12.901029964371872
