time,distance(meters),speed(m/s), compass_heading(degrees), pitch(degrees), roll(degrees),height_above_takeoff(meters),North,East,Down
0.0,0.671085,0.678663,245.0,-15.0,-3.8,8.7,0.0,0.0,0.0
0.09999999999999432,0.690081,0.983806,245.2,-19.0,-5.5,8.7,-0.010665607623125663,-0.017456513210113038,-2.756224328631651e-10
0.20000000000001705,0.717315,1.1688,245.1,-17.1,-3.2,8.7,-0.020315178514264138,-0.049437435287963155,2.309526857952049e-10
0.30000000000001137,0.759967,1.32212,245.1,-16.4,-2.1,8.5,-0.03488665037225633,-0.09865366031019335,0.20000000119053252
0.4000000000000057,0.816885,1.45454,245.1,-17.8,-4.0,8.4,-0.05840480906258247,-0.1577173344192982,0.3000000008535336
0.5,0.895394,1.53047,245.3,-18.5,-3.6,8.3,-0.09665110817404543,-0.2312947307515136,0.4000000046961764
0.5999999999999943,0.980024,1.61051,245.2,-18.5,-2.7,8.2,-0.13735325657394187,-0.3100062576137147,0.5000000087455622
0.700000000000017,1.09349,1.5756,245.0,-17.7,-2.3,8.0,-0.1915987218320252,-0.4145284179923574,0.7000000161306894
0.8000000000000114,1.21988,1.58803,244.8,-16.3,-1.6,7.9,-0.2530092067112048,-0.5288776367708816,0.8000000268357399
0.9000000000000057,1.36867,1.65045,244.7,-15.7,-1.8,7.8,-0.3298380574090727,-0.6587393349301726,0.9000000418394476
1.0,1.52945,1.7151,244.6,-15.7,-2.6,7.7,-0.42842127253703133,-0.7858598079405963,1.0000000630659398
1.0999999999999943,1.70983,1.91545,244.4,-14.0,-2.0,7.7,-0.5258540716438243,-0.9391461646151413,1.000000090066652
1.200000000000017,1.89342,2.22137,244.0,-12.2,-1.2,7.7,-0.6219794386131003,-1.0972609689801232,1.0000001244696628
1.3000000000000114,2.0939,2.58622,244.0,-9.7,-1.6,7.8,-0.7197640557200464,-1.2750476695098867,0.9000001680180223
1.4000000000000057,2.29439,2.98004,244.1,-9.9,-1.4,7.9,-0.8238791352935511,-1.4476697876352826,0.8000002164314368
1.5,2.51893,3.36873,244.4,-10.7,-0.4,8.1,-0.9502473989311256,-1.6335949843336168,0.6000002795379867
1.5999999999999943,2.72903,3.79705,244.6,-11.4,0.2,8.4,-1.0646776694936242,-1.810341602086023,0.30000034504942064
1.700000000000017,2.94071,4.12566,245.0,-12.0,0.3,8.6,-1.173656972353482,-1.9929137436466826,0.10000041833978601
1.8000000000000114,3.14923,4.33265,245.7,-12.5,-0.3,9.0,-1.309455715615712,-2.1520909875702827,-0.29999950265414344
1.9000000000000057,3.36032,4.2091,246.6,-12.5,-1.4,9.4,-1.4201758514016398,-2.3326790757043177,-0.6999994153396172
2.0,3.559,3.7076,247.7,-13.9,-2.6,9.8,-1.523926755086449,-2.5028971961263395,-1.0999993262305423
2.0999999999999943,3.76205,3.09618,248.7,-18.3,-2.9,10.2,-1.627856641088788,-2.6782895984948465,-1.4999992303759844
2.200000000000017,3.94778,2.51868,248.9,-18.7,-3.0,10.5,-1.7248308181221763,-2.8372883672193634,-1.7999991353447662
2.3000000000000114,4.13448,2.06607,248.9,-17.4,-2.9,10.7,-1.8601665247197177,-2.970212986231738,-1.9999990379508459
2.4000000000000057,4.31338,1.77689,248.9,-19.7,-3.1,10.8,-1.950077318945765,-3.125948576413802,-2.0999989353743964
2.5,4.50208,1.87785,249.2,-22.4,-3.4,10.8,-2.0279808970605666,-3.3020434374206107,-2.0999988220720374
2.5999999999999943,4.68096,2.17318,249.2,-21.7,-3.5,10.8,-2.1004029952441488,-3.4696286250686423,-2.0999987093630743
2.700000000000017,4.88273,2.38259,249.2,-20.2,-3.4,10.7,-2.1521277009766253,-3.678393474886764,-1.9999985765467305
2.8000000000000114,5.07378,2.63884,249.2,-20.2,-3.1,10.5,-2.2325987491103536,-3.854368900511833,-1.7999984446521644
2.9000000000000057,5.28459,2.7429,249.2,-21.2,-3.2,10.3,-2.327704651270606,-4.044214171860121,-1.59999829235499
3.0,5.50313,2.70836,249.1,-18.7,-2.6,10.1,-2.425182858608197,-4.241621422711436,-1.3999981285613528
3.0999999999999943,5.75445,2.65807,249.1,-16.4,-2.0,10.0,-2.5335258053599126,-4.470865166503309,-1.2999979307299754
3.200000000000017,6.01127,2.71848,249.1,-14.4,-1.1,9.8,-2.6429707046349113,-4.7057277075887205,-1.0999977169197503
3.3000000000000114,6.29354,2.87958,249.6,-12.4,-0.7,9.8,-2.7618254923258894,-4.964532624567733,-1.0999974695910049
3.4000000000000057,6.55934,3.11083,250.4,-10.8,-1.0,9.8,-2.866121988819326,-5.212716010335949,-1.0999972262157378
3.5,6.83436,3.38538,251.1,-10.4,-1.6,9.9,-2.9284372722977086,-5.496519519290208,-1.1999969601605263
3.5999999999999943,7.10138,3.74526,251.5,-11.1,-2.1,10.1,-3.0203102038473673,-5.752537149206221,-1.399996690859337
3.700000000000017,7.39972,4.06038,251.8,-10.7,-2.8,10.3,-3.1381316875031504,-6.029393116146704,-1.59999637818071
3.8000000000000114,7.68034,4.41429,252.1,-10.2,-3.5,10.6,-3.251403626547882,-6.2882241523982785,-1.8999960726392566
3.9000000000000057,7.96559,4.74743,252.5,-9.6,-3.4,10.9,-3.3749443181971888,-6.546418018840723,-2.1999957483421806
4.0,8.26474,4.75951,252.9,-8.5,-2.9,11.3,-3.538918253652718,-6.797585130615314,-2.5999953966998746
4.099999999999994,8.55957,4.27995,253.6,-10.6,-3.6,11.8,-3.6702648393891755,-7.062370432586809,-3.099995033550748
4.200000000000017,8.83335,3.73965,254.3,-15.6,-4.5,12.2,-3.788535441706351,-7.310320532495971,-3.4999946867148046
4.300000000000011,9.11181,3.22943,254.5,-16.3,-3.8,12.5,-3.899607732788682,-7.567665879001119,-3.7999943187816845
4.400000000000006,9.41517,2.75865,254.5,-15.3,-3.4,12.7,-4.037219081177086,-7.838609182140324,-3.9999939049894766
4.5,9.68532,2.51203,254.5,-17.8,-3.7,12.9,-4.134638176650107,-8.093883407848853,-4.199993524731703
4.599999999999994,9.93469,2.52943,254.7,-21.1,-5.1,12.9,-4.223964226889903,-8.32970230495,-4.199993163057222
4.700000000000017,10.19,2.69702,254.8,-21.0,-5.1,12.9,-4.317976418936528,-8.569604105995491,-4.19999278247062
4.800000000000011,10.4367,2.89004,254.8,-19.4,-3.9,12.8,-4.407871272526189,-8.80181919496145,-4.099992403923046
4.900000000000006,10.7124,3.00111,254.7,-19.7,-4.0,12.7,-4.491579191020483,-9.070173186601924,-3.999991969948964
5.0,10.9951,3.11038,254.5,-17.4,-3.7,12.6,-4.576289412280561,-9.345738345136782,-3.8999915117949273
5.099999999999994,11.3135,3.27527,254.6,-15.0,-3.3,12.5,-4.6717324753002485,-9.655685915844842,-3.7999909821600864
5.200000000000017,11.6284,3.51083,254.8,-13.2,-3.8,12.5,-4.724193098565108,-9.98337800422776,-3.799990439229896
5.300000000000011,11.9754,3.82872,255.1,-12.9,-4.7,12.5,-4.8236125727621095,-10.322565632239458,-3.799989823598233
5.400000000000006,12.3191,4.13693,255.3,-13.2,-5.2,12.6,-4.931333445649978,-10.653431093197003,-3.899989197298397
5.5,12.694,4.49362,255.2,-12.3,-5.4,12.8,-5.062546092248299,-11.007317345017949,-4.099988494235628
5.599999999999994,13.0527,4.851,255.4,-10.4,-3.1,13.1,-5.18828962543498,-11.345707508077693,-4.399987801159185
5.700000000000017,13.4592,4.92891,255.8,-9.7,-1.6,13.4,-5.362221872701722,-11.713711881321457,-4.699986993347102
5.800000000000011,13.8137,4.59446,256.5,-10.6,-4.5,13.8,-5.485072694320616,-12.048683836476137,-5.099986264427756
5.900000000000006,14.1769,4.14368,257.3,-15.5,-6.2,14.1,-5.6008374964289445,-12.396779710308998,-5.399985496842944
6.0,14.5203,3.78862,257.5,-15.3,-5.5,14.3,-5.710865032312474,-12.725339186117328,-5.59998475243305
6.099999999999994,14.9209,3.4829,257.4,-13.0,-5.2,14.6,-5.85392525444048,-13.101538122402022,-5.899983861308926
6.200000000000017,15.2598,3.30565,257.4,-13.6,-5.3,14.7,-5.968120152529632,-13.422940704781077,-5.999983088087936
6.300000000000011,15.6037,3.28982,257.6,-15.6,-5.5,14.8,-6.090553175062471,-13.745975697617828,-6.099982283523098
6.400000000000006,15.9226,3.31412,257.4,-15.5,-5.0,14.7,-6.19959725145919,-14.047465521401367,-5.999981521713778
6.5,16.2324,3.39904,257.2,-14.8,-4.4,14.7,-6.307697278255024,-14.339396979597055,-5.99998076614606
6.599999999999994,16.5497,3.43824,257.2,-16.4,-4.1,14.5,-6.405453182756044,-14.644349895648167,-5.7999799770851705
6.700000000000017,16.9059,3.44218,257.4,-14.5,-3.3,14.4,-6.518653081663691,-14.985015270061979,-5.699979070691926
6.800000000000011,17.2478,3.54567,258.1,-12.8,-2.0,14.3,-6.623025385306044,-15.313791822695611,-5.599978182726794
6.900000000000006,17.6079,3.72885,258.8,-12.6,-2.3,14.3,-6.725242139732343,-15.663584507610672,-5.599977227489278
7.0,17.9552,3.99632,259.5,-13.5,-3.6,14.3,-6.822789374630135,-16.001155226756058,-5.599976285368098
7.099999999999994,18.3358,4.27483,260.2,-14.2,-4.8,14.4,-6.928617404598832,-16.371445708317992,-5.699975233011762
7.200000000000017,18.7025,4.57694,260.6,-14.7,-5.0,14.6,-7.033715939509891,-16.726735632029083,-5.899974196450714
7.300000000000011,19.0877,4.83779,260.8,-14.0,-4.3,14.9,-7.147554737745696,-17.098191345681737,-6.199973084727948
7.400000000000006,19.4613,4.89913,261.0,-12.9,-3.8,15.1,-7.249200953327255,-17.462231334815232,-6.399971984612469
7.5,19.8502,4.61839,261.4,-13.2,-4.3,15.5,-7.360861130677195,-17.838458579284083,-6.799970817038452
7.599999999999994,20.2179,4.21616,261.9,-17.0,-5.9,15.8,-7.462821704906316,-18.195621874890808,-7.099969687964155
7.700000000000017,20.6049,3.83153,262.0,-18.3,-6.3,16.0,-7.564550233248658,-18.57379221663295,-7.299968479673103
7.800000000000011,20.9984,3.58255,262.0,-16.4,-5.6,16.2,-7.6627650259448545,-18.96047204519536,-7.499967225233085
7.900000000000006,21.3656,3.466,262.0,-17.1,-5.5,16.4,-7.759162340275264,-19.318973513791786,-7.699966033918217
8.0,21.7054,3.5435,262.2,-19.6,-6.3,16.4,-7.844852209181429,-19.6522209396495,-7.699964912077538
8.099999999999994,22.0522,3.68821,262.3,-20.4,-6.8,16.4,-7.927770948319749,-19.99401218387107,-7.699963748124188
8.200000000000017,22.3889,3.85387,262.0,-17.7,-5.9,16.2,-8.012876130861567,-20.323912089540357,-7.499962599497872
8.300000000000011,22.7407,3.86804,261.8,-17.9,-5.4,16.0,-8.093217829665665,-20.671911513522673,-7.299961379755043
8.400000000000006,23.0879,3.75257,261.5,-15.9,-4.5,15.8,-8.172288831444396,-21.01540511885977,-7.099960157332209
8.5,23.4635,3.78047,261.3,-13.1,-3.2,15.7,-8.25587192096441,-21.387495565987088,-6.999958814485474
8.599999999999994,23.8147,3.90219,261.4,-12.1,-3.6,15.6,-8.32410861188844,-21.739328999905926,-6.899957537534206
8.700000000000017,24.2102,4.10346,261.5,-11.5,-4.5,15.6,-8.413163861009396,-22.130409028497688,-6.899956075764445
8.800000000000011,24.59,4.35327,261.9,-11.7,-5.0,15.7,-8.499065319924844,-22.50567904610616,-6.999954649765093
8.900000000000006,24.9954,4.59064,262.3,-11.9,-5.4,15.9,-8.590360914351546,-22.906168522797145,-7.199953101565523
9.0,25.3856,4.87187,262.7,-12.3,-5.6,16.1,-8.680018883191167,-23.290878217162795,-7.399951589831833
9.099999999999994,25.8352,5.07093,262.8,-12.6,-5.3,16.3,-8.77265220894102,-23.738002716135153,-7.599949814818334
9.200000000000017,26.2277,4.99586,262.8,-12.4,-4.5,16.7,-8.863649015246144,-24.124332255133517,-7.999948240525663
9.300000000000011,26.6297,4.58718,263.1,-14.7,-5.6,17.0,-8.957514274183772,-24.51961769862779,-8.299946602239388
9.400000000000006,26.9995,4.09515,263.2,-17.5,-7.0,17.3,-9.042930532056522,-24.88351916192991,-8.599945073457231
9.5,27.3664,3.76455,263.0,-16.2,-6.1,17.5,-9.149327020278687,-25.236178756559482,-8.799943537208335
9.599999999999994,27.7191,3.60552,263.1,-15.1,-5.3,17.7,-9.228451151522133,-25.583918211052534,-8.999942037852056
9.700000000000017,28.095,3.5648,263.2,-16.3,-5.8,17.8,-9.30224021868722,-25.958472469001876,-9.099940417769355
9.800000000000011,28.4506,3.61848,262.8,-12.9,-5.1,17.8,-9.376114423504273,-26.31111978283421,-9.099938865783189
9.900000000000006,28.8297,3.74067,262.5,-10.0,-3.6,17.8,-9.471216698955848,-26.680879616737293,-9.099937190787022
10.0,29.1748,3.90081,262.5,-9.5,-3.1,17.8,-9.543492980270067,-27.022758853424456,-9.099935644891596
10.099999999999994,29.5326,4.11361,262.6,-8.9,-3.9,17.9,-9.605226808776525,-27.38200297653207,-9.199934020913986
10.200000000000017,29.8673,4.36894,263.1,-8.9,-5.4,18.1,-9.66173651562183,-27.718266079113747,-9.399932485555018
10.300000000000011,30.2148,4.55774,263.5,-9.4,-6.5,18.3,-9.692424356825942,-28.07749912944544,-9.599930868181257
10.400000000000006,30.5424,4.7728,263.7,-9.9,-6.7,18.6,-9.752334518755973,-28.404756881268963,-9.899929329628144
10.5,30.8844,4.94286,263.6,-10.0,-6.1,18.9,-9.821351074387424,-28.743890120931056,-10.199927706030737
10.599999999999994,31.2055,4.65995,263.7,-10.0,-5.7,19.2,-9.885455445723188,-29.062476203917868,-10.49992616314867
10.700000000000017,31.5378,4.12899,263.9,-13.7,-7.3,19.6,-9.949804096450197,-29.392812213247307,-10.899924552035914
10.800000000000011,31.8563,3.64476,263.7,-14.3,-7.9,19.9,-10.002307607727461,-29.712687061820848,-11.199922988195047
10.900000000000006,32.1781,3.26047,263.4,-11.2,-6.9,20.2,-10.053249292318165,-30.036355595290466,-11.49992139233927
11.0,32.4751,2.98443,263.2,-10.9,-6.8,20.4,-10.096239536047854,-30.336482790333502,-11.69991990625133
11.099999999999994,32.773,2.88131,263.3,-12.7,-7.4,20.5,-10.133160813459924,-30.639568813195293,-11.799918399706574
11.200000000000017,33.0693,3.02509,263.3,-13.0,-8.2,20.5,-10.154590270829146,-30.946176865086354,-11.799916885721757
11.300000000000011,33.3489,3.1424,263.1,-11.8,-8.3,20.4,-10.187236889824083,-31.23103062713489,-11.699915448042416
11.400000000000006,33.61,2.81979,262.4,-8.3,-7.2,20.2,-10.219993205761826,-31.496102298866944,-11.499914092407993
11.5,33.8751,2.57886,261.1,-2.1,-4.4,20.1,-10.255148713993476,-31.764620632187373,-11.399912705977208
11.599999999999994,34.1255,2.59874,260.9,-5.9,-4.2,20.0,-10.288720062679861,-32.0179166177785,-11.299911385923767
11.700000000000017,34.3945,2.82894,261.1,-11.4,-4.0,19.9,-10.32164625821639,-32.29108582518834,-11.199909957354718
11.800000000000011,34.6571,3.19783,261.0,-12.3,-5.1,20.0,-10.357690610882587,-32.556363278485435,-11.299908551299248
11.900000000000006,34.9409,3.54903,261.1,-12.0,-6.9,20.1,-10.408245546308542,-32.839175213183616,-11.399907020378405
12.0,35.2277,3.88077,260.9,-10.9,-6.8,20.3,-10.472928416960663,-33.120345780717386,-11.599905461619747
12.099999999999994,35.5153,4.19978,260.6,-9.5,-5.7,20.6,-10.53289785808469,-33.403945429061736,-11.899903884519322
12.200000000000017,35.7834,4.31579,260.5,-8.6,-4.9,20.9,-10.585536539356454,-33.669239323193565,-12.199902405074994
12.300000000000011,36.0567,3.86012,260.9,-10.3,-6.0,21.2,-10.630641396486112,-33.942639836165945,-12.499900880668191
12.400000000000006,36.3034,3.26885,261.4,-14.7,-8.4,21.6,-10.668461200280626,-34.1901936459056,-12.899899497445155
12.5,36.5366,2.82932,261.1,-13.1,-8.0,21.8,-10.684496308269756,-34.430651614042446,-13.099898176691909
12.599999999999994,36.7677,2.4856,260.8,-10.1,-6.1,22.1,-10.714355253088572,-34.66429040567305,-13.39989686307426
12.700000000000017,37.0161,2.29288,260.7,-9.6,-5.9,22.2,-10.744037535287134,-34.91624151272801,-13.499895439370315
12.800000000000011,37.2413,2.3702,260.7,-10.1,-7.1,22.2,-10.769625929899785,-35.14489556646602,-13.499894142266522
12.900000000000006,37.4764,2.57588,260.8,-10.7,-8.6,22.2,-10.803254505624032,-35.381457703126486,-13.49989277787735
13.0,37.6824,2.79112,260.7,-11.1,-8.2,22.0,-10.823162464780802,-35.59162157555227,-13.299891575418835
13.099999999999994,37.8969,2.85933,260.6,-10.2,-7.4,21.9,-10.839768518290587,-35.81181711645084,-13.199890316506954
13.200000000000017,38.1049,2.56679,260.3,-9.7,-7.6,21.7,-10.859175848334138,-36.02418422631657,-12.999889088322764
13.300000000000011,38.3272,2.24452,259.6,-6.7,-5.3,21.5,-10.855176949495176,-36.25883965577296,-12.799887766938634
13.400000000000006,38.5411,2.12716,259.4,-7.3,-3.5,21.3,-10.87646607426076,-36.476655711009194,-12.59988648945544
13.5,38.7698,2.27118,259.4,-9.6,-3.9,21.3,-10.899190871327757,-36.70948713067156,-12.599885115341445
13.599999999999994,38.9888,2.61989,259.5,-10.8,-5.0,21.3,-10.927041056795414,-36.93059968779171,-12.599883792926391
13.700000000000017,39.2298,2.92079,259.8,-11.3,-6.2,21.4,-10.988103231156337,-37.16439791806499,-12.69988233085074
13.800000000000011,39.4516,3.29802,260.1,-11.4,-7.1,21.6,-11.028333353900605,-37.38443106382128,-12.899880978098873
13.900000000000006,39.6814,3.17024,260.1,-11.3,-7.5,21.9,-11.063928034588093,-37.61432028354659,-13.199879564684988
14.0,39.8988,2.76666,260.7,-13.9,-8.8,22.1,-11.098610929340476,-37.831554508999545,-13.399878220496205
14.099999999999994,40.1258,2.36222,260.8,-15.4,-9.7,22.4,-11.136789611350776,-38.05764821242094,-13.699876810112205
14.200000000000017,40.3297,2.12017,260.6,-12.6,-8.4,22.5,-11.178665215964074,-38.25838991317393,-13.799875536651953
14.300000000000011,40.5371,2.11287,260.3,-10.8,-7.1,22.6,-11.215857558336245,-38.46421016964449,-13.899874235210403
14.400000000000006,40.7292,2.34671,260.0,-10.3,-7.2,22.6,-11.244446829535073,-38.656668965292916,-13.89987302215444
14.5,40.9279,2.56229,260.0,-9.9,-8.1,22.6,-11.264638281932994,-38.85853643755307,-13.899871761022146
14.599999999999994,41.109,2.24004,259.4,-8.5,-7.2,22.4,-11.299404396806143,-39.03756446828067,-13.699870606074224
14.700000000000017,41.2849,1.90857,258.7,-4.0,-3.7,22.2,-11.312742979370803,-39.217581380957235,-13.49986947980605
14.800000000000011,41.4515,1.78698,258.5,-4.2,-3.0,22.1,-11.321601501495248,-39.38918296930653,-13.399868406922037
14.900000000000006,41.6405,1.88872,258.7,-9.2,-4.9,22.0,-11.332890056432642,-39.583496838477686,-13.299867185281554
15.0,41.8307,2.19345,259.4,-14.2,-7.8,22.0,-11.351256766440644,-39.776780373966076,-13.299865951605987
15.099999999999994,42.0424,2.51189,259.7,-14.5,-8.8,22.0,-11.383705657739862,-39.98844608211,-13.29986457134122
15.200000000000017,42.2505,2.86131,259.5,-12.1,-7.9,22.2,-11.42175922982736,-40.194606839522024,-13.49986320770993
15.300000000000011,42.4712,3.16074,259.3,-9.9,-6.5,22.4,-11.466503527583768,-40.41188704014639,-13.699861756959535
15.400000000000006,42.6889,3.31749,259.1,-8.4,-6.1,22.6,-11.505564066351337,-40.62778493430943,-13.89986031538454
15.5,42.9035,2.97438,259.5,-8.6,-6.2,22.8,-11.547297465001508,-40.83954745864875,-14.099858888433976
15.599999999999994,43.1011,2.49271,260.1,-12.8,-8.7,23.2,-11.582399748186601,-41.03561732611747,-14.499857566254464
15.700000000000017,43.3006,2.08831,260.2,-13.0,-8.7,23.4,-11.613083512607876,-41.23490870081959,-14.69985622730063
15.800000000000011,43.4817,1.85363,260.1,-10.0,-7.1,23.5,-11.64228771644429,-41.415355261641835,-14.799855005222591
15.900000000000006,43.6466,1.90266,259.9,-9.2,-6.5,23.5,-11.693943715986888,-41.57234820685136,-14.799853891094907
16.0,43.8152,2.16464,259.7,-9.1,-7.1,23.5,-11.723256147956164,-41.739792232304524,-14.799852744544424
16.099999999999994,43.9999,2.34841,259.7,-10.0,-7.4,23.4,-11.748889913400753,-41.92504493830782,-14.699851484216714
16.200000000000017,44.1705,2.50067,259.6,-9.3,-6.3,23.3,-11.773450261156585,-42.095852354139,-14.599850312785893
16.30000000000001,44.3496,2.29955,259.3,-9.8,-6.3,23.1,-11.804741610388428,-42.273624027570605,-14.399849081230684
16.400000000000006,44.5144,1.96549,258.9,-8.5,-5.7,22.9,-11.836176061156923,-42.436400536744856,-14.19984794275913
16.5,44.688,1.78763,258.8,-8.7,-3.8,22.7,-11.871647187970236,-42.60720731383448,-13.999846738314611
16.599999999999994,44.8639,1.85987,258.8,-9.7,-3.7,22.6,-11.90357732033441,-42.7813826274636,-13.899845514193887
16.700000000000017,45.0749,2.05851,259.0,-10.3,-5.1,22.7,-11.94288328056222,-42.990036307392344,-13.999844039494544
16.80000000000001,45.269,2.42293,259.2,-10.9,-6.3,22.7,-11.982843601866348,-43.18092196774312,-13.999842674949747
16.900000000000006,45.4679,2.77867,259.3,-10.4,-6.3,22.8,-12.03495326738013,-43.37327847362059,-14.099841272778345
17.0,45.6601,3.14588,259.3,-9.1,-5.6,23.0,-12.086840649462829,-43.55869368782045,-14.299839912712576
17.099999999999994,45.8776,3.42657,259.3,-8.1,-5.5,23.2,-12.17141608944381,-43.760975252173935,-14.499838368632842
17.200000000000017,46.0644,3.30737,259.4,-7.9,-5.7,23.5,-12.221422591892381,-43.94128969432779,-14.799837032864117
17.30000000000001,46.2443,2.79552,260.0,-11.0,-7.0,23.8,-12.268002088776175,-44.11534184076278,-15.099835743278106
17.400000000000006,46.4083,2.23331,260.5,-13.8,-8.2,24.1,-12.307669836746975,-44.27496013513596,-15.399834562786324
17.5,46.577,1.81357,260.4,-11.3,-7.7,24.3,-12.345658533985498,-44.43988160893665,-15.59983334094399
17.599999999999994,46.7111,1.60827,260.2,-10.1,-6.5,24.4,-12.394982951476312,-44.56537669543556,-15.699832371233942
17.700000000000017,46.8719,1.75329,260.1,-11.1,-6.2,24.5,-12.440800752511565,-44.71976998784612,-15.799831202605603
17.80000000000001,47.0194,2.07817,260.1,-11.9,-7.5,24.5,-12.47921826011479,-44.862493288426506,-15.799830125153228
17.900000000000006,47.1708,2.24966,259.8,-10.8,-7.3,24.3,-12.51357261116069,-45.010469383242466,-15.59982901632401
18.0,47.3158,2.33213,259.7,-9.8,-5.8,24.2,-12.589155490994102,-45.13975111883461,-15.499827955248536
18.099999999999994,47.4737,2.11389,259.6,-11.1,-6.4,23.9,-12.620390329759793,-45.29532523989738,-15.19982679131872
18.200000000000017,47.6275,1.81544,259.5,-9.5,-5.3,23.8,-12.650828061159283,-45.44693337305028,-15.099825652319815
18.30000000000001,47.7903,1.63423,259.5,-8.1,-3.9,23.6,-12.680782979607386,-45.60799151105439,-14.89982444393018
18.400000000000006,47.9512,1.63145,259.7,-8.7,-4.8,23.5,-12.702901611147782,-45.76935580397945,-14.799823245457643
18.5,48.1318,1.85412,260.0,-10.5,-6.5,23.5,-12.71863586116422,-45.953131405975924,-14.799821893979885
18.599999999999994,48.3093,2.22678,260.2,-11.5,-6.9,23.6,-12.745281304897805,-46.13052328676521,-14.899820561352147
18.700000000000017,48.4991,2.56311,260.2,-11.0,-6.2,23.7,-12.79128677527693,-46.315097820360634,-14.999819132950412
18.80000000000001,48.6859,2.65614,260.1,-10.1,-5.9,23.9,-12.848410042559514,-46.493365015419926,-15.199817721037602
18.900000000000006,48.8679,2.29907,260.5,-10.8,-6.2,24.1,-12.892859717962898,-46.67023079172504,-15.399816341589414
19.0,49.036,1.95052,260.8,-13.9,-7.7,24.3,-12.932921655322552,-46.83401827430726,-15.599815059960909
19.099999999999994,49.2073,1.69523,260.7,-12.2,-8.1,24.5,-12.973961688082628,-47.00074219562444,-15.799813751438439
19.200000000000017,49.365,1.71126,260.5,-10.5,-7.0,24.6,-13.012036895877083,-47.15414651835208,-15.89981254315943
19.30000000000001,49.5132,1.97004,260.5,-11.1,-6.4,24.5,-13.09311423480238,-47.28520386852745,-15.799811406713758
19.400000000000006,49.6619,2.20818,260.4,-11.1,-6.8,24.5,-13.132836326957705,-47.42875961901946,-15.79981025961015
19.5,49.8181,2.35237,260.1,-9.2,-6.0,24.3,-13.177299738897553,-47.57885496140467,-15.599809050694661
19.599999999999994,49.9688,2.13315,259.7,-9.1,-6.2,24.1,-13.220831295290893,-47.723352402720664,-15.399807882912896
19.700000000000017,50.121,1.73516,259.3,-6.6,-4.1,24.0,-13.292225663127002,-47.86138985473657,-15.29980669940683
19.80000000000001,50.2739,1.56128,259.0,-5.3,-2.4,23.7,-13.323366538045587,-48.0118280164228,-14.999805504205655
19.900000000000006,50.4421,1.67601,259.1,-6.8,-3.6,23.7,-13.33899388899487,-48.18272392121264,-14.999804185318991
20.0,50.6096,2.0206,259.3,-10.2,-5.0,23.7,-13.35870275543137,-48.35156550433815,-14.999802866105863
20.099999999999994,50.826,2.35116,259.7,-13.0,-6.8,23.8,-13.379525501605064,-48.571140117535634,-15.099801156137579
20.200000000000017,51.01,2.77756,259.9,-12.4,-7.6,23.9,-13.423990825875018,-48.75017409977963,-15.199799699470574
20.30000000000001,51.2023,3.12093,259.9,-10.0,-6.6,24.1,-13.480424887938646,-48.934291302769815,-15.399798169987086
20.400000000000006,51.3816,2.99994,259.9,-8.1,-5.8,24.3,-13.532634469103375,-49.106162655650735,-15.599796739005773
20.5,51.5618,2.44584,260.5,-10.6,-7.7,24.6,-13.620213982163197,-49.26882862450233,-15.899795300342122
20.599999999999994,51.7248,1.98,260.8,-13.5,-9.9,24.8,-13.660742594622473,-49.427048890803434,-16.099793988793074
20.700000000000017,51.8834,1.65166,260.7,-11.8,-8.8,25.1,-13.696193029105963,-49.58215404987693,-16.39979271024025
20.80000000000001,52.0345,1.59417,260.5,-10.6,-7.0,25.2,-13.73065774094675,-49.72978872506159,-16.49979148858915
20.900000000000006,52.1985,1.84461,260.5,-10.9,-6.5,25.2,-13.769099645995537,-49.88956920651809,-16.499790157017156
21.0,52.3458,2.07675,260.4,-11.3,-7.1,25.1,-13.829786730631259,-50.02572029759048,-16.39978896123637
21.099999999999994,52.5001,2.20028,260.0,-9.8,-6.5,25.0,-13.86910400341878,-50.17515957349315,-16.29978770244762
21.200000000000017,52.6472,2.05502,259.6,-9.4,-6.0,24.8,-13.90818992562717,-50.31730476499261,-16.099786498225036
21.30000000000001,52.8023,1.76918,259.2,-8.0,-4.7,24.6,-13.949908195899482,-50.46694181156305,-15.899785226271561
21.400000000000006,52.9391,1.62064,259.2,-8.1,-3.5,24.5,-14.009417817673551,-50.592416423280724,-15.799784101369035
21.5,53.1141,1.79739,259.4,-9.8,-4.1,24.4,-14.054488084676612,-50.76183396739985,-15.699782656959835
21.599999999999994,53.2881,2.15341,259.6,-11.3,-5.0,24.4,-14.097827727933447,-50.93064898539224,-15.699781217922698
21.700000000000017,53.478,2.51986,259.9,-11.4,-5.8,24.5,-14.143168530969167,-51.11557113800569,-15.79977963895703
21.80000000000001,53.6712,2.89133,260.0,-10.1,-6.0,24.7,-14.196502071894328,-51.301647331466775,-15.999778026544114
21.900000000000006,53.868,3.15326,260.1,-8.5,-5.6,24.9,-14.249715674210904,-51.491385443757736,-16.199776380652633
22.0,54.0537,2.8843,260.6,-8.5,-6.0,25.1,-14.301639146722284,-51.670015623176795,-16.399774821392015
22.099999999999994,54.245,2.36927,261.2,-12.0,-8.5,25.4,-14.357840805769765,-51.85328227893248,-16.69977320806978
22.200000000000017,54.4208,1.91903,261.2,-12.7,-8.9,25.6,-14.468909393546845,-52.00445795907865,-16.899771726453192
22.30000000000001,54.5878,1.69046,261.0,-10.2,-7.1,25.8,-14.525827591923395,-52.16214004206007,-17.099770309800434
22.400000000000006,54.7414,1.70463,260.7,-8.6,-5.7,25.9,-14.57458259833136,-52.30826275368123,-17.1997690028348
22.5,54.8984,2.00767,260.6,-7.8,-5.6,25.9,-14.617189820762954,-52.45959683339916,-17.199767663493507
22.599999999999994,55.0468,2.30893,260.5,-8.3,-6.2,25.7,-14.656125425339042,-52.60309373783383,-16.999766391930837
22.700000000000017,55.2038,2.43468,260.5,-8.9,-6.0,25.6,-14.707838870333648,-52.7517617421524,-16.89976504796885
22.80000000000001,55.3602,2.32455,260.5,-9.5,-5.4,25.3,-14.745901543148072,-52.903902820496924,-16.599763699182066
22.900000000000006,55.53,1.92274,260.2,-6.9,-3.7,25.2,-14.780989787409194,-53.07076194682615,-16.499762233459567
23.0,55.6891,1.61202,260.1,-4.4,-1.5,25.0,-14.805847361111853,-53.22946772960821,-16.299760854015837
23.099999999999994,55.875,1.54851,260.0,-4.9,-2.5,24.9,-14.795777396926042,-53.426183260681434,-16.199759234900313
23.200000000000017,56.0322,1.84402,260.0,-7.2,-4.4,24.8,-14.81429694480294,-53.58466455002943,-16.09975786276766
23.30000000000001,56.2059,2.27617,260.4,-10.7,-5.1,24.9,-14.84810554294772,-53.75603494398035,-16.199756343447657
23.400000000000006,56.3766,2.76539,260.7,-12.4,-6.2,25.0,-14.884926533145963,-53.92335396446871,-16.299754845980093
23.5,56.5537,3.12609,260.8,-11.6,-7.1,25.2,-14.969519452650392,-54.08360228434053,-16.499753291782458
23.599999999999994,56.7276,3.1791,260.8,-10.4,-7.1,25.5,-15.020134229975655,-54.250327413723674,-16.79975175885347
23.700000000000017,56.9149,2.80922,261.2,-9.8,-7.7,25.8,-15.0749012392252,-54.429714648256464,-17.099750101522687
23.80000000000001,57.0863,2.31513,261.8,-12.5,-8.8,26.1,-15.122258053353026,-54.594794037760266,-17.399748581016095
23.900000000000006,57.2447,1.81023,262.0,-13.0,-9.1,26.3,-15.192868489555694,-54.73958131843225,-17.599747171801084
24.0,57.3972,1.58935,261.7,-10.2,-7.8,26.4,-15.235588630795416,-54.88623102178189,-17.699745810740737
24.099999999999994,57.5503,1.64591,261.2,-7.8,-6.4,26.5,-15.291915722761118,-55.02955871956266,-17.799744441219367
24.200000000000017,57.6904,1.97117,261.1,-6.6,-5.9,26.5,-15.34135971019408,-55.16137282332368,-17.79974318557649
24.30000000000001,57.8334,2.27058,261.2,-7.6,-6.2,26.4,-15.385857945561977,-55.29762310578644,-17.699741899565844
24.400000000000006,57.9456,2.11162,261.3,-9.1,-6.3,26.2,-15.474799084651625,-55.38889873638077,-17.49974089142702
24.5,58.0917,1.70743,260.6,-4.1,-3.7,26.1,-15.511547480723722,-55.530552113023525,-17.399739571696788
24.599999999999994,58.2272,1.39715,260.2,-3.2,-1.6,25.9,-15.542139469398249,-55.662963866270026,-17.199738343577526
24.700000000000017,58.3726,1.39909,260.0,-6.7,-2.2,25.8,-15.568975211120659,-55.806850976488526,-17.09973702135088
24.80000000000001,58.5407,1.74493,260.1,-11.3,-3.8,25.8,-15.589370213571188,-55.976246358380095,-17.09973548930406
24.900000000000006,58.7089,2.16793,260.3,-13.9,-6.3,25.8,-15.616690058822392,-56.14373253780734,-17.09973395037351
25.0,58.8806,2.64682,260.3,-13.0,-7.1,25.9,-15.649867277310795,-56.31313268659716,-17.199732377849337
25.099999999999994,59.068,3.08964,260.2,-10.8,-6.5,26.0,-15.691792568162958,-56.496420696000854,-17.29973065414177
25.200000000000017,59.2627,3.46795,260.2,-8.5,-6.0,26.3,-15.731929656426143,-56.68782473831607,-17.599728857498043
25.30000000000001,59.4396,3.40279,260.3,-7.6,-5.8,26.6,-15.782898394776076,-56.85753609885778,-17.899727223595146
25.400000000000006,59.6048,2.88564,260.9,-10.0,-7.5,26.9,-15.829590641663255,-57.01627696720805,-18.19972569223853
25.5,59.7729,2.30137,261.5,-13.4,-9.0,27.2,-15.87388887453449,-57.17871411932737,-18.499724129114153
25.599999999999994,59.9133,1.82173,261.3,-11.8,-7.7,27.4,-15.95827252738614,-57.300785497518234,-18.69972282257748
25.700000000000017,60.07,1.52799,261.0,-9.2,-6.2,27.6,-16.00275695266131,-57.45126612851806,-18.899721358919336
25.80000000000001,60.2135,1.5547,260.6,-8.1,-5.7,27.7,-16.04179726421444,-57.58959543799111,-18.999720014243728
25.900000000000006,60.359,1.85407,260.4,-7.5,-6.0,27.6,-16.078080407503816,-57.730870795353326,-18.89971864685304
26.0,60.4954,2.19236,260.5,-8.2,-6.8,27.5,-16.111635865849905,-57.8633178042193,-18.799717361666048
26.099999999999994,60.6281,2.25801,260.5,-9.4,-6.2,27.4,-16.166896308098416,-57.985775806129894,-18.699716109618254
26.200000000000017,60.7645,2.05328,260.2,-8.1,-5.0,27.2,-16.201776364537707,-58.11783243155756,-18.49971482136969
26.30000000000001,60.9099,1.72761,259.7,-6.7,-3.6,27.0,-16.23670259629082,-58.25934741735935,-18.299713442158687
26.400000000000006,61.0527,1.55599,259.6,-8.4,-3.2,26.8,-16.26766434460696,-58.39931206708047,-18.09971208290456
26.5,61.2131,1.65272,259.8,-11.8,-4.9,26.8,-16.299812669343815,-58.55726740342687,-18.099710555056117
26.599999999999994,61.3755,1.95635,260.1,-12.0,-5.8,26.7,-16.33406144125928,-58.71666139191038,-17.999709003331564
26.700000000000017,61.556,2.29868,260.1,-10.7,-6.4,26.8,-16.38104636560983,-58.89130830125417,-18.099707272850736
26.80000000000001,61.7297,2.72229,260.1,-9.4,-6.3,26.9,-16.426973746292447,-59.059165955434274,-18.19970560460414
26.900000000000006,61.9291,2.60693,260.2,-8.9,-5.8,27.1,-16.488319959124357,-59.249320725671126,-18.399703683008433
27.0,62.0992,2.20139,260.9,-11.8,-7.6,27.4,-16.532308989540336,-59.4139574507644,-18.699702040015946
27.099999999999994,62.2715,1.79875,261.1,-14.2,-9.0,27.6,-16.583033322685182,-59.57892551596278,-18.899700370366954
27.200000000000017,62.4284,1.59628,261.0,-11.6,-7.5,27.7,-16.627361442414756,-59.72971459899,-18.99969884605128
27.30000000000001,62.5829,1.65881,260.6,-8.7,-5.8,27.8,-16.704831448084832,-59.86839931557442,-19.099697343550393
27.400000000000006,62.7268,1.96352,260.3,-7.1,-5.2,27.8,-16.744342473650867,-60.00703323063546,-19.09969593631432
27.5,62.8774,2.30279,260.3,-7.3,-5.5,27.7,-16.787848018907184,-60.151527591087714,-18.999694463007128
27.599999999999994,63.0207,2.35258,260.4,-9.5,-5.8,27.5,-16.82990277539035,-60.28876588058057,-18.799693056816242
27.700000000000017,63.1724,1.99852,260.0,-5.9,-3.8,27.3,-16.874010515326034,-60.434114637094794,-18.599691565235396
27.80000000000001,63.3178,1.65144,259.6,-4.1,-2.2,27.1,-16.941283936896394,-60.566350865747225,-18.39969013500991
27.900000000000006,63.4769,1.55526,259.4,-8.2,-3.2,27.0,-16.97599501808801,-60.72216311521656,-18.299688561539664
28.0,63.6376,1.73672,259.5,-12.5,-5.1,26.9,-17.012884811525115,-60.87905983390343,-18.199686967820256
28.099999999999994,63.8141,2.07193,259.5,-12.5,-5.2,26.9,-17.058846562334203,-61.049791893881846,-18.199685214654572
28.200000000000017,64.0011,2.46433,259.5,-10.4,-5.4,27.0,-17.11302643700976,-61.229105098940934,-18.29968335186789
28.30000000000001,64.1847,2.85711,259.4,-8.6,-5.4,27.1,-17.160933086785214,-61.40669612536901,-18.399681517005273
28.400000000000006,64.3582,2.95468,259.5,-8.6,-5.5,27.3,-17.210118705367393,-61.57340929722499,-18.59967977815196
28.5,64.5392,2.53991,260.1,-10.7,-6.3,27.5,-17.268464193078174,-61.74525074884618,-18.79967796005888
28.599999999999994,64.7067,2.06239,260.7,-14.4,-7.8,27.8,-17.331934696569547,-61.90159019925387,-19.09967627279842
28.700000000000017,64.8828,1.73314,260.8,-12.9,-6.8,28.0,-17.381176651212336,-62.070877057276405,-19.299674496150697
28.80000000000001,65.0443,1.589,260.6,-8.5,-5.0,28.1,-17.427378599537615,-62.22595437799173,-19.39967286109659
28.900000000000006,65.2058,1.68293,260.3,-5.8,-4.1,28.1,-17.478018641312325,-62.3797439354,-19.399671220035138
29.0,65.3531,1.98466,260.3,-5.9,-4.3,28.1,-17.580218768107667,-62.503650397416514,-19.399669727127105
29.099999999999994,65.5028,2.1918,260.6,-8.5,-5.2,28.0,-17.638098410037813,-62.643035711745796,-19.29966819918656
29.200000000000017,65.6449,2.30825,260.6,-8.2,-4.2,27.8,-17.6907274901595,-62.77593241940083,-19.09966674742223
29.30000000000001,65.799,2.44328,260.9,-8.2,-3.5,27.7,-17.740949756098402,-62.92209547520971,-18.999665168197307
29.400000000000006,65.9497,2.19802,261.0,-11.2,-4.8,27.5,-17.78865205339169,-63.0653173071088,-18.79966362256176
29.5,66.1092,1.74869,260.6,-6.1,-2.9,27.3,-17.838329309427525,-63.21728726353467,-18.599661979566335
29.599999999999994,66.2604,1.51231,260.2,-3.7,-0.6,27.1,-17.87571872569459,-63.364132745545255,-18.39966042062306
29.700000000000017,66.4186,1.58523,259.9,-5.7,-1.1,27.0,-17.907109642231127,-63.52003660709477,-18.299658781757742
29.80000000000001,66.5715,1.97203,259.7,-8.4,-3.3,27.1,-17.935097238019054,-63.671428993993175,-18.399657196175227
29.900000000000006,66.7549,2.39164,259.9,-12.2,-5.4,27.1,-17.97382631330865,-63.85145140474069,-18.39965528824724
30.0,66.9269,2.90661,260.0,-13.3,-6.6,27.3,-18.014733314475514,-64.01902378515129,-18.59965349409683
30.099999999999994,67.1173,3.25455,259.8,-11.8,-6.7,27.5,-18.06638648710438,-64.20253457152457,-18.79965150436486
30.200000000000017,67.2983,3.00231,259.9,-10.7,-6.3,27.8,-18.12042968365363,-64.37565249679994,-19.099649606611255
30.30000000000001,67.4841,2.4002,260.4,-13.2,-7.1,28.0,-18.209333746334423,-64.54357651842494,-19.299647657659317
30.400000000000006,67.6493,1.93012,260.6,-13.9,-7.1,28.3,-18.264589237649258,-64.69990080937731,-19.599645916670312
30.5,67.8111,1.64011,260.5,-10.3,-5.6,28.5,-18.32171255982638,-64.85200087972997,-19.79964420930796
30.599999999999994,67.9641,1.63199,260.3,-7.5,-4.7,28.5,-18.37505148153164,-64.99611064185027,-19.7996425899944
30.700000000000017,68.1295,1.80975,260.0,-6.6,-4.6,28.6,-18.462629087977156,-65.14316187981795,-19.899640838021625
30.80000000000001,68.2855,1.9451,260.2,-8.3,-4.9,28.5,-18.51282529312387,-65.29122655231531,-19.799639178204526
30.900000000000006,68.4447,1.79883,260.1,-7.5,-3.9,28.3,-18.56297205179609,-65.44268863942283,-19.59963748168275
31.0,68.5983,1.64996,259.6,-5.6,-2.5,28.2,-18.610660123034883,-65.58905787294003,-19.499635840242497
31.099999999999994,68.7661,1.64291,259.5,-8.4,-2.3,28.2,-18.661154145227535,-65.74939615576866,-19.499634043517652
31.200000000000017,68.9416,1.84376,259.4,-11.7,-4.0,28.1,-18.721794533147396,-65.91476622388973,-19.399632159644376
31.30000000000001,69.1242,2.20159,259.4,-11.7,-4.1,28.1,-18.759708724980843,-66.0942655572789,-19.399630192043936
31.400000000000006,69.3044,2.60975,259.4,-10.7,-4.2,28.1,-18.799792986925763,-66.270656656504,-19.39962824505474
31.5,69.4981,3.05402,259.5,-10.2,-4.7,28.3,-18.849619921621805,-66.45819222808817,-19.599626147201562
31.599999999999994,69.6845,3.4036,259.5,-10.5,-4.7,28.5,-18.887546228846322,-66.64168014368877,-19.79962412230188
31.700000000000017,69.8912,3.21213,259.5,-10.6,-4.7,28.8,-18.955352263713245,-66.8374953775029,-20.099621873198288
31.80000000000001,70.085,2.74461,260.1,-13.5,-6.4,29.1,-19.02098687431389,-67.02054924861943,-20.399619758379643
31.900000000000006,70.2817,2.26716,260.5,-15.7,-6.2,29.3,-19.09147275743304,-67.20523643646135,-20.599617605109636
32.0,70.4709,1.93753,260.6,-13.9,-4.5,29.5,-19.167808620342168,-67.38031638416163,-20.799615530244058
32.099999999999994,70.6774,1.85167,260.7,-12.5,-4.0,29.7,-19.265225215842527,-67.56734068846441,-20.999613260656577
32.20000000000002,70.8643,1.84708,260.4,-10.5,-3.5,29.7,-19.345214350926785,-67.73887501620969,-20.99961119837443
32.30000000000001,71.0336,1.80982,260.4,-8.7,-2.4,29.7,-19.401970032571743,-67.89899956354282,-20.999609324940895
32.400000000000006,71.1553,1.63737,260.2,-9.6,-3.6,29.7,-19.473137783344008,-68.00500870853662,-20.999607978756565
32.5,71.3155,1.4806,259.7,0.6,-3.7,29.7,-19.53233233036358,-68.15493029973763,-20.999606198875053
