time,distance(meters),speed(m/s), compass_heading(degrees), pitch(degrees), roll(degrees),height_above_takeoff(meters),North,East,Down
0.0,0.365416,1.43807,238.3,-22.8,16.9,10.1,0.0,0.0,0.0
0.10000000000000142,0.375909,1.91932,238.1,-22.9,17.7,10.1,0.08153649975300903,-0.14598315537558185,2.864667399127274e-09
0.20000000000000284,0.463229,2.36391,238.1,-22.9,18.5,10.1,0.16801903856206618,-0.3249828000215086,1.2045642830416092e-08
0.3000000000000007,0.646955,2.69329,238.2,-22.6,19.2,10.1,0.27483920095456593,-0.5532839346796268,2.991990089018515e-08
0.40000000000000213,0.872167,3.09309,238.6,-22.1,18.8,10.1,0.3976477777173883,-0.7721621811821998,5.946966857850455e-08
0.5,1.18157,3.49694,238.9,-22.2,17.7,10.1,0.5498010854100597,-1.0659335309154234,1.1251561343739169e-07
0.6000000000000014,1.52558,3.87207,239.2,-22.2,16.6,10.1,0.7118325676610804,-1.385040111433379,1.9014345092882579e-07
0.7000000000000028,1.92833,4.21587,239.6,-21.6,15.9,10.0,0.897499610217686,-1.7538734783383765,0.10000030502602641
0.8000000000000007,2.35037,4.53485,239.8,-21.3,15.1,10.1,1.0656937508286903,-2.1548190518244823,4.525416176792696e-07
0.9000000000000021,2.82369,4.80381,240.1,-20.8,13.6,10.1,1.2732116575396244,-2.586744696163067,6.518159922919153e-07
1.0,3.30145,5.08035,240.3,-20.5,12.9,10.1,1.4760696421055857,-3.0250664707250445,8.88717846758702e-07
1.1000000000000014,3.82955,5.33604,240.3,-20.9,13.0,10.1,1.698741868468414,-3.5089429188937653,1.1919926904413458e-06
1.2000000000000028,4.36094,5.53749,240.1,-21.4,13.1,10.1,1.924153590500777,-3.993904256892013,1.5407712179449362e-06
1.3000000000000007,4.95775,5.78769,240.1,-20.8,13.0,10.1,2.160289776665733,-4.5475338580871165,1.988117593443306e-06
1.4000000000000021,5.53573,6.00496,240.0,-21.4,12.2,10.1,2.4015778599268165,-5.075634176677473,2.4722909959251638e-06
1.5,6.16367,6.238,239.8,-22.0,12.8,10.1,2.659507676057206,-5.651232745078895,3.057634924807928e-06
1.6000000000000014,6.78443,6.46851,239.7,-22.0,13.7,10.1,2.9078201785239592,-6.223414240012543,3.6988245368796413e-06
1.7000000000000028,7.47978,6.63587,240.0,-21.1,13.5,10.1,3.173046939579483,-6.870666108149629,4.490792120392939e-06
1.8000000000000007,8.13492,6.80648,240.1,-21.0,11.9,10.1,3.421709003345207,-7.480547657230911,5.304383274173929e-06
1.9000000000000021,8.83666,6.93501,240.8,-20.3,9.0,10.1,3.6833304198989913,-8.135729910928978,6.251518455346883e-06
2.0,9.51507,7.00399,242.1,-19.6,2.7,10.1,3.935823767822283,-8.768908285337542,7.241026128923522e-06
2.1000000000000014,10.2348,6.8807,243.9,-16.7,-8.5,10.1,4.183503194680352,-9.450147645841902,8.372503529363584e-06
2.200000000000003,10.9036,6.55657,244.4,-11.3,-21.3,10.1,4.4061406790004725,-10.086357839571686,9.495426553485231e-06
2.3000000000000007,11.5676,6.16767,243.6,-6.9,-27.1,10.1,4.600512947011117,-10.729852690268586,1.068301197992838e-05
2.400000000000002,12.1331,5.76175,243.5,-5.2,-27.0,10.1,4.7330729308665065,-11.292483161028532,1.1750642610941497e-05
2.5,12.6813,5.31727,243.4,-4.0,-27.9,10.1,4.829807532269077,-11.850940094043704,1.283607027779965e-05
2.6000000000000014,13.1583,4.93037,243.4,-3.6,-28.8,10.1,4.885516203109033,-12.347833024824434,1.3819403143600084e-05
2.700000000000003,13.615,4.60054,243.6,-3.7,-29.2,10.1,4.905035034879513,-12.836095331255454,1.4797765657714734e-05
2.8000000000000007,14.0266,4.26806,243.4,-3.4,-28.9,10.1,4.891866847524755,-13.286575949338385,1.5708872791453388e-05
2.900000000000002,14.4147,4.02806,243.4,-3.3,-28.8,10.1,4.837121964840415,-13.72539601867825,1.6596346637420822e-05
3.0,14.7852,3.81246,243.8,-4.1,-29.1,10.1,4.776037759343959,-14.14460258871426,1.7464220802398955e-05
3.1000000000000014,15.0769,3.57093,243.5,-3.7,-29.3,10.1,4.641298028392255,-14.502996513665071,1.8167625707832258e-05
3.200000000000003,15.2883,3.39879,243.6,-4.0,-28.8,10.1,4.471793261359657,-14.784059108395624,1.8691226882694423e-05
3.3000000000000007,15.4684,3.32674,243.8,-4.9,-28.0,10.1,4.2591221473175755,-15.041464516745037,1.914627015775494e-05
3.400000000000002,15.5834,3.30911,244.0,-5.6,-27.4,10.1,4.022156647789661,-15.232628331106056,1.9445256979278014e-05
3.5,15.7111,3.32968,244.0,-6.2,-27.1,10.1,3.7489063397902407,-15.441633948259959,1.977880270942478e-05
3.6000000000000014,15.7921,3.42001,244.3,-6.9,-26.9,10.1,3.462829227445472,-15.598813579908905,1.9999771269318956e-05
3.700000000000003,15.853,3.51749,244.5,-7.4,-26.7,10.1,3.137101272815475,-15.737800246093453,2.0172116709904486e-05
3.8000000000000007,15.8717,3.69221,244.2,-7.1,-27.7,10.1,2.797849053997635,-15.828605627274454,2.0238057131916065e-05
3.900000000000002,15.897,3.89367,244.3,-7.6,-28.3,10.1,2.4153153013437167,-15.925745910135088,2.032223105374875e-05
4.0,15.8935,4.1217,244.4,-8.0,-28.0,10.1,2.029545000741148,-15.984222404164914,2.03333064046074e-05
4.100000000000001,15.8737,4.34215,244.4,-8.0,-27.6,10.1,1.5981860097399163,-16.022180489708173,2.0305909592122084e-05
4.200000000000003,15.8192,4.56003,244.5,-8.3,-27.5,10.1,1.1766469060107836,-16.012299001249673,2.0189590629438037e-05
4.300000000000001,15.7783,4.78776,244.6,-8.6,-27.5,10.1,0.6966618079552378,-16.008632148459945,2.010865649626492e-05
4.400000000000002,15.7294,5.03468,244.5,-8.9,-27.7,10.1,0.22021411690534884,-15.982234000443247,2.0009380959751244e-05
4.5,15.6731,5.26776,244.3,-8.5,-27.5,10.1,-0.3032609715101454,-15.933998156237564,1.9891967089652463e-05
4.600000000000001,15.6159,5.51322,244.3,-8.9,-27.3,10.1,-0.8305333932877084,-15.867000315023448,1.977126696617315e-05
4.700000000000003,15.5395,5.75803,244.4,-9.2,-27.4,10.1,-1.4078358355448402,-15.759049565418747,1.9605136072020635e-05
4.800000000000001,15.4913,5.98646,245.4,-12.3,-26.7,10.1,-1.9737755587756332,-15.65869942408136,1.9509814958573735e-05
4.900000000000002,15.4593,6.1671,245.1,-15.9,-20.1,10.1,-2.5870032918288084,-15.54593744115992,1.9453651294520924e-05
5.0,15.4593,6.25171,244.2,-20.9,-9.6,10.1,-3.1826258482182697,-15.443534906710507,1.9475820370873365e-05
5.100000000000001,15.4983,6.16491,242.4,-25.1,0.0,10.1,-3.806209352953997,-15.350210789405544,1.959374877325004e-05
5.200000000000003,15.5907,5.92122,240.5,-26.2,9.4,10.1,-4.3968233377264045,-15.294964296534328,1.9843066027647183e-05
5.300000000000001,15.7426,5.62951,239.6,-24.1,14.9,10.1,-4.995256041627515,-15.276646153469333,2.0240671667615118e-05
5.400000000000002,15.9317,5.35721,238.8,-23.5,17.2,10.1,-5.530865094699712,-15.29750151004346,2.0735153580808685e-05
5.5,16.1659,5.08013,238.3,-23.2,18.5,10.1,-6.064639587081341,-15.350658187713647,2.134943183795812e-05
5.600000000000001,16.435,4.88062,238.1,-23.0,19.3,10.1,-6.548191772300723,-15.447167695192084,2.2062317317050884e-05
5.700000000000003,16.7541,4.6834,237.8,-23.2,20.2,10.1,-7.024155916512878,-15.590545954761032,2.2918665784299463e-05
5.800000000000001,17.0916,4.57439,237.9,-22.4,20.4,10.1,-7.442006734288466,-15.771944575782243,2.3839988619211994e-05
5.900000000000002,17.4789,4.49753,237.5,-22.5,20.3,10.1,-7.86931065338306,-15.998170055351006,2.4918079190250353e-05
6.0,17.8707,4.50638,237.2,-23.3,20.8,10.1,-8.217485533530617,-16.26390505822382,2.6029831113216773e-05
6.100000000000001,18.3066,4.53998,237.4,-23.1,21.3,10.1,-8.550089217233321,-16.58484738102834,2.729365483000734e-05
6.200000000000003,18.7315,4.52357,238.5,-21.6,19.5,10.1,-8.82338118099068,-16.922573681621078,2.8553058244007445e-05
6.300000000000001,19.1931,4.63524,239.2,-20.8,17.5,10.0,-9.074655931340573,-17.312797826889323,0.100029954392439
6.400000000000002,19.6725,4.81021,239.4,-21.2,15.6,10.0,-9.29988070759601,-17.736588408700293,0.10003144288849342
6.5,20.1776,4.97866,239.6,-21.1,14.7,10.0,-9.506877358429964,-18.198800347772426,0.10003305054075096
6.600000000000001,20.6742,5.13964,239.6,-21.1,14.7,10.0,-9.680967743161832,-18.668324608421337,0.10003466784232273
6.700000000000003,21.2073,5.28108,239.6,-20.9,15.5,10.0,-9.839066503755653,-19.18686454537837,0.10003644911139009
6.800000000000001,21.7398,5.48884,239.7,-20.5,15.4,10.0,-9.967295177721864,-19.71934374532919,0.10003827100260665
6.900000000000002,22.2912,5.68284,239.6,-21.0,15.3,10.0,-10.068423342597107,-20.28553229313276,0.10004020383606704
7.0,22.8276,5.85398,239.6,-20.8,14.9,10.0,-10.142878746074661,-20.846663245615066,0.10004212959854097
7.100000000000001,23.4014,6.01705,239.4,-20.6,15.7,10.1,-10.20062172106334,-21.455559659163377,4.423971823541706e-05
7.200000000000003,23.9286,6.16836,239.4,-20.9,16.6,10.1,-10.220870445670862,-22.028390282417725,4.622343907279003e-05
7.300000000000001,24.5085,6.37064,239.5,-20.8,16.7,10.1,-10.229630864475151,-22.661991726587203,4.845537224884566e-05
7.400000000000002,25.0912,6.56498,239.5,-20.9,15.7,10.1,-10.220613969926966,-23.303705453325858,5.075155587608293e-05
7.5,25.717,6.75655,239.5,-20.6,14.9,10.1,-10.192249177428332,-23.997247133021663,5.327451875469791e-05
7.600000000000001,26.346,6.92747,239.2,-21.2,15.2,10.1,-10.146438637054747,-24.697914024434617,5.587394942363488e-05
7.700000000000003,26.9912,7.07892,239.6,-21.0,13.9,10.1,-10.084125766424966,-25.418539965747236,5.86017695392016e-05
7.800000000000001,27.616,7.1674,241.3,-19.6,6.8,10.1,-10.017634600538383,-26.114930113102204,6.130763450151733e-05
7.900000000000002,28.2779,7.12284,243.4,-15.6,-5.9,10.1,-9.947201218332452,-26.848657158276723,6.424016421036072e-05
8.0,28.9045,6.90589,244.2,-10.9,-20.1,10.1,-9.894698313691888,-27.534708831976534,6.707989302778827e-05
8.100000000000001,29.559,6.51494,243.3,-6.7,-27.2,10.1,-9.874676063392453,-28.236328459057418,7.011348990015875e-05
8.200000000000003,30.138,6.13802,243.3,-4.8,-27.4,10.1,-9.902040564298048,-28.839872913095768,7.285481081176215e-05
8.3,30.7261,5.82513,243.4,-3.9,-28.2,10.1,-9.971261671612954,-29.438128913660776,7.569256333095353e-05
8.400000000000002,31.2705,5.54149,243.0,-2.7,-28.8,10.1,-10.062582926767059,-29.98246065714656,7.836968618502027e-05
8.5,31.7878,5.34767,243.1,-2.6,-29.5,10.1,-10.182950063353207,-30.48828521199649,8.095728914536693e-05
8.600000000000001,32.3134,5.12853,243.3,-2.7,-29.5,10.1,-10.348281536231198,-30.988095832058363,8.363062513971897e-05
8.700000000000003,32.8434,4.97291,243.6,-3.2,-29.4,10.1,-10.561255263490374,-31.476741444589486,8.637059182792228e-05
8.800000000000004,33.3183,4.84057,243.7,-3.5,-28.6,10.1,-10.805541831310387,-31.89657463625771,8.886599875701506e-05
8.899999999999999,33.84,4.75801,243.3,-3.0,-27.6,10.1,-11.100552939446812,-32.34845257471258,9.164726714772087e-05
9.0,34.2608,4.68399,243.1,-3.1,-27.5,10.1,-11.412157659042034,-32.68707876557298,9.392447281264538e-05
9.100000000000001,34.6798,4.65173,243.6,-4.5,-27.4,10.1,-11.768413266743774,-33.00705576158148,9.622011201315672e-05
9.200000000000003,35.0401,4.62276,243.4,-4.4,-26.4,10.1,-12.129249732952367,-33.26117574338726,9.821814074584267e-05
9.300000000000004,35.3539,4.63856,243.4,-5.2,-25.3,10.1,-12.538643221714825,-33.44552492460219,9.997500560299244e-05
9.399999999999999,35.6922,4.71173,243.7,-6.2,-25.1,10.1,-12.954988171488619,-33.65044421984268,0.00010188751550632702
9.5,36.0349,4.80661,243.8,-6.6,-25.3,10.1,-13.414186701250767,-33.84026165018174,0.00010384437639121558
9.600000000000001,36.342,4.92944,244.0,-6.8,-25.4,10.1,-13.868590146514956,-33.98954607649569,0.00010561278405241126
9.700000000000003,36.6525,5.03443,244.2,-7.3,-25.5,10.1,-14.36624015349831,-34.12052495286308,0.00010741576327966129
9.800000000000004,36.9285,5.19132,244.3,-7.6,-25.6,10.1,-14.876157928045448,-34.20345612981694,0.00010903330530442901
9.899999999999999,37.2141,5.35596,244.4,-8.0,-26.0,10.1,-15.414209865101338,-34.27859011898265,0.00011071912217630597
10.0,37.4796,5.53143,244.4,-8.2,-26.0,10.1,-15.941582088831474,-34.33025196359018,0.00011229780801347289
10.100000000000001,37.7538,5.70347,244.3,-8.6,-25.8,10.1,-16.51472345703284,-34.36338295556439,0.0001139393861047111
10.200000000000003,37.9873,5.83538,243.9,-9.8,-22.7,10.1,-17.071937776685292,-34.351387275664,0.00011534730533568904
10.300000000000004,38.2546,5.90033,243.3,-13.2,-12.2,10.1,-17.676669318643317,-34.34544019868194,0.00011697004825350632
10.399999999999999,38.5166,5.82768,241.7,-16.7,1.5,10.1,-18.249592658539818,-34.341768819040794,0.00011857017638483569
10.5,38.8052,5.58055,240.2,-18.1,12.0,10.1,-18.83500314434959,-34.3537952109011,0.00012034134952898512
10.600000000000001,39.0868,5.25657,239.1,-17.5,17.2,10.1,-19.35995110754721,-34.38425312327222,0.0001220846380753926
10.700000000000003,39.4025,4.89171,238.5,-16.4,20.1,10.1,-19.879606727569982,-34.451410300736924,0.00012405058704700878
10.800000000000004,39.7211,4.55522,238.7,-15.1,21.0,10.1,-20.354221337061986,-34.54344465336356,0.0001260509613008054
10.899999999999999,40.0642,4.30043,238.7,-15.0,21.4,10.1,-20.81268322587389,-34.66985279582306,0.00012822025701630935
11.0,40.3817,4.05975,238.7,-14.1,21.4,10.1,-21.219222737475988,-34.79492430461851,0.00013024608114342584
11.100000000000001,40.7197,3.83533,239.1,-13.0,21.8,10.1,-21.578171106018353,-34.971208943411355,0.00013241786267848
11.200000000000003,41.0397,3.6112,239.3,-12.7,21.3,10.1,-21.87069580573735,-35.16646731883993,0.00013449088099015682
11.300000000000004,41.3764,3.4725,239.9,-11.6,20.7,10.1,-22.13774895593869,-35.396805889318216,0.00013668809005551452
11.399999999999999,41.7077,3.36961,240.3,-10.9,19.6,10.0,-22.369143169171338,-35.64293314473916,0.10013886644521008
11.5,42.0524,3.30005,240.5,-10.6,19.0,10.0,-22.5652633503558,-35.92707750397959,0.10014115445741112
11.600000000000001,42.3761,3.27018,240.7,-10.1,19.2,10.0,-22.720019562968417,-36.21245509090715,0.10014331863015613
11.700000000000003,42.711,3.27119,240.8,-9.9,19.0,10.0,-22.847668760856106,-36.52800994018575,0.10014557308038619
11.800000000000004,43.022,3.31428,240.8,-9.8,19.1,10.0,-22.93821610400722,-36.83842117960497,0.10014768147701147
11.899999999999999,43.3533,3.40554,240.9,-9.5,19.0,10.0,-23.00221840509657,-37.18918590278636,0.10014994782586406
12.0,43.6583,3.51551,240.9,-9.4,19.1,10.0,-23.030654655778704,-37.530392865198664,0.10015204717031168
12.100000000000001,43.9741,3.62837,240.9,-9.0,19.0,10.0,-23.029540753179184,-37.90163197080773,0.10015423639873688
12.200000000000003,44.2541,3.74565,240.9,-8.8,19.1,10.0,-22.990364290513703,-38.25304543382107,0.10015618906049184
12.300000000000004,44.5266,3.92014,240.7,-9.1,19.2,10.0,-22.908522044553084,-38.62003426465162,0.10015810308044593
12.399999999999999,44.8122,4.09364,240.7,-9.3,19.3,10.0,-22.81350044127466,-39.00808571133683,0.10016012144233244
12.5,45.1099,4.27824,240.7,-9.4,19.0,10.0,-22.68567505127004,-39.427169707801184,0.10016223849963524
12.600000000000001,45.3857,4.45999,240.7,-9.5,18.2,10.0,-22.534032558825395,-39.83187324322257,0.10016421014944399
12.700000000000003,45.6893,4.63322,240.8,-9.8,17.8,10.0,-22.34340543555644,-40.28744624209167,0.10016639657577464
12.800000000000004,45.9608,4.81973,240.7,-10.1,17.6,10.0,-22.14768271713996,-40.70534619256495,0.10016836003653928
12.899999999999999,46.2449,4.9604,240.8,-10.5,16.9,10.0,-21.91940470073205,-41.15171267878515,0.10017043072974019
13.0,46.5066,5.12462,241.0,-10.9,15.4,10.0,-21.679905192831654,-41.574419862930824,0.10017234843144074
13.100000000000001,46.7826,5.23892,241.2,-12.4,12.4,10.0,-21.410188040347528,-42.02453586134591,0.10017438106160625
13.200000000000003,47.021,5.26567,241.9,-14.6,4.9,10.0,-21.151263572119475,-42.422564158825644,0.10017614697783372
13.300000000000004,47.3052,5.23803,243.0,-16.8,-4.3,10.0,-20.874826714091288,-42.87621217098744,0.10017826146057907
13.399999999999999,47.6036,5.07742,244.3,-17.8,-12.7,10.0,-20.61602043212132,-43.33255224020184,0.1001804983924437
13.5,47.9276,4.77205,245.1,-15.7,-19.8,10.0,-20.375291103230662,-43.8043648042435,0.10018294237526248
13.600000000000001,48.256,4.38356,244.9,-12.4,-24.9,10.0,-20.146654552131256,-44.27156850503442,0.10018543562834381
13.700000000000003,48.5748,3.97128,244.6,-10.2,-26.2,10.1,-19.993421412445525,-44.69095073685646,0.00018787349529247876
13.800000000000004,48.8689,3.60951,244.7,-9.6,-26.6,10.1,-19.898028378405957,-45.05558335735913,0.00019013660269706634
13.899999999999999,49.1719,3.30348,245.1,-10.2,-27.8,10.1,-19.839724229380302,-45.412571564911374,0.0001924847010190689
14.0,49.4381,3.02213,244.6,-9.2,-28.3,10.1,-19.828641422637794,-45.70815522509696,0.00019455753702146694
14.100000000000001,49.7199,2.80656,244.7,-9.0,-28.5,10.1,-19.857167171511907,-46.00327321564352,0.00019676705812976536
14.200000000000003,49.9817,2.61423,245.1,-9.5,-28.5,10.0,-19.929739698359953,-46.257391807172695,0.10019882907917577
14.300000000000004,50.2477,2.57808,245.2,-9.8,-28.5,10.0,-20.046755385177107,-46.496955336925815,0.10020093798802066
14.399999999999999,50.4928,2.59996,245.2,-9.9,-28.7,10.0,-20.216603861510954,-46.69094570720281,0.1002028933226704
14.5,50.7407,2.69263,245.4,-10.3,-28.8,10.1,-20.415551959038076,-46.875092960457025,0.00020487777570110666
14.600000000000001,50.9653,2.85818,245.5,-10.8,-28.5,10.1,-20.642647048844704,-47.021192410128684,0.00020668634899223548
14.700000000000003,51.1948,3.06952,245.4,-10.6,-28.2,10.1,-20.915833480499074,-47.15174329271288,0.00020854211168952475
14.800000000000004,51.4118,3.30834,245.4,-10.5,-28.3,10.1,-21.212789498560667,-47.25712676957616,0.00021030750904849072
14.899999999999999,51.6344,3.54428,245.5,-10.6,-28.8,10.1,-21.573697222375678,-47.338377850921546,0.00021212331741438106
15.0,51.8335,3.81547,245.5,-10.7,-28.7,10.1,-21.93138322339326,-47.39327767070262,0.00021375435814974253
15.100000000000001,52.0384,4.07278,245.9,-11.3,-28.5,10.1,-22.337080687921592,-47.43012401106307,0.00021544103526593972
15.200000000000003,52.2251,4.32459,246.0,-11.6,-28.8,10.1,-22.742240799566876,-47.44428100763403,0.00021698411015869112
15.300000000000004,52.3931,4.63277,245.6,-11.2,-29.0,10.1,-23.18822184482795,-47.414816028028824,0.00021837664634638543
15.399999999999999,52.586,4.95324,245.4,-11.2,-28.9,10.0,-23.66246518514157,-47.39545792342375,0.10021998054907044
15.5,52.7904,5.22746,245.5,-12.1,-28.4,10.0,-24.190420010750465,-47.35752014844441,0.10022168696231759
15.600000000000001,52.9855,5.53293,245.3,-11.9,-27.9,10.0,-24.718028153499297,-47.30410611084306,0.10022332149256208
15.700000000000003,53.1999,5.78322,245.2,-11.9,-27.3,10.0,-25.31604180536738,-47.229687012087915,0.10022512561903518
15.800000000000004,53.392,6.03813,245.0,-11.8,-26.5,10.0,-25.885518317303877,-47.13868414898491,0.10022674758265993
15.899999999999999,53.5973,6.24389,244.9,-12.2,-24.9,10.0,-26.504033521781032,-47.02870754173003,0.10022848527847117
16.0,53.8001,6.41783,244.5,-13.1,-20.7,10.0,-27.111458636028843,-46.914645100386444,0.10023020980577257
16.1,54.0107,6.39433,243.6,-15.8,-10.6,10.0,-27.75841871730495,-46.77868009372321,0.10023200536507204
16.200000000000003,54.2285,6.24481,242.3,-17.5,0.4,10.0,-28.359327863333398,-46.670841693430646,0.10023386971554515
16.300000000000004,54.4715,6.02202,241.1,-18.1,7.6,10.0,-28.97430905870346,-46.57686058644869,0.10023595863407131
16.4,54.7243,5.70994,239.9,-17.2,14.9,10.0,-29.555927353807988,-46.50869216874787,0.10023813997533182
16.5,55.0055,5.28978,239.5,-14.8,23.0,10.0,-30.134976694803726,-46.46996413617052,0.10024057722078794
16.6,55.2812,4.86563,239.6,-13.0,26.2,10.0,-30.670460159158054,-46.44787297923631,0.10024297874157995
16.700000000000003,55.5834,4.45471,238.9,-12.3,26.1,10.1,-31.161638326172387,-46.48313577541337,0.0002456258185787874
16.800000000000004,55.8809,4.06955,240.2,-8.8,27.6,10.1,-31.583270061291394,-46.5569411662709,0.000248244743142223
16.9,56.1923,3.64905,240.9,-7.1,29.0,10.1,-31.97549463227081,-46.66579236255143,0.00025100123056631674
17.0,56.4999,3.31469,240.6,-7.2,28.5,10.0,-32.29741566555902,-46.8174017557853,0.10025373967795659
17.1,56.7975,3.01924,240.6,-6.8,27.1,10.0,-32.574655948479155,-46.98722196325793,0.10025640191004648
17.200000000000003,57.0672,2.71846,241.1,-5.2,25.7,10.0,-32.78927088919039,-47.16647732253128,0.10025882773830475
17.300000000000004,57.3393,2.59067,241.1,-4.9,24.7,10.0,-32.965841835735525,-47.37518820307744,0.10026128615529828
17.4,57.598,2.58914,240.8,-6.3,23.8,10.0,-33.08971010966253,-47.60438494459173,0.10026363486634082
17.5,57.8594,2.64578,240.6,-7.0,23.2,10.0,-33.176606398044214,-47.86257135332505,0.10026601836309545
17.6,58.1016,2.79105,240.7,-7.5,21.8,10.0,-33.22344767517132,-48.125274812128325,0.10026823801591433
17.700000000000003,58.3507,2.95699,240.3,-9.0,20.8,10.0,-33.23652435883753,-48.419281957637736,0.10027052941341275
17.800000000000004,58.5937,3.17255,240.4,-9.0,21.4,10.0,-33.22211554384273,-48.7242517894954,0.10027277531083811
17.9,58.8314,3.41063,241.0,-7.8,21.3,10.0,-33.15840793178354,-49.05576740302975,0.1002749799483329
18.0,59.0489,3.66911,241.0,-8.0,20.3,10.0,-33.05199557056027,-49.39041011873391,0.1002770051239743
18.1,59.2726,3.8988,240.7,-8.6,19.6,10.0,-32.90675323047175,-49.75682996262937,0.1002790964705138
18.200000000000003,59.4701,4.11037,240.7,-8.5,19.9,10.0,-32.7384754366024,-50.10494392361714,0.10028095018692085
18.300000000000004,59.6496,4.3936,240.6,-8.8,19.6,10.0,-32.50597144777884,-50.4710387273805,0.10028264096964001
18.4,59.8517,4.65777,240.5,-9.2,19.1,10.1,-32.27517555500455,-50.85974349395889,0.0002845491715195436
18.5,60.0628,4.88092,240.4,-10.0,18.7,10.1,-32.00556649704427,-51.28018638691644,0.00028654887606371915
18.6,60.259,5.12435,240.6,-9.9,18.2,10.1,-31.72017763249578,-51.68889500826607,0.0002884128051512391
18.700000000000003,60.482,5.32069,240.5,-10.7,17.8,10.1,-31.383175236157896,-52.156193961562,0.000290539928061051
18.800000000000004,60.6756,5.528,240.5,-11.2,17.3,10.1,-31.056491647231304,-52.57778201407605,0.00029239275544057364
18.9,60.8809,5.71341,240.5,-11.3,17.2,10.1,-30.69326660388469,-53.02935248467659,0.00029436256788706316
19.0,61.0764,5.91584,240.6,-11.1,17.4,10.1,-30.332229014673583,-53.46301048376242,0.0002962462374256347
19.1,61.2781,6.05807,241.2,-11.9,14.5,10.1,-29.941986595345337,-53.91473729230461,0.000298194330666135
19.200000000000003,61.4739,6.06271,242.5,-12.4,1.7,10.1,-29.554483525503336,-54.352347192829995,0.0003000890168980419
19.300000000000004,61.6843,5.87514,244.0,-11.5,-15.2,10.2,-29.15455283913956,-54.80769847072199,-0.09969786413436488
19.4,61.892,5.4495,244.0,-8.3,-26.2,10.2,-28.800068736927038,-55.23030191107697,-0.09969583997133569
19.5,62.0965,4.85917,243.5,-5.6,-27.8,10.2,-28.475176665291883,-55.62930733557536,-0.09969384038475582
19.6,62.3039,4.34495,244.0,-5.6,-26.9,10.2,-28.21215010072185,-55.99637158330521,-0.09969180531747668
19.700000000000003,62.5169,3.80124,244.1,-5.9,-27.7,10.2,-27.978868657406792,-56.352011120287294,-0.09968970594892212
19.800000000000004,62.7176,3.32738,244.0,-6.0,-27.9,10.2,-27.78055964361978,-56.67435759747654,-0.09968772392024405
19.9,62.922,3.01127,244.0,-6.5,-28.7,10.2,-27.612640132013766,-56.98431329624847,-0.09968569615200629
20.0,63.1375,2.61108,244.0,-6.8,-29.6,10.1,-27.46181187915412,-57.2968074810569,0.00031644713912726274
20.1,63.3292,2.18718,244.3,-7.0,-29.1,10.1,-27.388071926594826,-57.54491594433702,0.00031836018556319345
20.200000000000003,63.5006,1.84308,244.6,-7.6,-28.9,10.1,-27.37383105420126,-57.74176943936522,0.0003200760378625489
20.300000000000004,63.6724,1.62223,244.8,-8.1,-29.2,10.1,-27.400543944038837,-57.919515555205166,0.0003218011270789134
20.4,63.8047,1.53159,244.7,-8.4,-29.0,10.1,-27.490099259852464,-58.02359610995124,0.0003231336016078501
20.5,63.9544,1.59966,244.7,-8.7,-28.8,10.1,-27.59675200328048,-58.13883434000712,0.00032464399944487354
20.6,64.0879,1.77712,244.7,-8.8,-28.9,10.1,-27.73421335197277,-58.22140956553177,0.000325994417252673
20.700000000000003,64.2233,2.05148,244.8,-9.0,-29.0,10.1,-27.915379303479867,-58.28489269548558,0.0003273671387500343
20.800000000000004,64.3452,2.34619,245.1,-9.4,-28.9,10.1,-28.152412144179337,-58.30597203913079,0.00032860623379527
20.9,64.4797,2.65013,245.2,-9.7,-29.0,10.1,-28.413364691068338,-58.328823306612804,0.0003299763202644357
21.0,64.6002,2.98203,245.2,-10.0,-28.7,10.1,-28.69009433765317,-58.32724027108081,0.00033120455311319574
21.1,64.7258,3.30375,245.1,-10.1,-27.8,10.1,-29.01364642720697,-58.30695846652414,0.0003324892278708802
21.200000000000003,64.8271,3.59756,245.1,-10.6,-26.7,10.1,-29.339995778553877,-58.25648402320644,0.00033352682855536386
21.300000000000004,64.9503,3.88952,244.8,-10.5,-25.9,10.1,-29.716192830816475,-58.203413313776295,0.00033478995874069994
21.4,65.0718,4.16578,244.6,-10.9,-24.7,10.1,-30.10670478783645,-58.13870016380031,0.0003360403262888667
21.5,65.2013,4.38927,244.7,-12.7,-22.0,10.1,-30.53978864668771,-58.058090964126606,0.0003373728969897627
21.6,65.3287,4.55819,244.4,-15.2,-16.7,10.1,-30.97400811745896,-57.97140276344314,0.000338685924219817
21.700000000000003,65.4732,4.61146,243.7,-18.3,-8.8,10.0,-31.46056277227263,-57.872422291029466,0.10034017828598074
21.800000000000004,65.6223,4.56239,242.3,-20.9,-0.2,10.0,-31.90316185701573,-57.7992858686826,0.10034172275033626
21.9,65.7978,4.38091,240.7,-22.1,8.0,10.1,-32.35942027159006,-57.7455253566631,0.0003435439004277896
22.0,65.9837,4.13498,239.6,-22.2,14.5,10.0,-32.77646334697249,-57.722994088316895,0.10034547779331504
22.1,66.1943,3.84738,238.7,-21.7,18.4,10.1,-33.19266355827652,-57.7271213655344,0.00034767477889197096
22.200000000000003,66.4234,3.56853,238.1,-21.3,19.9,10.0,-33.56148821605759,-57.778114489493674,0.10035007397016926
22.300000000000004,66.6825,3.38088,237.8,-21.0,21.2,10.1,-33.91716911812546,-57.87013119644242,0.00035279547648947585
22.4,66.9293,3.23791,237.8,-20.8,21.7,10.1,-34.20536092999628,-57.986691764018694,0.0003553979100789917
22.5,67.236,3.19296,238.1,-20.6,21.0,10.0,-34.535742320806726,-58.14722137579804,0.10035864501628922
22.6,67.5293,3.18543,238.5,-20.2,19.6,10.0,-34.776235783965234,-58.34542824593149,0.10036176561071031
22.700000000000003,67.8512,3.24491,238.7,-20.2,18.8,10.0,-34.997530787724315,-58.58840661298048,0.10036520577787122
22.800000000000004,68.1737,3.34252,238.9,-20.0,18.3,10.0,-35.17617294410063,-58.85752217394203,0.10036866665945254
22.9,68.5353,3.47491,239.2,-20.0,17.6,10.0,-35.34239546688463,-59.17989773795881,0.10037256944442063
23.0,68.8799,3.64988,239.2,-20.1,16.8,10.0,-35.45965155066577,-59.5115900882449,0.10037630636053407
23.1,69.2525,3.8267,239.4,-19.9,16.4,10.0,-35.55735952448967,-59.88765298685209,0.1003803686655651
23.200000000000003,69.6058,4.01092,239.5,-19.5,16.2,10.0,-35.61889029460925,-60.2625052068284,0.10038424047942485
23.300000000000004,69.9855,4.22637,239.6,-19.4,16.0,10.0,-35.65966223320303,-60.680116572776555,0.10038842496822298
23.4,70.3526,4.4279,239.7,-19.2,15.8,10.0,-35.65290380296531,-61.110366794438505,0.10039248995997951
23.5,70.7571,4.63552,239.6,-19.3,16.2,10.0,-35.65583958958821,-61.577503526906796,0.10039699559315451
23.6,71.1516,4.86432,239.4,-19.7,16.9,10.0,-35.640163742459094,-62.04294092161355,0.10040141324372343
23.700000000000003,71.5764,5.09644,239.3,-19.6,16.4,10.1,-35.60431617357662,-62.55392209617313,0.00040619914281947445
23.800000000000004,72.0209,5.3375,239.1,-20.0,16.4,10.1,-35.56027308539963,-63.09100913690588,0.0004112375501570398
23.9,72.4782,5.58353,239.3,-19.3,16.9,10.1,-35.48968923298028,-63.65605104909157,0.00041645137199708415
24.0,72.9191,5.81685,239.4,-18.9,16.7,10.1,-35.40240957981113,-64.2099199914399,0.00042151112635835375
24.1,73.3922,6.00585,239.3,-19.5,15.8,10.1,-35.294148557267434,-64.81009922275312,0.0004269725369034916
24.200000000000003,73.8418,6.15014,239.3,-19.1,15.5,10.1,-35.16402812543735,-65.3931180813126,0.000432196653566308
24.300000000000004,74.3274,6.35595,239.7,-18.3,15.8,10.1,-35.021904165213044,-66.02108027030656,0.00043787508193560143
24.4,74.802,6.55222,240.1,-18.7,14.7,10.1,-34.873559031794244,-66.63706002633981,0.00044345751955887636
24.5,75.3107,6.64832,241.0,-20.5,9.1,10.0,-34.70695970521106,-67.2984402328551,0.10044948338521742
24.6,75.6955,6.70807,242.2,-21.1,0.3,10.0,-34.57777881259581,-67.79839196915059,0.10045406868166928
24.700000000000003,76.1745,6.6724,243.3,-19.7,-7.4,10.0,-34.43701868742657,-68.40800251091937,0.10045980647196551
24.800000000000004,76.6945,6.55896,244.2,-17.7,-13.5,10.0,-34.30803320576862,-69.05540070731188,0.10046607809889707
24.9,77.2593,6.38506,244.6,-16.0,-17.2,10.0,-34.1967227994562,-69.74164816747444,0.10047293727289563
25.0,77.7928,6.19272,244.8,-14.7,-19.3,10.0,-34.122240094405484,-70.3728563995448,0.10047946416931808
25.1,78.436,5.98671,244.8,-13.8,-20.6,10.0,-34.04251481327445,-71.12671392746307,0.10048738993253892
25.200000000000003,78.929,5.75829,244.9,-13.5,-21.3,10.0,-34.040092304441586,-71.67504654061048,0.10049350918032296
25.300000000000004,79.435,5.64249,244.7,-13.0,-21.4,10.0,-34.072789412199974,-72.22047737136039,0.10049983151504449
25.4,79.9654,5.50671,244.8,-12.9,-21.2,10.0,-34.12119973654441,-72.7848555786311,0.10050650099190506
25.5,80.5308,5.4048,244.7,-12.6,-21.1,10.0,-34.18195686727016,-73.38157634831981,0.10051365682511815
25.6,81.0715,5.29271,244.6,-12.2,-21.0,10.0,-34.297985722024286,-73.92484656800148,0.10052054998712379
25.700000000000003,81.632,5.20035,244.7,-12.5,-20.5,10.0,-34.45069451600756,-74.47272977926923,0.10052774445266444
25.800000000000004,82.1421,5.13241,244.7,-12.9,-19.7,10.0,-34.630088810659664,-74.95249166768912,0.1005343317502323
25.9,82.7104,5.06667,244.6,-13.0,-18.5,10.0,-34.86181259628121,-75.47225628823392,0.10054172243828496
26.0,83.2025,5.03073,244.6,-13.2,-17.7,10.1,-35.08963085180491,-75.90963472089258,0.0005481625951340163
26.1,83.7148,5.00522,244.8,-13.6,-17.9,10.1,-35.34862965745168,-76.35488592201673,0.000554907923987713
26.200000000000003,84.1689,4.95135,244.8,-13.5,-18.4,10.1,-35.60509190297059,-76.7368955850718,0.0005609199419964739
26.300000000000004,84.5672,4.93467,244.8,-13.9,-18.6,10.1,-35.90059262794705,-77.03907656256615,0.0005662213380652759
26.4,85.043,4.94562,244.9,-14.2,-18.5,10.1,-36.20091824383857,-77.42427120610932,0.0005725864453296481
26.5,85.5436,4.98662,244.9,-13.9,-18.4,10.1,-36.534300235037165,-77.82136450650978,0.0005793213947562492
26.6,86.0128,5.01885,244.8,-13.8,-18.4,10.1,-36.87416956729529,-78.18018913761344,0.0005856691495189636
26.700000000000003,86.5017,5.04179,244.9,-14.0,-18.8,10.1,-37.24786395057802,-78.54450501695189,0.000592320057862139
26.800000000000004,86.9949,5.08483,244.9,-14.1,-18.5,10.1,-37.64639120658421,-78.90132929129044,0.0005990684365038135
26.9,87.4727,5.1115,244.8,-14.4,-17.7,10.1,-38.047224466084856,-79.2393667096162,0.000605642256331862
27.0,87.9223,5.15033,244.7,-14.4,-17.1,10.1,-38.441949430592615,-79.54829206186265,0.0006118590609354158
27.1,88.3924,5.18417,244.7,-14.9,-17.4,10.1,-38.86887840144287,-79.86371675259585,0.0006183949234106478
27.200000000000003,88.7953,5.19869,244.7,-15.1,-17.1,10.1,-39.26492141607762,-80.11867184769714,0.0006240230579344086
27.300000000000004,89.246,5.26218,244.6,-14.8,-16.5,10.1,-39.70411675913583,-80.40484716210086,0.0006303503177811365
27.4,89.6911,5.3145,244.3,-15.4,-15.3,10.1,-40.1476638371107,-80.68163672443976,0.000636630017986306
27.5,90.1612,5.33856,243.7,-17.8,-10.7,10.1,-40.62193832642532,-80.97006528665693,0.0006432952301267392
27.6,90.6146,5.34238,242.5,-19.2,-2.8,10.1,-41.08262623433137,-81.24550330547444,0.000649756291085879
27.700000000000003,91.0857,5.29774,241.1,-18.6,5.6,10.1,-41.54023658859939,-81.54143889850822,0.0006565042431674328
27.800000000000004,91.5432,5.22977,240.1,-17.9,11.2,10.1,-41.95717065101546,-81.84210145552342,0.0006630902349371581
27.9,92.0313,5.14771,239.3,-17.9,13.8,10.1,-42.36961982072389,-82.17887914346689,0.0006701533182322805
28.0,92.4966,5.07564,239.0,-17.3,15.5,10.1,-42.73475254859726,-82.51396870166386,0.0006769202869243429
28.1,92.9936,5.01132,239.2,-16.8,16.0,10.1,-43.085162633101575,-82.89235203587103,0.0006841874013510107
28.200000000000003,93.4604,4.94602,239.6,-16.5,15.0,10.0,-43.38264991079237,-83.26399785838228,0.10069104856320976
28.300000000000004,93.9545,4.99023,239.7,-16.8,14.5,10.0,-43.66589202608584,-83.67396711120873,0.10069834866614258
28.4,94.4517,5.01406,240.0,-16.7,14.2,10.0,-43.92662726493679,-84.09921772694102,0.10070573357322132
28.5,94.993,5.05986,240.0,-16.9,14.0,10.0,-44.20394528673326,-84.5654865915769,0.10071381526540435
28.6,95.4913,5.11336,240.2,-16.7,14.1,10.0,-44.40574488104737,-85.02291887338282,0.10072129749815417
28.700000000000003,96.0167,5.17607,240.5,-16.3,13.8,10.0,-44.5901403309863,-85.52010136462471,0.10072922910960713
28.800000000000004,96.518,5.25646,240.5,-16.8,13.2,10.0,-44.73342612525865,-86.01155579703105,0.10073683823390311
28.9,97.0477,5.30184,240.6,-16.7,12.5,10.0,-44.84287191696834,-86.55251268754014,0.10074492098273069
29.0,97.5489,5.40823,240.7,-16.4,12.0,10.0,-44.9419097338333,-87.0665034109328,0.10075260959088084
29.1,98.0797,5.52029,240.7,-16.5,11.7,10.1,-45.026907539805734,-87.62088723501321,0.0007607959675297593
29.200000000000003,98.5778,5.58903,240.7,-16.4,11.2,10.1,-45.086216689380294,-88.1512818115886,0.0007685173323324079
29.300000000000004,99.0787,5.7286,240.7,-15.9,11.2,10.1,-45.11487616378122,-88.70008881415737,0.0007763220270682325
29.4,99.601,5.85433,240.7,-15.6,11.8,10.1,-45.148213590139015,-89.27004258623799,0.0007845017229222151
29.5,100.155,5.98097,240.9,-15.1,11.9,10.1,-45.167108611709864,-89.88244241721137,0.0007932294679164897
29.6,100.671,6.09445,241.1,-14.5,11.0,10.1,-45.16366476991776,-90.46220934608446,0.0008013924103629222
29.700000000000003,101.211,6.17664,241.0,-14.8,10.3,10.1,-45.13760688345617,-91.07972552379081,0.0008099878460363641
29.800000000000004,101.737,6.28076,241.1,-14.6,10.3,10.1,-45.106576182464735,-91.68333475986512,0.0008184062083778088
29.9,102.294,6.37976,241.1,-14.5,10.1,10.1,-45.060132177577074,-92.32761826074346,0.0008273615677509838
30.0,102.839,6.47341,241.1,-14.4,9.7,10.1,-44.998702981506305,-92.96490616917237,0.0008361743636591257
30.1,103.414,6.54187,241.7,-14.4,7.5,10.1,-44.92106874441462,-93.64186024712163,0.0008455179817588032
30.200000000000003,103.987,6.53434,242.4,-14.4,0.9,10.1,-44.82838563364892,-94.32333525548151,0.0008548953210478771
30.300000000000004,104.557,6.49583,243.4,-13.2,-8.2,10.1,-44.74121003313911,-94.99616526996795,0.0008642557889722013
30.4,105.092,6.31839,244.0,-10.4,-18.7,10.1,-44.672161035370216,-95.6209055522038,0.0008730967168091297
30.5,105.647,6.03029,243.7,-7.4,-26.1,10.1,-44.62875379331875,-96.25494788091056,0.0008823203756733733
30.6,106.152,5.69008,243.4,-5.4,-27.7,10.1,-44.622073451663304,-96.81595838271426,0.000890755044270719
30.700000000000003,106.68,5.34876,243.6,-4.7,-27.7,10.1,-44.65851962945503,-97.38120782329173,0.0008996074146629951
30.800000000000004,107.165,5.05129,243.7,-4.3,-28.8,10.1,-44.72757788012535,-97.88407132041088,0.0009077831216579568
30.9,107.658,4.77649,243.7,-4.3,-29.9,10.1,-44.83763319337345,-98.3771293773749,0.0009161381641433763
31.0,108.112,4.57863,243.7,-4.4,-29.7,10.1,-44.969687185099055,-98.8156521871679,0.0009238426676780875
31.1,108.573,4.44223,243.6,-4.3,-29.3,10.0,-45.15674327277051,-99.23758654202,0.10093171389288713
31.200000000000003,108.981,4.27386,243.9,-4.8,-28.6,10.1,-45.36806503247185,-99.59084513243288,0.0009387207889126614
31.300000000000004,109.393,4.21981,244.1,-5.6,-28.3,10.1,-45.62249258745108,-99.92771373300558,0.0009458057129982933
31.4,109.776,4.17707,243.7,-5.3,-27.6,10.1,-45.90931827700249,-100.21750848764654,0.000952414136683899
31.5,110.171,4.16271,243.7,-5.8,-26.6,10.1,-46.232257628780125,-100.50417246415853,0.000959261798545441
31.6,110.529,4.19768,243.8,-6.3,-26.2,10.1,-46.567882599798104,-100.74385405593381,0.0009654900321685034
31.700000000000003,110.891,4.25724,243.9,-6.4,-26.3,10.1,-46.944079930602655,-100.9678650492152,0.0009717976191652156
31.800000000000004,111.218,4.3372,244.1,-6.8,-26.8,10.1,-47.31889065767727,-101.15459242387249,0.000977532940694914
31.9,111.555,4.44217,243.9,-6.8,-26.9,10.1,-47.74709182754164,-101.32523693182199,0.0009834415197218505
32.0,111.854,4.58,243.9,-7.4,-26.6,10.1,-48.16379294769916,-101.45828459877573,0.0009887004870492433
32.1,112.157,4.70293,244.0,-8.2,-26.0,10.1,-48.622800196089074,-101.57410374420934,0.0009940373625596521
32.2,112.424,4.83695,243.9,-8.3,-25.5,10.1,-49.07313337337823,-101.65411312606903,0.0009987723533377846
32.300000000000004,112.668,5.01106,243.9,-8.3,-25.2,10.2,-49.549736690824076,-101.69264805618207,-0.09899691550172207
32.4,112.932,5.17893,243.9,-8.7,-25.7,10.2,-50.05148402420801,-101.74019327771221,-0.0989922258573408
32.5,113.203,5.34363,243.7,-8.9,-24.5,10.2,-50.5968175482272,-101.7724803038367,-0.09898739160627557
32.6,113.454,5.41897,243.0,-8.9,-16.3,10.2,-51.13051792923926,-101.78489584514799,-0.09898292121642527
32.7,113.721,5.07707,241.8,-0.7,6.1,10.2,-51.7140747464931,-101.78853704167952,-0.09897814163204544
32.800000000000004,113.932,4.53704,245.2,7.0,26.0,10.2,-52.179633841118445,-101.78592235525647,-0.0989743772406193
32.9,114.131,3.99586,245.3,7.5,26.8,10.2,-52.610315968610294,-101.78779020368836,-0.09897079670549402
33.0,114.305,3.48505,245.5,8.8,26.3,10.3,-52.98130074872658,-101.791056587425,-0.19896766142464273
33.1,114.452,2.80276,247.1,11.5,30.7,10.3,-53.30253821479637,-101.78760799087476,-0.1989650300860788
33.2,114.579,2.17759,245.9,9.6,27.1,10.2,-53.558204964976916,-101.79657481329477,-0.0989627368034931
33.300000000000004,114.69,1.73908,244.7,7.2,21.0,10.2,-53.77366729052213,-101.80757424993135,-0.0989607418705063
33.4,114.778,1.38105,243.8,5.4,16.4,10.2,-53.94181028867132,-101.81847392554414,-0.09895914336090073
33.5,114.856,1.07541,243.3,3.4,12.0,10.2,-54.08596420433269,-101.83014468178604,-0.09895773240634398
33.6,114.965,0.894873,243.1,3.1,9.3,10.2,-54.26551499464544,-101.85750975664646,-0.09895576328198175
33.7,115.026,0.725318,242.6,1.1,5.9,10.2,-54.368960859022835,-101.87145591304377,-0.09895465648179425
33.800000000000004,115.062,0.587397,242.0,-0.5,3.6,10.2,-54.44041948835484,-101.87378592250803,-0.09895400822256306
33.9,115.089,0.448134,241.7,-2.1,2.0,10.2,-54.498331923554844,-101.87304573508882,-0.09895352297950666
