time,distance(meters),speed(m/s), compass_heading(degrees), pitch(degrees), roll(degrees),height_above_takeoff(meters),North,East,Down
0.0,109.575,1.77044,238.8,2.0,24.0,14.9,0.0,0.0,0.0
0.0999999999999659,109.522,2.19746,238.7,1.3,23.5,14.9,0.19257443109023933,-0.0330375046975111,3.0066632655811887e-09
0.19999999999998863,109.464,2.63903,238.2,0.1,23.0,14.9,0.4150384259493511,-0.07412436537542785,1.45989420829995e-08
0.2999999999999545,109.409,2.91662,237.9,-0.4,21.8,14.9,0.6728301285407499,-0.13505968074348534,3.740340220881322e-08
0.39999999999997726,109.339,3.29185,237.8,-0.7,20.5,14.9,0.9687784178627661,-0.196521945704532,7.63946009230132e-08
0.5,109.258,3.60994,237.9,-0.6,19.7,14.9,1.3187498262458623,-0.26938619019593113,1.424177780151581e-07
0.5999999999999659,109.175,3.93937,238.2,-0.1,18.8,14.9,1.6844924442640878,-0.34606891346186835,2.326138877073447e-07
0.6999999999999886,109.08,4.22421,238.5,0.1,18.0,14.9,2.1019407583105556,-0.43229019248494055,3.627956081109218e-07
0.7999999999999545,108.994,4.4963,238.6,0.2,16.5,14.9,2.5447738315221726,-0.5381155324712676,5.314746081008792e-07
0.8999999999999773,108.872,4.6572,238.5,-0.9,12.5,14.9,3.0200334902414543,-0.6163790805745746,7.480702128859207e-07
1.0,108.755,4.6722,238.5,-4.5,2.6,14.9,3.47761485102392,-0.6901138993513798,9.881456164428926e-07
1.099999999999966,108.631,4.46588,239.1,-6.0,-11.8,14.9,3.946878686399451,-0.7589610584553984,1.2706376635307493e-06
1.1999999999999886,108.518,4.0267,239.1,-4.1,-24.3,14.9,4.384290940502641,-0.824593055382959,1.565784007118154e-06
1.2999999999999545,108.376,3.58891,238.7,-2.4,-27.4,14.9,4.7825670652915075,-0.8401036858157483,1.8552207410316157e-06
1.3999999999999773,108.222,3.18789,239.0,-2.6,-27.4,14.9,5.124993850892974,-0.8177655506743704,2.119738865324905e-06
1.5,108.04,2.91445,239.4,-3.5,-28.0,14.9,5.447953690443427,-0.7554326710054289,2.379885235548329e-06
1.599999999999966,107.853,2.64581,239.6,-4.2,-28.5,14.9,5.737828121624202,-0.6738164794789709,2.6265995702878797e-06
1.6999999999999886,107.66,2.44482,239.7,-5.0,-28.1,14.9,5.9553914309068965,-0.5549930291622982,2.8156248910171655e-06
1.7999999999999545,107.459,2.29462,239.3,-5.1,-28.4,14.9,6.144813353162573,-0.41571781532496765,2.9841625597271104e-06
1.8999999999999773,107.231,2.22171,239.0,-5.1,-28.7,14.9,6.324139162817319,-0.24190064385442533,3.151252232935775e-06
2.0,106.989,2.29379,239.1,-5.5,-28.8,14.9,6.512850265315906,-0.05803324601321025,3.3378388621940758e-06
2.099999999999966,106.741,2.45386,238.9,-5.2,-29.0,15.0,6.601059827475857,0.17390116506071895,-0.09999656814520508
2.1999999999999886,106.496,2.66343,238.9,-5.3,-29.3,14.9,6.637950687302554,0.4242100882580542,3.481227144330745e-06
2.2999999999999545,106.228,2.9117,239.1,-5.6,-29.4,14.9,6.6269559415725166,0.71921048369084,3.4958224510717173e-06
2.3999999999999773,105.96,3.20646,239.3,-6.0,-29.4,14.9,6.5870714440595,1.0259565292650492,3.4964939623627345e-06
2.5,105.658,3.45463,239.0,-6.2,-23.9,15.0,6.50191637672841,1.388559310131122,-0.09999652287646255
2.599999999999966,105.374,3.5808,238.4,-5.1,-12.3,14.9,6.4185410994647185,1.7318176461730475,3.4762048395364786e-06
2.6999999999999886,105.069,3.53688,237.8,-2.2,0.6,15.0,6.32844492027891,2.100713307577406,-0.0999965030923109
2.7999999999999545,104.767,3.42917,238.0,0.7,14.2,15.0,6.269581865494956,2.4539760910596224,-0.09999643460537433
2.8999999999999773,104.409,3.30883,238.6,2.6,22.8,15.0,6.23630007031711,2.857650429120795,-0.09999630018212935
3.0,104.09,3.23631,238.6,2.9,24.7,15.0,6.26270204439601,3.1936536671601856,-0.09999611397111297
3.099999999999966,103.749,3.20677,238.5,3.0,24.1,15.0,6.336530306752239,3.533704470517001,-0.09999586203016664
3.1999999999999886,103.429,3.26766,238.3,2.8,23.2,15.0,6.450858572311478,3.8331648267545795,-0.09999557375853341
3.2999999999999545,103.1,3.38073,237.8,1.4,22.6,15.0,6.580732673349967,4.135618846391965,-0.09999525202793169
3.3999999999999773,102.778,3.52976,237.5,0.8,22.1,14.9,6.7756938889223575,4.403874473922049,5.13159596637891e-06
3.5,102.429,3.70618,237.5,0.8,21.8,14.9,7.023178668047877,4.677735653292466,5.595004798131242e-06
3.599999999999966,102.095,3.92319,237.6,1.1,21.3,14.9,7.301064461977486,4.923072769910394,6.091888041126481e-06
3.6999999999999886,101.738,4.07834,237.5,0.3,18.5,14.9,7.631681764417913,5.171243159946805,6.6777646066107366e-06
3.7999999999999545,101.402,4.19116,237.4,-2.0,11.3,14.9,7.971652542902312,5.393738074209165,7.27943308032053e-06
3.8999999999999773,101.051,4.15834,237.5,-6.2,1.6,14.9,8.337343276066598,5.621777390350521,7.944368170420546e-06
4.0,100.721,4.03692,238.5,-9.3,-9.9,14.9,8.675354950521957,5.8390485983597635,8.592729572320934e-06
4.099999999999966,100.378,3.80176,239.5,-9.7,-21.7,14.9,9.00204536196628,6.075832220775231,9.267565876491801e-06
4.199999999999989,100.061,3.56933,239.7,-9.1,-25.8,14.9,9.272325864927227,6.308331529416501,9.881964317948189e-06
4.2999999999999545,99.7281,3.48852,239.9,-8.9,-25.7,14.9,9.511246050097666,6.570714260133936,1.0500164308702153e-05
4.399999999999977,99.4035,3.39761,240.3,-9.9,-26.4,14.8,9.711154211296247,6.840344357534426,0.10001108559369687
4.5,99.054,3.33375,240.7,-10.8,-26.6,14.8,9.893826353938973,7.1438597372025985,0.10001169907152008
4.599999999999966,98.7227,3.30642,240.8,-10.9,-27.2,14.8,10.076888577078583,7.427610659726387,0.10001231150386847
4.699999999999989,98.3851,3.30391,240.6,-10.5,-27.8,14.8,10.179924599511276,7.750585044181165,0.10001285992766906
4.7999999999999545,98.0583,3.40415,240.5,-9.9,-28.3,14.8,10.238097388861345,8.080165416264302,0.10001336111433012
4.899999999999977,97.7094,3.54696,240.4,-9.5,-28.8,14.8,10.255325225628614,8.450305685682322,0.10001386833824544
5.0,97.3344,3.75155,240.4,-9.3,-28.9,14.8,10.266574624710394,8.851322169901756,0.10001443029441237
5.099999999999966,96.9836,3.9565,240.5,-9.5,-29.0,14.8,10.198762904467415,9.258883595844447,0.1000148983892668
5.199999999999989,96.6654,4.12108,240.3,-10.3,-25.4,14.9,10.099440737185322,9.644710439514947,1.5310147593261547e-05
5.2999999999999545,96.3468,4.21162,239.1,-8.0,-14.9,14.9,9.969890800988763,10.044268414846119,1.572287087725499e-05
5.399999999999977,96.0563,4.20655,238.2,-3.4,-4.0,14.9,9.835896710292317,10.41599734593294,1.6108497193023652e-05
5.5,95.7087,4.12424,238.1,0.9,7.0,14.9,9.72910497058318,10.839061865421046,1.6649430967241585e-05
5.599999999999966,95.3652,3.97067,238.4,3.1,17.9,14.9,9.65640419440842,11.243942766494907,1.723890964910879e-05
5.699999999999989,94.994,3.79188,238.5,3.1,23.2,14.9,9.619574411180611,11.664112818073953,1.7937228617093126e-05
5.7999999999999545,94.648,3.67133,238.4,2.9,24.3,14.9,9.626966335533574,12.038147972932409,1.8643102145610158e-05
5.899999999999977,94.2855,3.60968,239.1,3.9,24.6,14.9,9.650805644257716,12.423195598011326,1.941686756978811e-05
6.0,93.9364,3.62948,239.2,4.2,23.9,14.9,9.739807287728343,12.765613651205634,2.022642838639399e-05
6.099999999999966,93.5582,3.70446,238.9,3.9,23.1,14.9,9.8750591855204,13.119777269483434,2.1153793547945554e-05
6.199999999999989,93.2012,3.78087,238.4,2.3,22.8,14.9,10.054160034637981,13.431632086582104,2.208217506893817e-05
6.2999999999999545,92.8456,3.92833,237.3,0.1,22.9,14.9,10.263580990652565,13.728999548932721,2.3050313111561138e-05
6.399999999999977,92.4895,4.09368,237.3,-0.1,22.3,14.8,10.534199647935074,14.000485055363786,0.10002408338166457
6.5,92.1118,4.26788,237.1,-0.4,21.5,14.8,10.860734261430313,14.271787396170414,0.1000252344742929
6.599999999999966,91.7476,4.47539,237.0,-0.5,20.6,14.8,11.216074819504847,14.516650535189697,0.10002640315728151
6.699999999999989,91.3559,4.63195,237.3,-0.6,20.5,14.8,11.657954684636229,14.75549561279859,0.10002774544869908
6.7999999999999545,91.0051,4.75725,237.0,-4.6,18.7,14.8,12.078344880184032,14.96003551072562,0.10002900705829454
6.899999999999977,90.657,4.70324,237.1,-10.4,4.3,14.8,12.528038031267316,15.15079064365812,0.10003032795162614
7.0,90.3317,4.48169,239.0,-11.7,-14.9,14.8,12.942484378848894,15.33277095717325,0.10003159300821185
7.099999999999966,90.0152,4.10644,239.7,-10.2,-24.6,14.8,13.35826569645755,15.505739643623665,0.10003287094632629
7.199999999999989,89.7012,3.79736,239.8,-8.9,-25.9,14.8,13.687883403597162,15.71190628447793,0.10003407639161654
7.2999999999999545,89.3814,3.64988,240.0,-8.8,-26.2,14.8,13.978893805695513,15.940380515004156,0.10003527575197424
7.399999999999977,89.0657,3.49411,240.2,-9.2,-26.8,14.8,14.2293608732647,16.180936451602264,0.10003643764392756
7.5,88.7192,3.37938,240.4,-9.6,-27.4,14.8,14.466972373846449,16.459913899449898,0.10003768763657117
7.599999999999966,88.4019,3.2935,240.6,-10.1,-27.8,14.7,14.689092713553409,16.713803714829112,0.20003885641513897
7.699999999999989,88.0611,3.25361,240.4,-9.9,-27.9,14.7,14.847781843294012,17.018105396331748,0.20004002910436824
7.7999999999999545,87.7427,3.30137,240.3,-9.6,-28.1,14.7,14.946365339363172,17.3220024166352,0.20004107719669673
7.899999999999977,87.4131,3.4281,240.4,-9.5,-28.6,14.8,14.995485722871592,17.65744040280937,0.10004211193687773
8.0,87.0832,3.59976,240.4,-9.6,-28.7,14.8,15.017444075670868,18.003982300036014,0.10004313286818345
8.099999999999966,86.7429,3.78368,240.6,-9.9,-28.7,14.8,14.988757259427267,18.382057247625195,0.10004414175978482
8.199999999999989,86.4214,3.94325,240.7,-11.0,-27.9,14.8,14.921922545364996,18.755573018785746,0.1000450716978536
8.299999999999955,86.0878,4.07325,240.1,-11.4,-19.7,14.8,14.81869393907687,19.157269207611495,0.10004602219003544
8.399999999999977,85.7671,4.00008,238.4,-9.7,-4.4,14.8,14.707123182317611,19.54916721429568,0.10004695010572551
8.5,85.4279,3.74971,237.5,-6.9,12.6,14.9,14.600109549808485,19.960112091376622,4.797564309377833e-05
8.599999999999966,85.1207,3.40852,237.7,-4.2,23.7,14.9,14.535051932329132,20.319721001735324,4.8959383804003664e-05
8.699999999999989,84.8169,3.10474,237.6,-3.2,26.1,14.9,14.513516773105122,20.65808382351065,4.9996988154887845e-05
8.799999999999955,84.5034,2.91876,237.2,-3.2,25.2,14.9,14.50045960092126,21.003655907511437,5.1094502469872793e-05
8.899999999999977,84.2015,2.83782,237.8,-1.3,24.9,14.9,14.55473766845955,21.308675639830078,5.2229465441477885e-05
9.0,83.9255,2.83868,238.2,0.1,23.9,14.9,14.648221133814877,21.569187126530437,5.331801356156518e-05
9.099999999999966,83.6469,2.88797,237.6,-0.6,23.8,14.9,14.791425153737375,21.811545464822096,5.4473553446676704e-05
9.199999999999989,83.3851,2.97906,237.0,-2.0,23.8,14.9,14.96963317975953,22.021148830378678,5.561103234263953e-05
9.299999999999955,83.1523,3.14936,236.8,-2.7,23.7,14.9,15.17367085693334,22.188657263024595,5.667370923756465e-05
9.399999999999977,82.8983,3.35758,237.0,-2.7,24.5,14.9,15.43174900246121,22.357028544920436,5.788314909160874e-05
9.5,82.6364,3.55228,237.0,-3.0,24.4,14.9,15.746020318165806,22.511233139805967,5.919682561739137e-05
9.599999999999966,82.3842,3.81352,237.1,-3.4,23.4,14.9,16.084612979496857,22.645749614170583,6.0520152928233983e-05
9.699999999999989,82.1248,3.98899,237.0,-6.2,21.8,14.9,16.481710432287016,22.765518995042612,6.196415319426052e-05
9.799999999999955,81.8898,3.97177,237.2,-12.6,6.7,14.9,16.868087602939557,22.864592249080488,6.33321632896866e-05
9.899999999999977,81.66,3.74332,239.3,-14.4,-13.7,14.9,17.261954471680816,22.956456210819727,6.471934757001918e-05
10.0,81.4495,3.38834,239.9,-11.6,-23.6,14.9,17.60369666312753,23.049404725802912,6.599107742921717e-05
10.099999999999966,81.2373,2.96449,239.8,-9.3,-25.0,14.8,17.930568924956347,23.150875736047073,0.1000672738370092
10.199999999999989,81.0323,2.6572,240.0,-8.9,-25.9,14.8,18.192675017802447,23.27030173152184,0.10006845216156535
10.299999999999955,80.8176,2.58686,240.0,-8.3,-27.1,14.8,18.428856068946406,23.410507913958646,0.10006964607002189
10.399999999999977,80.6062,2.43161,239.9,-8.3,-28.0,14.8,18.616599526867738,23.565774263920897,0.10007076490422939
10.5,80.3937,2.24755,240.1,-8.8,-27.8,14.8,18.81673340617074,23.717787239080906,0.10007191623831169
10.599999999999966,80.1764,2.2315,240.3,-8.8,-28.0,14.8,18.92790085263097,23.90850447645486,0.1000729579362094
10.699999999999989,79.9452,2.32362,240.1,-8.0,-28.3,14.8,19.00149547369054,24.128158197014507,0.10007400448124493
10.799999999999955,79.7188,2.47004,240.0,-7.6,-28.5,14.8,19.033951522013542,24.358251717678773,0.10007497528274278
10.899999999999977,79.4734,2.64866,240.0,-7.6,-29.2,14.8,19.028545818202808,24.622810888572516,0.1000759736066339
11.0,79.2154,2.9243,240.0,-7.6,-29.5,14.8,19.002959524253942,24.90875355315602,0.10007700642996475
11.099999999999966,78.951,3.23053,239.8,-7.0,-29.6,14.8,18.919645765595448,25.223670956234905,0.10007799410110607
11.199999999999989,78.6942,3.54278,239.8,-7.0,-29.9,14.8,18.804928334910265,25.543056054079578,0.10007892400912333
11.299999999999955,78.4183,3.90773,240.0,-7.3,-30.1,14.8,18.64741958959461,25.900343445701125,0.10007989906491588
11.399999999999977,78.1244,4.18137,240.1,-9.2,-27.4,14.8,18.462636414171776,26.28862930092818,0.10008094616728513
11.5,77.839,4.16478,239.1,-12.1,-11.5,14.8,18.25589842448006,26.67799203079256,0.100081963315791
11.599999999999966,77.5757,3.91403,237.2,-11.9,9.8,14.9,18.06288893491888,27.03941157965763,8.293209690357628e-05
11.699999999999989,77.3146,3.48716,236.9,-9.4,21.5,14.9,17.88567634681467,27.39352211274767,8.393994419542139e-05
11.799999999999955,77.0735,3.00964,236.0,-9.1,24.7,14.9,17.75714689289173,27.706996315859584,8.493268679821142e-05
11.899999999999977,76.8242,2.53191,235.9,-8.2,26.1,14.9,17.66802519858532,28.01397136563819,8.602444590621872e-05
12.0,76.6083,2.14901,236.2,-6.9,27.1,14.9,17.611480209353154,28.271542919584135,8.700213425960612e-05
12.099999999999966,76.4068,1.98567,235.8,-7.0,26.4,14.9,17.583856716773088,28.501690093230323,8.794865374994743e-05
12.199999999999989,76.2528,1.77598,235.6,-7.3,26.4,14.9,17.55834246240091,28.679631083860563,8.867564267323047e-05
12.299999999999955,76.091,1.709,235.7,-7.1,26.5,14.9,17.63256978668845,28.82420595254913,8.953199666628109e-05
12.399999999999977,75.9432,1.78884,236.0,-6.2,25.4,14.9,17.744895807926287,28.937522678521027,9.03569635699597e-05
12.5,75.7921,1.8837,235.8,-7.3,23.2,14.9,17.901154602352605,29.03623742310078,9.124323848475058e-05
12.599999999999966,75.6594,1.94427,235.8,-11.0,14.1,14.9,18.07054057167324,29.109635639328673,9.205790994570862e-05
12.699999999999989,75.5438,1.77934,237.1,-14.3,-1.7,14.9,18.22210950471242,29.172128348281305,9.277581553845948e-05
12.799999999999955,75.4368,1.56905,239.2,-14.1,-15.4,14.9,18.376859813168263,29.22426534474571,9.34590860435236e-05
12.899999999999977,75.334,1.30666,240.0,-10.8,-24.7,14.8,18.50664986510316,29.28216020021425,0.10009410281785946
13.0,75.2279,1.20083,239.8,-8.2,-27.4,14.8,18.598118974383148,29.359537496883732,0.10009472491762139
13.099999999999966,75.1168,1.32794,239.9,-7.8,-27.3,14.8,18.68297392092407,29.44500996902459,0.10009536587872603
13.199999999999989,74.9879,1.515,240.0,-8.4,-27.3,14.8,18.71478541013387,29.571424272794474,0.10009604493418855
13.299999999999955,74.8438,1.68579,240.1,-8.9,-27.6,14.8,18.715701869780172,29.72703472931085,0.10009677072679679
13.399999999999977,74.7025,1.98941,240.1,-9.2,-28.3,14.8,18.679632047829692,29.894704033867093,0.10009744700128742
13.5,74.5545,2.1532,240.2,-9.5,-28.6,14.8,18.647870577377425,30.068024676603983,0.10009816765239954
13.599999999999966,74.4128,2.50812,240.3,-9.6,-28.6,14.8,18.53512073457498,30.268334536398022,0.10009878447079679
13.699999999999989,74.2625,2.84555,240.4,-9.4,-28.9,14.8,18.376528176547005,30.497542753377836,0.10009941441385628
13.799999999999955,74.1139,3.18936,240.4,-10.0,-28.8,14.8,18.19364316453756,30.73602231350831,0.10010003178943272
13.899999999999977,73.956,3.35514,240.1,-11.5,-21.6,14.8,17.97508377802993,31.00087237829744,0.10010069056712112
14.0,73.8067,3.2901,238.6,-12.0,-4.5,14.8,17.758327466649924,31.256932314712415,0.10010132982914399
14.099999999999966,73.6588,2.95597,237.2,-10.1,13.8,14.8,17.54615108540419,31.510892086427496,0.10010198802557113
14.199999999999989,73.5241,2.49459,237.0,-8.3,22.9,14.8,17.379216391474824,31.731546990720958,0.10010262227327882
14.299999999999955,73.3879,1.98662,236.0,-8.3,24.8,14.9,17.24655204738991,31.93962424330182,0.00010329804685049737
14.399999999999977,73.2538,1.52286,236.2,-6.8,26.1,14.9,17.16267173458796,32.12405684575498,0.00010399575200814581
14.5,73.1355,1.25899,236.3,-5.9,26.3,14.9,17.110079436600568,32.27739168968966,0.0001046275433917998
14.599999999999966,73.03,1.03621,236.0,-5.9,25.9,14.9,17.102237566924654,32.39675723144905,0.00010521166356536327
14.699999999999989,72.9261,1.04643,236.0,-5.8,25.6,14.8,17.139559115037493,32.49410480099027,0.10010580672362757
14.799999999999955,72.8215,1.19582,236.0,-6.1,25.8,14.8,17.169616606676538,32.595439383240965,0.10010640557946626
14.899999999999977,72.7263,1.46411,236.1,-6.5,25.1,14.8,17.281982940364692,32.64934060493455,0.10010698528298434
15.0,72.642,1.82472,236.1,-6.8,23.8,14.8,17.434005422466228,32.67370197036861,0.10010752329883932
15.099999999999966,72.5598,2.1711,236.2,-7.0,23.2,14.8,17.64054507058626,32.671784413661584,0.10010808467834131
15.199999999999989,72.4948,2.53471,236.3,-7.3,23.2,14.8,17.869935234440558,32.64148788034409,0.10010857023910269
15.299999999999955,72.4427,2.86394,236.4,-8.0,22.7,14.8,18.143700191165905,32.578581426489706,0.10010902499739593
15.399999999999977,72.3977,3.08107,236.9,-9.6,15.9,14.8,18.430982453932447,32.503173255042185,0.1001094675846641
15.5,72.3525,3.03944,238.3,-12.1,-1.5,14.8,18.74190991861407,32.41929563059326,0.10010995082807561
15.599999999999966,72.3487,2.68724,239.8,-11.6,-18.7,14.8,19.03032474955563,32.30141839961695,0.10011021080252114
15.699999999999989,72.3075,2.18089,239.9,-8.8,-26.4,14.8,19.285891296975286,32.23917643402265,0.10011066727798834
15.799999999999955,72.2591,1.71695,239.9,-7.3,-26.6,14.8,19.488004052008307,32.20777265131575,0.10011112492781926
15.899999999999977,72.1961,1.38973,240.3,-7.6,-26.3,14.8,19.66018110129555,32.20514497865462,0.10011164237111458
16.0,72.1257,1.07981,240.5,-8.6,-27.3,14.8,19.791462361268795,32.22759718003582,0.1001121637866138
16.099999999999966,72.0428,0.981117,240.6,-9.0,-27.7,14.8,19.951364664059177,32.2520730758955,0.10011278605858465
16.19999999999999,71.9591,0.909896,240.5,-9.2,-28.3,14.8,20.0068501330394,32.32001117800644,0.10011330498126547
16.299999999999955,71.867,1.04099,240.3,-9.5,-28.5,14.8,20.0145655578751,32.41636651737404,0.10011381764492278
16.399999999999977,71.7709,1.34222,240.2,-9.6,-28.4,14.8,19.988713080581146,32.53078333854611,0.10011431693436812
16.5,71.6606,1.66844,240.1,-9.6,-28.5,14.8,19.93975868526235,32.67008142012229,0.10011487543779474
16.599999999999966,71.5491,2.0617,240.2,-9.8,-28.8,14.8,19.84255168196417,32.83061037185788,0.1001153938456838
16.69999999999999,71.4249,2.46073,240.2,-9.8,-28.8,14.8,19.698028312594904,33.024879520430424,0.1001159467142756
16.799999999999955,71.2997,2.85528,240.3,-10.0,-28.9,14.8,19.525701689090422,33.23257452162821,0.10011649249479149
16.899999999999977,71.1402,3.09379,240.1,-12.2,-23.4,14.8,19.317391614557035,33.49362137565765,0.10011721991524958
17.0,71.0099,3.0295,238.4,-13.7,-3.5,14.8,19.104024732534818,33.72638862471805,0.10011779901623363
17.099999999999966,70.8805,2.6283,236.9,-11.5,16.2,14.8,18.894087752560722,33.95789578812635,0.10011839926831101
17.19999999999999,70.7747,2.14379,236.6,-9.9,23.9,14.8,18.733914546267517,34.14318397448881,0.10011891345605406
17.299999999999955,70.6629,1.59358,235.7,-9.8,24.5,14.8,18.620294918949384,34.315198984608834,0.10011950160548011
17.399999999999977,70.5824,1.1156,235.6,-8.6,25.4,14.8,18.532311288118116,34.44217883830462,0.10011992863791264
17.5,70.5068,0.844068,235.4,-8.3,26.1,14.8,18.46666385392899,34.55399926189813,0.10012034114939716
17.599999999999966,70.4448,0.564784,235.4,-8.4,26.6,14.8,18.443917553800553,34.63206804527158,0.10012069748621322
17.69999999999999,70.3901,0.670756,235.4,-8.5,26.4,14.8,18.4645462692846,34.6828193129889,0.1001210332282767
17.799999999999955,70.3355,0.955164,235.5,-8.8,25.7,14.8,18.451390352221217,34.748554398577625,0.10012135321018611
17.899999999999977,70.2952,1.28923,235.6,-9.0,24.6,14.8,18.567807622228855,34.74093230794496,0.10012165160284958
18.0,70.2668,1.70068,235.8,-9.2,23.9,14.8,18.71299322845478,34.70776835722803,0.10012189653327574
18.099999999999966,70.2472,2.07294,235.9,-9.2,23.8,14.8,18.90032868377828,34.64684012692903,0.10012211953104355
18.19999999999999,70.2567,2.46979,235.9,-9.5,24.1,14.8,19.103715488055986,34.54786075056704,0.1001221913864061
18.299999999999955,70.2542,2.87233,235.8,-10.0,24.4,14.8,19.368068991937008,34.43651694837672,0.10012239118468536
18.399999999999977,70.2619,3.24111,236.1,-10.4,23.1,14.8,19.649106724464996,34.30825343911703,0.10012256272027642
18.5,70.2794,3.40903,237.1,-11.0,13.1,14.8,19.964738136061335,34.156376370256226,0.1001227329474439
18.599999999999966,70.3098,3.27073,238.7,-11.1,-5.4,14.8,20.267441660764653,33.99776357551188,0.10012284450474951
18.69999999999999,70.3517,2.84363,239.7,-9.8,-22.0,14.8,20.564302478223468,33.830818901629335,0.1001229110972659
18.799999999999955,70.3772,2.32355,239.5,-7.1,-27.4,14.8,20.804507918998784,33.70611437525748,0.10012303259991384
18.899999999999977,70.3824,1.80547,239.6,-6.1,-26.6,14.8,21.009287542747494,33.61854845586218,0.1001232458392618
19.0,70.392,1.39727,240.0,-6.9,-26.5,14.9,21.208158341399155,33.52930295206724,0.00012343662774405573
19.099999999999966,70.378,1.13348,240.1,-7.5,-27.1,14.9,21.35225167620485,33.48760473622403,0.00012369937809530995
19.19999999999999,70.3509,0.719641,240.1,-7.6,-28.4,14.8,21.451990096224144,33.47776748881466,0.10012398513008591
19.299999999999955,70.3066,0.485214,240.1,-7.7,-28.7,14.8,21.513794878975517,33.5012203319358,0.10012431612073414
19.399999999999977,70.2552,0.611447,240.0,-7.8,-28.7,14.8,21.525838719752883,33.55178451888572,0.10012462242350217
19.5,70.1961,0.94469,239.8,-7.8,-28.8,14.8,21.486399444924146,33.63068193701157,0.10012490561469001
19.599999999999966,70.1249,1.38019,239.7,-7.7,-28.7,14.8,21.42053237196416,33.733078334556794,0.10012522177264849
19.69999999999999,70.0377,1.78169,239.7,-7.6,-29.0,14.8,21.323279054682313,33.865251294205066,0.10012559517493003
19.799999999999955,69.9466,2.22959,239.6,-7.1,-29.3,14.8,21.191934813178406,34.01550102547451,0.10012595434425187
19.899999999999977,69.8327,2.6722,239.2,-5.6,-29.6,14.8,21.0389363662465,34.19957486938353,0.10012642962158935
20.0,69.7107,3.02927,238.4,-3.7,-26.3,14.9,20.84121092148217,34.41108132566138,0.00012691419594190734
20.099999999999966,69.5591,3.16608,237.6,0.0,-11.7,14.9,20.621417752883143,34.66493039103001,0.0001275694087645718
20.19999999999999,69.3995,3.04566,237.9,3.4,7.5,14.9,20.42713936978199,34.918118777413056,0.0001283227007355947
20.299999999999955,69.1894,2.76441,238.2,3.1,18.6,14.9,20.248444533934563,35.22089763053371,0.00012941297417512487
20.399999999999977,69.0132,2.49239,238.4,3.2,22.6,14.9,20.123709070644978,35.46508945689389,0.0001303693224610214
20.5,68.8211,2.22208,239.3,4.8,25.2,14.9,20.03862698983705,35.71028159402873,0.00013146749278369896
20.599999999999966,68.6315,2.08549,239.6,5.3,26.6,14.9,19.996541422467807,35.934872915847606,0.0001325934794476069
20.69999999999999,68.4189,2.15025,239.8,5.5,26.4,14.9,19.939303144193072,36.19123781086337,0.00013386219157673906
20.799999999999955,68.2071,2.24876,239.8,6.0,25.6,14.9,19.98549925108573,36.40234577366999,0.00013520843761405388
20.899999999999977,67.9695,2.45436,239.3,5.8,24.2,14.9,20.090720312230538,36.61601953819151,0.000136761374339045
21.0,67.7296,2.69605,238.3,4.0,22.9,14.9,20.242255122024137,36.81221596533892,0.0001383705198865215
21.099999999999966,67.4671,2.89828,237.2,0.9,22.5,14.9,20.45366152003179,37.007369719813966,0.00014017612586947337
21.19999999999999,67.214,3.14357,237.0,-0.3,22.1,14.8,20.680327278334975,37.18603084109337,0.10014194865492776
21.299999999999955,66.9571,3.38715,237.4,-0.6,21.2,14.8,20.974695558471794,37.340395337734435,0.10014381611486911
21.399999999999977,66.709,3.57774,237.6,-2.0,14.4,14.8,21.288062603795428,37.47798901129889,0.10014566302718997
21.5,66.4426,3.62258,237.9,-3.7,1.2,14.8,21.636456873785388,37.621902125026494,0.10014768517590333
21.599999999999966,66.2068,3.52405,238.7,-4.5,-13.7,14.8,21.977820743050334,37.73668794170743,0.10014953517694991
21.69999999999999,65.9269,3.3487,239.1,-4.4,-24.3,14.8,22.29446468918853,37.91035850596909,0.10015166553622556
21.799999999999955,65.6461,3.23118,239.0,-3.6,-26.7,14.8,22.56780005567121,38.10320941812738,0.10015377932428926
21.899999999999977,65.3355,3.20371,239.0,-3.5,-26.7,14.8,22.82165419841865,38.33654002608171,0.10015608255366004
22.0,65.0356,3.22646,239.0,-4.0,-27.8,14.8,23.04002461308986,38.572902619341065,0.10015829474968818
22.099999999999966,64.7157,3.28122,239.1,-4.5,-28.4,14.8,23.247565083926737,38.83513922517826,0.10016064097201571
22.19999999999999,64.3983,3.3719,239.2,-4.7,-28.8,14.8,23.39859460880584,39.117285544121955,0.10016291702840974
22.299999999999955,64.0491,3.50148,239.1,-4.6,-29.2,14.8,23.50279041378969,39.4520964191575,0.10016536239689344
22.399999999999977,63.7053,3.7131,239.1,-4.5,-29.5,14.8,23.586152554375822,39.7893168215227,0.10016776325143972
22.5,63.3311,3.94665,239.2,-4.4,-29.6,14.8,23.609188243482976,40.18332578811985,0.10017031625031514
22.599999999999966,62.9668,4.15408,239.2,-5.4,-25.0,14.8,23.596386242414535,40.581371024162806,0.10017278693915266
22.69999999999999,62.5779,4.24671,238.8,-5.4,-13.2,14.8,23.56006054811111,41.01584076145578,0.10017542870519591
22.799999999999955,62.2094,4.25017,238.0,-3.1,-0.9,14.8,23.526257349557532,41.427968607646136,0.10017796422239833
22.899999999999977,61.8383,4.14028,238.0,-0.9,12.5,14.9,23.49946893900404,41.840528570837144,0.0001805553263647397
23.0,61.4495,4.02829,238.4,0.3,22.1,14.9,23.525657283666312,42.25093786582572,0.00018335493164478578
23.099999999999966,61.0185,3.96567,238.4,0.8,24.5,14.9,23.60314547862932,42.68611354528798,0.0001865367795019779
23.19999999999999,60.6225,3.92423,238.1,0.5,24.1,14.9,23.714358911040563,43.069243298415046,0.0001895240403495535
23.299999999999955,60.1791,3.94412,237.6,-0.8,23.8,14.9,23.843438674929757,43.49651831935266,0.00019290415036721242
23.399999999999977,59.7945,4.01311,237.3,-1.7,23.9,14.9,24.02393194632322,43.83844260934254,0.00019592238964527553
23.5,59.3858,4.08636,237.3,-2.0,23.3,14.9,24.25264182838593,44.18654878126169,0.00019919082211750094
23.599999999999966,59.0025,4.23036,237.2,-2.1,23.5,14.9,24.511191979149498,44.49490069521601,0.00020232314538581875
23.69999999999999,58.5965,4.38042,237.2,-2.0,23.1,14.9,24.776461908585567,44.82526603989389,0.0002056638815837175
23.799999999999955,58.2211,4.574,237.2,-2.0,22.0,14.9,25.119477935814203,45.09116376945994,0.00020888361881077344
23.899999999999977,57.8299,4.6966,237.2,-3.1,20.1,14.9,25.52377996944146,45.350447601057475,0.00021233025304923103
24.0,57.4658,4.70832,237.4,-7.5,6.7,14.9,25.92755454573296,45.58227278096982,0.00021561727928975927
24.099999999999966,57.0986,4.52034,238.9,-10.3,-14.1,14.9,26.37728744787176,45.80107675156793,0.00021903369064979472
24.19999999999999,56.7505,4.25906,239.8,-9.7,-25.0,14.9,26.739581020226016,46.03509770766429,0.00022223012217637006
24.299999999999955,56.3912,4.03773,239.8,-8.4,-25.5,14.8,27.07158452558896,46.2937395641939,0.1002255077920573
24.399999999999977,56.0406,3.90195,240.0,-8.4,-25.7,14.8,27.357185127733743,46.56130611604149,0.1002286754391637
24.5,55.6605,3.86543,240.2,-8.8,-26.8,14.8,27.627258889392827,46.86678249697891,0.10023207953097923
24.599999999999966,55.3097,3.82905,240.2,-9.0,-27.8,14.8,27.875776464673336,47.14946651754375,0.1002352460695839
24.69999999999999,54.9213,3.76545,240.1,-8.9,-28.1,14.8,28.06118212787758,47.49561762208951,0.10023862889463331
24.799999999999955,54.5422,3.80724,240.2,-8.9,-28.5,14.8,28.200786926461774,47.84882546241671,0.10024188416024771
24.899999999999977,54.1359,3.87187,240.4,-9.0,-28.6,14.8,28.306995908015345,48.243295854723506,0.10024532554741761
25.0,53.7346,3.97801,240.4,-9.0,-28.9,14.8,28.39003357023141,48.64093568468897,0.10024871276571723
25.099999999999966,53.3364,4.11769,240.4,-9.0,-29.0,14.8,28.395098157467615,49.0644192997231,0.10025197529497376
25.19999999999999,52.9609,4.21521,240.1,-10.1,-24.5,14.8,28.365519830579494,49.47705862107196,0.1002550268297675
25.299999999999955,52.5721,4.25072,239.1,-10.2,-11.3,14.8,28.31322251360823,49.91311292956178,0.10025818941734244
25.399999999999977,52.205,4.10573,237.7,-8.7,5.8,14.9,28.259402747181138,50.327368389605425,0.00026120098389981194
25.5,51.8233,3.89093,237.3,-6.5,18.9,14.9,28.219875798337277,50.75250182032986,0.00026439049288029537
25.599999999999966,51.4605,3.66565,237.4,-5.1,24.3,14.9,28.227055450666633,51.139751977482945,0.00026751264703861466
25.69999999999999,51.0809,3.48475,237.3,-4.6,25.1,14.9,28.288882376059167,51.52385159754776,0.0002708755093845383
25.799999999999955,50.7034,3.37195,236.7,-5.5,25.6,14.9,28.35628613170119,51.90372796432188,0.0002742539129396704
25.899999999999977,50.3558,3.30492,236.2,-6.3,25.5,14.9,28.491472794291596,52.2245093137992,0.00027747414746492893
26.0,50.0461,3.29187,236.0,-6.6,25.5,14.9,28.657412731534713,52.49240468034599,0.0002804168691845632
26.099999999999966,49.7424,3.33825,236.0,-6.2,25.4,14.9,28.871131340859392,52.73517042867247,0.0002833846611238755
26.19999999999999,49.4669,3.43321,236.3,-5.8,24.8,14.9,29.1119248738565,52.93741823702894,0.00028615710867363475
26.299999999999955,49.2471,3.60027,236.3,-5.8,24.4,14.9,29.373460729457832,53.07250285011129,0.00028848306121531664
26.399999999999977,48.9823,3.81047,236.5,-5.6,23.8,14.9,29.6917822728295,53.235057224557465,0.0002913152428813959
26.5,48.6964,3.99117,236.6,-5.8,23.5,14.9,30.07032507787541,53.399062282317274,0.0002944646690838937
26.599999999999966,48.4401,4.20559,236.7,-6.6,22.6,14.9,30.45945935998862,53.52958693608255,0.0002974113471658768
26.69999999999999,48.1676,4.21634,237.0,-9.6,14.6,14.9,30.89556049336517,53.6630095324133,0.00030063770978117077
26.799999999999955,47.9431,4.08089,238.6,-11.7,-5.3,14.9,31.298158488646415,53.76011866794286,0.00030342427418972306
26.899999999999977,47.7141,3.72892,239.9,-11.0,-22.0,14.9,31.69141170796919,53.867762989296146,0.0003062801736923859
27.0,47.4981,3.38176,239.9,-8.7,-25.9,14.9,32.024715369812775,53.98420539100343,0.00030893562690259557
27.099999999999966,47.2926,3.09101,240.2,-8.2,-25.5,14.9,32.33616242198045,54.09839882768623,0.00031147877272097446
27.19999999999999,47.0707,2.84225,240.4,-8.6,-26.5,14.9,32.593983859076694,54.2485777901376,0.0003140706115640768
27.299999999999955,46.8311,2.77126,240.3,-8.9,-27.1,14.9,32.829506733566504,54.42529523487566,0.0003167861067865374
27.399999999999977,46.595,2.65819,240.2,-9.3,-27.7,14.9,33.01440467053026,54.61490028177306,0.0003193638129239673
27.5,46.3625,2.52094,240.3,-9.9,-27.8,14.9,33.2237857464624,54.79345452753769,0.00032198709510211643
27.599999999999966,46.1123,2.55131,240.3,-9.9,-28.1,14.9,33.32839616142415,55.023383036157576,0.0003245110351937086
27.69999999999999,45.8398,2.66683,240.2,-9.5,-28.4,14.9,33.39284485890418,55.28919772699781,0.00032714501750064073
27.799999999999955,45.576,2.84384,240.0,-9.0,-28.4,14.9,33.40744730417905,55.56140098764048,0.0003295858718495026
27.899999999999977,45.2931,3.04198,239.7,-8.8,-27.3,14.9,33.375617688424796,55.868222748627616,0.00033209553586743823
28.0,44.9958,3.16071,239.0,-8.8,-16.7,14.9,33.31671885264073,56.19931866343063,0.0003346929443708291
28.099999999999966,44.693,3.13497,237.9,-7.2,0.5,14.9,33.268511412527225,56.53326692986995,0.0003373875949126415
28.19999999999999,44.4062,2.96995,237.6,-4.1,14.9,14.9,33.24324980011639,56.843357268289,0.0003400099723265271
28.299999999999955,44.1084,2.83261,237.9,-1.9,22.2,14.9,33.253239341747786,57.15384834029901,0.00034283417573632846
28.399999999999977,43.7898,2.7537,237.4,-1.8,23.5,14.9,33.297920952419105,57.475038559958364,0.000345951429842728
28.5,43.4883,2.76135,237.1,-1.8,24.0,15.0,33.393277039009035,57.76148514905421,-0.09965096324025247
28.599999999999966,43.2119,2.84331,237.0,-1.9,25.1,14.9,33.51879305519003,58.011723020697474,0.0003519665656064319
28.69999999999999,42.9334,2.92695,236.8,-2.4,24.3,14.9,33.6886107520999,58.24960115114193,0.0003550299666450485
28.799999999999955,42.6782,3.0792,236.6,-3.3,23.5,14.9,33.88082810996985,58.456095153117175,0.00035793980559262195
28.899999999999977,42.4201,3.26634,236.5,-3.9,22.8,14.9,34.11148950718519,58.65359260174809,0.00036098559975528133
29.0,42.1838,3.49858,236.5,-4.2,22.0,14.9,34.37736861680671,58.817892069413986,0.000363928712705075
29.099999999999966,41.9448,3.73941,236.8,-4.1,21.6,14.9,34.708953239325794,58.965893921019045,0.00036709612937535496
29.19999999999999,41.7493,3.97403,237.0,-4.1,22.0,14.9,35.059131862587705,59.06474051377265,0.00036993262843587615
29.299999999999955,41.5358,4.14686,237.2,-5.3,20.8,14.9,35.46777634429749,59.16789015848529,0.0003731568174245581
29.399999999999977,41.3444,4.17254,237.8,-9.2,6.7,14.9,35.867069391307226,59.25394075742001,0.00037619580605507963
29.5,41.1501,3.94806,239.5,-11.3,-14.9,14.9,36.270243144245214,59.34531808296589,0.00037933296502856706
29.599999999999966,40.9573,3.6182,240.0,-9.4,-25.4,14.9,36.62973484503028,59.44990375227818,0.0003823692515609878
29.69999999999999,40.7456,3.23986,239.9,-7.6,-25.7,14.9,36.99016000465211,59.57644558238938,0.00038563531588664546
29.799999999999955,40.532,3.00832,240.1,-7.6,-26.1,14.9,37.278802966028586,59.724986032608584,0.000388710457979613
29.899999999999977,40.2999,2.91713,240.1,-7.8,-27.4,14.9,37.54164234572983,59.900378088110514,0.0003919005569592571
30.0,40.0666,2.80155,239.9,-7.4,-29.1,14.9,37.75126270307976,60.09070448065994,0.00039493111462007846
30.099999999999966,39.8256,2.69231,240.0,-7.8,-28.4,14.9,37.981476959701936,60.28487593427026,0.0003981341770646907
30.19999999999999,39.5725,2.69118,239.8,-8.0,-28.1,14.9,38.111133450458176,60.51522032705262,0.000401089201734095
30.299999999999955,39.2945,2.83296,239.6,-7.4,-28.7,14.9,38.204608592565556,60.779495826950026,0.00040416119973585296
30.399999999999977,39.012,3.0174,239.5,-7.0,-29.0,14.9,38.25138860276908,61.059114218276804,0.00040711099994084066
30.5,38.6841,3.25566,239.5,-6.9,-29.2,14.9,38.25284340847999,61.39586477555703,0.00041034988780808135
30.599999999999966,38.3617,3.53567,239.7,-7.0,-29.4,14.9,38.22529215693998,61.73383742999745,0.0004134418659980099
30.69999999999999,38.0049,3.79518,239.7,-7.0,-29.6,14.9,38.16299500874469,62.115684488246245,0.00041677181648225314
30.799999999999955,37.6568,4.12206,239.9,-7.0,-29.6,14.9,38.067850114835515,62.49712318306504,0.000419922462565836
30.899999999999977,37.2685,4.48843,239.8,-6.5,-29.6,14.9,37.93101434418067,62.93146318340453,0.0004233711418279995
31.0,36.8904,4.682,239.5,-7.6,-22.9,14.9,37.77201133651845,63.362359078396295,0.0004266857718100425
31.099999999999966,36.4826,4.59533,238.4,-9.4,-3.1,14.9,37.59625639684062,63.83050424020979,0.0004303070806273013
31.19999999999999,36.1132,4.26252,237.2,-8.1,16.7,14.9,37.44986123574121,64.25306437739854,0.0004336813053420485
31.299999999999955,35.7504,3.88741,237.2,-6.4,25.1,15.0,37.3356699626907,64.6615809964475,-0.0995628655864138
31.399999999999977,35.39,3.52408,236.6,-6.0,26.0,15.0,37.25161179220272,65.06042043195652,-0.09955930764834164
31.5,35.0497,3.23238,236.6,-5.0,26.4,15.0,37.22326041747593,65.42316735711489,-0.0995557673949925
31.599999999999966,34.7393,3.01075,236.7,-4.7,27.5,15.0,37.23477308659383,65.74355575858776,-0.09955240778619867
31.69999999999999,34.4278,2.9309,236.3,-5.1,26.7,15.0,37.28821385999038,66.05298870447689,-0.0995489015005262
31.799999999999955,34.1188,2.86373,236.0,-5.7,26.0,15.0,37.32965867680816,66.36333815424888,-0.09954544003108978
31.899999999999977,33.8403,2.83196,235.7,-6.3,25.5,14.9,37.47140691804675,66.61258468727554,0.00045799098132803806
32.0,33.5885,2.905,235.8,-6.3,25.2,14.9,37.64775359409684,66.8239967370668,0.00046124206438236115
32.099999999999966,33.3372,3.00568,236.0,-5.9,24.3,14.9,37.87627543873738,67.02046293969568,0.00046466026556757356
32.19999999999999,33.1236,3.15681,236.3,-5.8,23.0,14.9,38.10559959930311,67.17851726687086,0.00046769203845542506
32.299999999999955,32.9203,3.23059,237.0,-7.3,11.2,14.9,38.39832981651759,67.30970442870068,0.0004708353909634866
32.39999999999998,32.7247,3.15071,238.3,-9.6,-8.3,14.9,38.684529626686086,67.43649084776266,0.0004739097914558954
32.5,32.5052,2.93534,239.5,-8.7,-21.9,14.9,38.97028967342656,67.59014016856844,0.000477280422433779
32.599999999999966,32.3222,2.7723,239.4,-6.5,-26.3,14.9,39.21991998857733,67.71673970661105,0.0004801587031515453
32.69999999999999,32.0877,2.69386,239.3,-5.6,-26.5,14.9,39.42126554850615,67.90950978094904,0.0004834516356773122
32.799999999999955,31.8532,2.72259,239.4,-5.7,-27.5,14.9,39.575197206407054,68.11422241813358,0.0004865887390401724
32.89999999999998,31.5956,2.79166,239.3,-5.6,-27.9,14.9,39.698049734165274,68.35027914596074,0.0004898788742053739
33.0,31.3287,2.9235,239.3,-5.8,-28.6,14.9,39.790626347250424,68.6032136924726,0.000493169535232596
33.099999999999966,31.045,3.01145,239.4,-5.7,-28.8,14.9,39.91654418143385,68.8656349838617,0.0004967857712543378
33.19999999999999,30.7398,3.23,239.3,-5.3,-29.1,14.9,39.94704774288792,69.17247333272783,0.0005002946832881605
33.299999999999955,30.4021,3.486,239.3,-5.0,-29.4,14.9,39.93439249816919,69.52298760131397,0.0005040214449145708
33.39999999999998,30.0659,3.80131,239.3,-5.0,-29.8,14.8,39.887620435386246,69.88041243755447,0.10050763029592602
33.5,29.6936,4.14869,239.4,-5.2,-29.9,14.9,39.80969981262675,70.28342834757507,0.0005115651287432854
33.599999999999966,29.3191,4.4918,239.5,-5.2,-29.6,14.9,39.69764869375943,70.69833793980087,0.0005154445235540095
33.69999999999999,28.9046,4.74396,239.4,-5.5,-27.4,14.9,39.549383158877845,71.16577843636901,0.0005197140010331225
33.799999999999955,28.5129,4.80453,239.2,-8.8,-14.1,14.9,39.38938446934509,71.61528752265858,0.0005237462505860435
33.89999999999998,28.0998,4.55559,237.7,-10.0,7.2,14.9,39.2182316115002,72.09290633980476,0.0005280640604325981
34.0,27.7347,4.20073,237.5,-7.2,21.7,14.9,39.090297413852504,72.5109720524552,0.0005320094280527599
34.099999999999966,27.3653,3.80717,237.4,-5.4,26.1,14.9,38.99901505390122,72.92449925993073,0.0005361585290479809
34.19999999999999,27.024,3.47041,236.9,-4.7,26.5,14.9,38.95122093783539,73.29667979634014,0.0005401270243865497
34.299999999999955,26.6461,3.36779,237.4,-3.0,26.9,14.9,38.92380566985612,73.70174481837472,0.0005446224172338532
34.39999999999998,26.3231,3.20702,237.4,-2.4,27.0,14.9,38.95480873176175,74.03131833281711,0.0005486253201461011
34.5,25.9978,3.15297,236.6,-3.6,26.4,14.9,39.02939054648482,74.34954875643126,0.0005527814457941815
34.599999999999966,25.6989,3.11137,236.0,-4.7,25.9,14.9,39.147995890075066,74.625947549029,0.0005567350607833532
34.69999999999999,25.3969,3.11501,236.1,-5.0,25.5,14.9,39.322979249749764,74.88779564050786,0.0005608824879885788
34.799999999999955,25.127,3.19485,236.2,-5.0,24.9,14.9,39.48360997549182,75.12084877644796,0.000564616645462479
34.89999999999998,24.8555,3.29965,236.4,-4.8,23.7,14.9,39.74382469724621,75.32544976554814,0.000568648332642141
35.0,24.6106,3.50201,236.6,-4.7,23.4,14.9,40.02638771995125,75.49737786137425,0.0005724535994140467
35.099999999999966,24.368,3.72354,236.8,-5.0,23.8,14.9,40.35956625725056,75.6547400198049,0.0005764228225402235
35.19999999999999,24.1722,3.84332,236.8,-7.6,19.0,14.9,40.70230958238886,75.76438273169774,0.0005799099258538831
35.299999999999955,23.9613,3.83954,237.4,-11.0,6.0,14.9,41.088723552866725,75.8825345544432,0.0005838005949740932
35.39999999999998,23.7709,3.68646,239.0,-11.6,-8.5,14.9,41.44953598731281,75.99078719137009,0.0005874306227724446
35.5,23.5716,3.39226,239.8,-9.0,-21.7,14.8,41.80160444987818,76.11479177509027,0.1005912148415824
35.599999999999966,23.3844,3.13068,239.5,-6.0,-26.9,14.8,42.10472016963462,76.24097635214206,0.10059472344529397
35.69999999999999,23.1854,3.01697,239.3,-4.6,-26.6,14.8,42.388841558343685,76.38629729575213,0.10059834864345163
35.799999999999955,22.9692,2.9451,239.3,-4.7,-27.4,14.8,42.61723015083338,76.56245468532417,0.1006019862047971
35.89999999999998,22.709,2.93284,239.4,-5.3,-28.0,14.8,42.81078989637386,76.79136633394009,0.10060603667130508
36.0,22.4627,2.94356,239.5,-5.9,-28.5,14.8,43.00126748073397,77.00773816620688,0.10060992773970057
36.099999999999966,22.1694,2.97443,239.3,-6.1,-28.6,14.8,43.116962395281504,77.28585704935124,0.10061407440185377
36.19999999999999,21.8774,3.12571,239.3,-6.0,-28.6,14.8,43.178154954859004,77.57210586552667,0.1006179605099895
36.299999999999955,21.5573,3.36253,239.2,-5.5,-29.0,14.8,43.18579026887826,77.89630299685169,0.10062196060884432
36.39999999999998,21.2219,3.64053,239.1,-5.2,-29.3,14.8,43.16709466838088,78.24092340515193,0.1006260471973377
36.5,20.8149,3.93493,239.0,-4.4,-28.8,14.8,43.120279631328,78.66396956494859,0.10063092647756022
36.599999999999966,20.4249,4.26664,238.9,-3.4,-27.8,14.8,43.04757229716751,79.07537152833177,0.10063551604495657
36.69999999999999,19.9981,4.58819,238.6,-2.2,-25.7,14.8,42.938115260838266,79.53289130742354,0.10064045908607255
36.799999999999955,19.5737,4.84207,238.2,-0.9,-20.0,14.8,42.81204549286923,79.99353664419283,0.10064536326609996
36.89999999999998,19.0711,4.97211,237.8,0.4,-10.0,14.8,42.66098793663336,80.54264265921248,0.10065125045583301
37.0,18.6313,4.94624,237.8,1.5,3.5,14.9,42.540925000739016,81.0235328295158,0.0006565304120655924
37.099999999999966,18.1736,4.78296,238.3,2.3,17.8,14.9,42.44954505228987,81.51850782632377,0.0006622203276975824
37.19999999999999,17.7419,4.55077,238.8,2.5,25.2,14.9,42.403778636261144,81.97701612347615,0.000667785234707452
37.299999999999955,17.2966,4.3968,238.5,2.0,26.1,14.9,42.39241498129245,82.44171576938328,0.0006736925022536866
37.39999999999998,16.872,4.29982,238.4,1.8,25.4,14.9,42.43303417342674,82.8715438125162,0.000679528387085071
37.5,16.4277,4.26843,238.2,1.2,24.5,14.9,42.51850838505103,83.30964322243692,0.0006858022166049693
37.599999999999966,16.0125,4.24559,237.5,-0.6,25.2,14.9,42.64472968481563,83.70625369567189,0.0006918360031953341
37.69999999999999,15.5712,4.25862,237.0,-1.7,24.9,14.9,42.77693189188656,84.12834186954717,0.0006982717658097215
37.799999999999955,15.1735,4.30703,237.0,-1.6,24.3,14.9,42.9917773540117,84.48272030953373,0.0007044012230998931
37.89999999999998,14.7659,4.37334,237.2,-1.1,23.6,14.9,43.265442594206625,84.83325971515998,0.0007109073668090105
38.0,14.3896,4.51815,237.3,-0.8,22.9,14.9,43.56285029783246,85.14804469826882,0.0007171296794972193
38.099999999999966,14.0072,4.68342,237.5,-0.8,22.7,14.9,43.9129226702293,85.46087511765478,0.0007237181104464696
38.19999999999999,13.6634,4.81871,237.5,-1.5,22.5,14.9,44.28014135338815,85.73639323971446,0.0007299623793635135
38.299999999999955,13.3168,4.8569,237.2,-5.6,14.4,14.9,44.69649136212899,86.0135948522407,0.0007366049100099303
38.39999999999998,13.0068,4.77027,238.1,-9.4,-5.4,14.9,45.095937626021446,86.26637751201474,0.0007428376171212392
38.5,12.6924,4.5371,239.3,-8.8,-21.7,14.9,45.494475616756546,86.5337753371011,0.0007492965645106153
38.599999999999966,12.4238,4.32393,239.3,-6.7,-26.0,14.9,45.84835272704502,86.76955092151022,0.0007550406028968837
38.69999999999999,12.0971,4.21645,239.4,-6.0,-25.6,14.8,46.15891113469929,87.07513943095026,0.10076145122915037
38.799999999999955,11.7646,4.1621,239.6,-6.1,-26.5,14.8,46.422813927028315,87.39546322526475,0.10076775010354666
38.89999999999998,11.3915,4.16904,239.7,-6.6,-27.2,14.8,46.66556034593185,87.76225598556054,0.10077455954250425
39.0,11.0343,4.17626,239.8,-7.2,-28.1,14.8,46.86858379099372,88.11802995652884,0.10078095317422253
39.099999999999966,10.6562,4.1385,240.0,-7.8,-28.4,14.8,47.053372098007216,88.49815154406977,0.10078757757388246
39.19999999999999,10.2776,4.17772,240.0,-8.3,-28.3,14.8,47.168446431936175,88.88008274256802,0.1007937358739035
39.299999999999955,9.86035,4.22588,240.1,-10.5,-24.0,14.8,47.22204641590645,89.30007215794623,0.10079999533414252
39.39999999999998,9.48735,4.08908,239.3,-13.5,-11.9,14.8,47.19930699851114,89.67326508279851,0.10080505788354799
39.5,9.08818,3.80244,237.6,-24.2,2.9,14.9,47.206402167641315,90.07372011096521,0.0008107461907904678
39.599999999999966,8.72072,3.38292,236.0,-27.3,9.5,14.9,47.22002369819821,90.4426751736099,0.0008160631253879558
39.69999999999999,8.35976,2.93443,235.9,-26.3,9.3,14.9,47.24604616130996,90.80571865449905,0.0008214103000305784
39.799999999999955,8.06626,2.48954,235.5,-27.4,9.3,14.9,47.26674757238023,91.10105034065917,0.0008257712905574977
39.89999999999998,7.71809,2.17328,235.5,-28.1,8.8,14.9,47.29051808482242,91.4515454267329,0.0008309594774047468
40.0,7.51232,1.74044,235.5,-28.7,8.4,14.9,47.29407080405056,91.65821350395902,0.0008339492534368276
40.099999999999966,7.33871,1.4726,235.5,-29.1,7.4,14.9,47.28675586279538,91.83203526052097,0.000836393452889439
40.19999999999999,7.21536,1.0891,236.0,-27.4,5.8,14.9,47.27917212998424,91.95539364798039,0.0008381110479440679
40.299999999999955,7.11779,0.873158,236.5,-24.0,3.9,14.9,47.251776331491754,92.0518358696269,0.000839297853726606
40.39999999999998,7.05144,0.659497,236.8,-21.1,2.7,14.9,47.239551006853944,92.11778609443618,0.0008401588399955529
40.5,6.99656,0.514662,237.0,-18.8,2.1,14.9,47.22380461034257,92.1720633042276,0.0008408240744905982
40.599999999999966,6.96296,0.407762,237.2,-16.8,1.5,14.9,47.20690051152021,92.20496000753595,0.00084117296499997
40.69999999999999,6.94543,0.31618,237.4,-14.7,1.0,14.9,47.18685270874266,92.22164878210319,0.0008412657803056334
40.799999999999955,6.93871,0.270015,237.6,-13.3,0.6,14.9,47.16736194186261,92.22756233040508,0.0008412056957318725
40.89999999999998,6.94055,0.242384,237.7,-12.5,0.2,14.9,47.14550630403173,92.22485954565832,0.0008410064397708084
41.0,6.94721,0.230646,237.9,-11.9,-0.2,14.9,47.125435886235174,92.2174571636706,0.0008407488898072302
