time,distance(meters),speed(m/s), compass_heading(degrees), pitch(degrees), roll(degrees),height_above_takeoff(meters),North,East,Down
0.0,147.094,2.32656,252.2,3.1,21.4,17.2,0.0,0.0,0.0
0.09999999999999432,146.996,2.7255,251.5,0.6,21.4,17.2,0.2368973984277183,0.008247928580630753,5.255178722740617e-09
0.20000000000001705,146.922,2.78233,251.1,-2.7,13.6,17.2,0.4823998967989839,-0.013975661598143715,1.842839861265766e-08
0.30000000000001137,146.821,2.77563,251.4,-6.1,-0.9,17.2,0.753058880885304,-0.01646531137239146,4.480967380482426e-08
0.4000000000000057,146.71,2.59079,252.4,-6.5,-11.0,17.2,1.0340509139893346,-0.01235662422576822,8.513198990200976e-08
0.5,146.606,2.27395,252.7,-3.7,-20.8,17.2,1.2763691350402957,0.0018175950704217292,1.2887226619184844e-07
0.5999999999999943,146.5,1.91003,252.3,-0.9,-26.8,17.2,1.5169362722312856,0.01754976200013969,1.813346782730818e-07
0.700000000000017,146.381,1.63913,252.1,0.4,-27.4,17.2,1.6936037540257702,0.07444519423079748,2.2557163548153625e-07
0.8000000000000114,146.237,1.56545,252.2,0.8,-27.5,17.2,1.8508476489314825,0.16608884672704266,2.7191516582814046e-07
0.9000000000000057,146.093,1.5141,252.1,1.2,-28.6,17.2,1.9647770828343143,0.2760154130949051,3.104135249953899e-07
1.0,145.917,1.55803,252.3,1.0,-29.3,17.2,2.106758339186658,0.40844048157356005,3.6274278880643607e-07
1.0999999999999943,145.764,1.71473,252.4,0.8,-29.8,17.2,2.141993606089244,0.5591331932589562,3.859956713148094e-07
1.200000000000017,145.605,1.9375,252.5,0.5,-29.9,17.2,2.127678753471176,0.7375022889514385,3.991395425284594e-07
1.3000000000000114,145.449,2.14596,252.9,-1.4,-28.2,17.2,2.0812320309071826,0.9249441107277614,4.0828090774880366e-07
1.4000000000000057,145.279,2.24889,253.2,-4.1,-17.0,17.2,2.016962538389657,1.1339527506323268,4.216324818173689e-07
1.5,145.112,2.19225,252.4,-4.0,1.5,17.3,1.9688283622534568,1.3348967611899292,-0.09999955573417407
1.5999999999999943,144.902,2.14237,252.5,-1.0,16.2,17.3,1.9646558731536725,1.563669872584597,-0.09999950408901193
1.700000000000017,144.69,2.12131,253.0,0.6,21.5,17.3,1.9983539162070976,1.7784062190358003,-0.0999994378104061
1.8000000000000114,144.455,2.20438,252.3,0.0,22.1,17.3,2.07256933114866,2.0023680289440837,-0.09999934729376392
1.9000000000000057,144.148,2.38244,252.1,-0.6,22.6,17.3,2.2231962005122847,2.2729611586968623,-0.09999920583975397
2.0,143.905,2.50745,252.1,-1.3,22.7,17.3,2.3750135564774846,2.4739662012193513,-0.09999907566989519
2.0999999999999943,143.671,2.73774,251.5,-3.3,22.9,17.3,2.5610605906763544,2.651647918196538,-0.09999893225302858
2.200000000000017,143.425,2.92036,250.8,-5.7,21.8,17.3,2.7964554773884234,2.821158058441503,-0.09999876094431026
2.3000000000000114,143.197,2.94581,251.1,-7.1,12.1,17.3,3.001209498537751,2.984558614610632,-0.099998593068094
2.4000000000000057,142.978,2.87575,252.0,-8.0,-3.7,17.3,3.2526240818729315,3.120206408084961,-0.09999840414761141
2.5,142.761,2.69803,252.8,-6.2,-17.3,17.3,3.4821647300914735,3.261444456291833,-0.09999821251927021
2.5999999999999943,142.509,2.50863,252.6,-3.0,-25.4,17.3,3.710243265011703,3.441554684235876,-0.09999798744089228
2.700000000000017,142.276,2.40765,252.4,-1.1,-26.8,17.3,3.9062997410671056,3.6148680134677615,-0.09999777570197055
2.8000000000000114,142.034,2.43115,252.5,-0.4,-27.3,17.2,4.05586898390011,3.816224232153105,2.435670015232816e-06
2.9000000000000057,141.802,2.47292,252.6,-0.4,-28.8,17.2,4.158136259032556,4.024988396750929,2.63030832381439e-06
3.0,141.57,2.53652,252.7,-0.7,-29.3,17.2,4.211910992288443,4.253685061109583,2.813552981040246e-06
3.0999999999999943,141.339,2.6872,252.7,-0.9,-29.7,17.2,4.234299390048053,4.494463425997221,2.992833259218841e-06
3.200000000000017,141.08,2.87776,252.9,-1.2,-30.2,17.2,4.273117817841916,4.75767919546238,3.210460882474564e-06
3.3000000000000114,140.821,3.06043,253.2,-2.7,-29.3,17.2,4.244291736576669,5.048663016289748,3.414146853231159e-06
3.4000000000000057,140.55,3.14151,253.7,-5.4,-20.5,17.2,4.1821028732429175,5.36620823484489,3.6315169096301503e-06
3.5,140.297,3.07367,253.0,-6.0,-5.0,17.2,4.118307408769919,5.665363642731339,3.848394254157839e-06
3.5999999999999943,140.009,2.92583,252.4,-4.1,11.4,17.2,4.0876031746429975,5.989033698059268,4.123833156732815e-06
3.700000000000017,139.752,2.80943,252.8,-1.3,21.0,17.2,4.077576589971704,6.270639323099958,4.389007502325626e-06
3.8000000000000114,139.471,2.78539,252.8,-0.3,23.0,17.2,4.108633725897818,6.561546751573115,4.699896625215416e-06
3.9000000000000057,139.203,2.8289,252.0,-1.2,22.6,17.2,4.181312031351385,6.821707705774193,5.020170887215514e-06
4.0,138.962,2.88974,252.0,-1.7,22.7,17.2,4.273558386428874,7.045455571857973,5.3256310872384915e-06
4.099999999999994,138.696,3.01486,251.9,-2.5,23.1,17.2,4.428854875277995,7.269524133480655,5.68363854913656e-06
4.200000000000017,138.393,3.11999,251.1,-4.7,22.1,17.2,4.624252661373718,7.517801855895981,6.109081890137702e-06
4.300000000000011,138.102,3.22344,250.3,-8.0,19.2,17.2,4.842726427905795,7.743917069376326,6.541805539939105e-06
4.400000000000006,137.751,3.14745,251.2,-10.7,7.9,17.2,5.043683757624542,8.040712428076617,7.065626441704609e-06
4.5,137.481,2.97858,252.4,-13.8,-7.7,17.2,5.279465958771022,8.236997610717232,7.5069209377609525e-06
4.599999999999994,137.221,2.66768,253.9,-12.3,-18.4,17.2,5.510191424221065,8.425554168307038,7.950217455032771e-06
4.700000000000017,136.986,2.42375,253.8,-8.5,-25.3,17.2,5.697059203979151,8.603541186546952,8.351656747063174e-06
4.800000000000011,136.751,2.29532,253.4,-5.7,-27.5,17.2,5.8560081023880715,8.793609913399312,8.755040607599796e-06
4.900000000000006,136.539,2.25748,253.2,-4.2,-28.2,17.2,5.991730728523715,8.968313073780074,9.123351079054487e-06
5.0,136.308,2.27453,253.3,-3.9,-28.7,17.1,6.074984738899079,9.184049564501501,0.1000095098558198
5.099999999999994,136.09,2.36203,253.3,-3.6,-29.6,17.1,6.117721486073825,9.401748933286461,0.10000986784462018
5.200000000000017,135.863,2.49883,253.4,-3.6,-29.8,17.1,6.12380134179175,9.643649881746049,0.10001023486119465
5.300000000000011,135.671,2.64355,253.8,-4.8,-29.9,17.1,6.146160924663603,9.842134651851605,0.10001056009230869
5.400000000000006,135.456,2.79806,254.1,-6.6,-27.8,17.1,6.070986485444156,10.104464577250056,0.10001089655761186
5.5,135.257,2.85404,253.9,-8.0,-18.6,17.1,5.974406211542194,10.358813894314833,0.10001121340483499
5.599999999999994,135.051,2.77677,253.1,-7.9,-6.5,17.1,5.864586006134459,10.626138443512243,0.10001155059274414
5.700000000000017,134.851,2.56151,252.3,-6.5,8.0,17.1,5.778737559944297,10.877310774006379,0.1000118947780293
5.800000000000011,134.63,2.3402,252.2,-4.2,19.1,17.1,5.726321292818641,11.137357232700236,0.1000122950506066
5.900000000000006,134.419,2.21574,252.5,-2.2,23.0,17.2,5.715144848528267,11.370559889566447,1.2696056570060676e-05
6.0,134.197,2.20306,251.9,-2.2,22.7,17.2,5.7432316026298045,11.599157223915967,1.3132838235563327e-05
6.099999999999994,133.991,2.21985,251.6,-2.9,22.7,17.2,5.761199114855899,11.8148710054217,1.354410496468006e-05
6.200000000000017,133.767,2.28128,251.3,-4.3,23.6,17.2,5.873319920032413,12.011263149295708,1.4013135182455727e-05
6.300000000000011,133.555,2.43101,250.8,-6.4,23.5,17.2,6.023241889280847,12.17962756312788,1.4473569089901162e-05
6.400000000000006,133.337,2.4655,250.8,-8.8,16.8,17.2,6.216998404323984,12.33598660810209,1.4960346811143665e-05
6.5,133.139,2.36458,251.7,-12.4,-1.3,17.2,6.406854004057541,12.472038953622143,1.5412627790034605e-05
6.599999999999994,132.95,2.08775,253.6,-13.6,-16.0,17.2,6.5827877060148925,12.604326283121642,1.5852214694245248e-05
6.700000000000017,132.777,1.8473,253.9,-9.5,-24.2,17.2,6.723711545259524,12.73495643429945,1.6258634619070733e-05
6.800000000000011,132.603,1.71558,253.3,-5.6,-26.9,17.2,6.831532650643155,12.87895895194983,1.666306536796114e-05
6.900000000000006,132.435,1.74055,253.2,-4.1,-27.9,17.2,6.9020091364457885,13.031637109466825,1.7047963281058287e-05
7.0,132.242,1.87982,253.4,-3.5,-28.4,17.2,6.985627355968697,13.205966051033055,1.749766963188293e-05
7.099999999999994,132.066,2.04569,253.4,-3.5,-29.2,17.2,6.994689255741546,13.39286553927964,1.7897336672678676e-05
7.200000000000017,131.882,2.19549,253.4,-3.8,-29.8,17.2,6.963077789579891,13.605012899953412,1.83118412202532e-05
7.300000000000011,131.71,2.49265,253.4,-3.6,-30.1,17.2,6.894104374273909,13.818817536056509,1.8694974911248607e-05
7.400000000000006,131.555,2.7419,253.5,-4.0,-30.1,17.2,6.8034245948176375,14.023602945192975,1.9043983035427203e-05
7.5,131.396,2.90285,253.9,-6.7,-26.0,17.2,6.662535930568685,14.253979908311535,1.9405101795655355e-05
7.599999999999994,131.232,2.84693,253.5,-9.5,-10.3,17.2,6.501189224678126,14.498065262131664,1.9787110512758943e-05
7.700000000000017,131.077,2.55513,252.0,-9.4,9.5,17.2,6.365756042480193,14.722118817212234,2.0161892463566033e-05
7.800000000000011,130.886,2.15914,252.0,-6.4,20.9,17.2,6.27081136369507,14.968716649086634,2.064183153471788e-05
7.900000000000006,130.723,1.88136,251.8,-5.2,23.3,17.2,6.21748201162809,15.168324160954281,2.105995642853742e-05
8.0,130.548,1.72529,251.1,-5.7,23.2,17.2,6.206455761524566,15.363257784617536,2.1516156828216282e-05
8.099999999999994,130.381,1.67326,251.0,-5.3,23.5,17.2,6.23491816097876,15.532523498528288,2.1954112682465166e-05
8.200000000000017,130.208,1.68789,250.8,-5.7,23.3,17.2,6.304215744466601,15.690761364289814,2.2408626455749925e-05
8.300000000000011,130.039,1.80308,250.6,-6.5,23.3,17.2,6.37493500730671,15.845333483192178,2.2860829476112343e-05
8.400000000000006,129.869,2.04034,250.5,-7.2,23.3,17.2,6.524689359945633,15.967104687822635,2.3316547861362835e-05
8.5,129.708,2.21448,251.0,-7.5,18.0,17.2,6.702010049409534,16.066973030877453,2.3750726456661653e-05
8.599999999999994,129.543,2.20173,251.5,-7.8,3.6,17.2,6.907567478712413,16.16067064314122,2.4207607847603896e-05
8.700000000000017,129.393,2.03237,252.5,-7.7,-11.3,17.2,7.084836138704602,16.249717396921298,2.4628955642036487e-05
8.800000000000011,129.235,1.77272,252.9,-5.6,-23.2,17.2,7.262035466717245,16.34769175528584,2.5080461478754756e-05
8.900000000000006,129.086,1.58867,252.8,-3.3,-26.7,17.2,7.397185979226071,16.453104588768877,2.550690969105318e-05
9.0,128.93,1.55566,252.8,-2.3,-26.9,17.2,7.502961290934074,16.577861901433884,2.5952882571900204e-05
9.099999999999994,128.791,1.5882,252.9,-2.2,-28.2,17.2,7.599877205804772,16.68869704208516,2.6357449413705325e-05
9.200000000000017,128.632,1.70116,253.1,-2.2,-29.0,17.2,7.63302069386952,16.846934939140734,2.68118770079262e-05
9.300000000000011,128.473,1.91125,253.2,-2.2,-29.6,17.2,7.636014568548303,17.017888433521623,2.7269268119134438e-05
9.400000000000006,128.296,2.1485,253.2,-2.4,-30.0,17.2,7.610026249547153,17.221291451876155,2.778334920572334e-05
9.5,128.133,2.32744,253.6,-4.3,-26.8,17.2,7.592527405834112,17.404868886003698,2.8260457982209886e-05
9.599999999999994,127.966,2.35346,253.4,-5.8,-15.5,17.2,7.498004628194246,17.624813708721447,2.8751711921071177e-05
9.700000000000017,127.81,2.2147,252.5,-5.9,1.0,17.2,7.413040471581608,17.83004970263168,2.922247762127128e-05
9.800000000000011,127.646,1.98658,251.9,-4.9,15.6,17.2,7.349505273966939,18.034544888841385,2.9721400530480224e-05
9.900000000000006,127.482,1.81452,252.1,-3.3,22.1,17.2,7.33210469776181,18.220352330352334,3.022917507555789e-05
10.0,127.291,1.76348,251.5,-4.0,23.0,17.2,7.3555740461122445,18.41775260692695,3.082347258764884e-05
10.099999999999994,127.116,1.83385,251.3,-4.0,23.2,17.2,7.423750544608066,18.579358337618697,3.137048895807126e-05
10.200000000000017,126.935,1.95197,251.3,-3.8,22.4,17.2,7.532120755116103,18.729943849410056,3.193845889359892e-05
10.300000000000011,126.758,2.19035,251.0,-4.7,22.4,17.2,7.676044047678296,18.86132995046879,3.24974545438117e-05
10.400000000000006,126.577,2.38525,250.6,-6.4,22.7,17.2,7.830121230451939,18.993831032247236,3.307946417763219e-05
10.500000000000028,126.399,2.61062,250.6,-7.8,19.9,17.2,8.048840634177996,19.095470995937767,3.365372500807595e-05
10.599999999999994,126.219,2.65823,251.1,-9.1,9.2,17.2,8.30075813185282,19.18548742755936,3.424886747760425e-05
10.700000000000017,126.053,2.52991,252.2,-9.6,-6.6,17.2,8.542339656596688,19.265293260051973,3.4809908620925256e-05
10.799999999999983,125.884,2.23422,253.1,-7.7,-21.0,17.2,8.79055850992542,19.346404987762668,3.5392406334544546e-05
10.900000000000006,125.724,1.95042,253.0,-4.6,-26.4,17.2,8.983679315487707,19.439667244832307,3.5945456596131464e-05
11.000000000000028,125.558,1.7913,252.7,-2.5,-26.6,17.1,9.147346764035467,19.553029734836404,0.10003652669623264
11.099999999999994,125.397,1.67956,252.9,-2.2,-27.7,17.2,9.267388005777907,19.677458875192144,3.708375016486798e-05
11.200000000000017,125.234,1.71614,253.1,-2.3,-28.7,17.1,9.394514147612725,19.802276875312906,0.10003765445996837
11.299999999999983,125.069,1.78315,253.1,-2.3,-29.4,17.1,9.449251326699379,19.95804031276506,0.10003822122209893
11.400000000000006,124.894,1.88817,253.2,-2.7,-29.8,17.1,9.474061431094372,20.137967169056566,0.10003882394342334
11.500000000000028,124.727,2.11911,253.3,-2.8,-30.0,17.1,9.457198361968025,20.325485249716948,0.10003939240268522
11.599999999999994,124.553,2.37307,253.5,-3.3,-30.1,17.1,9.393429179302274,20.539564783659806,0.10003998203303333
11.700000000000017,124.4,2.57567,253.9,-5.2,-28.3,17.1,9.331708651910022,20.730084289249675,0.10004050779922746
11.799999999999983,124.228,2.71718,253.7,-6.2,-19.2,17.1,9.211015254980056,20.966311157653433,0.10004110292078217
11.900000000000006,124.06,2.66821,252.9,-5.1,-7.1,17.1,9.090183172836163,21.198681364659492,0.10004169620215819
12.000000000000028,123.874,2.49104,252.4,-3.5,6.2,17.1,8.974997320185143,21.44810491408203,0.10004236516023024
12.099999999999994,123.666,2.24942,252.2,-1.9,17.0,17.2,8.901424128087413,21.705249686669866,4.313083424545283e-05
12.200000000000017,123.463,2.10557,252.3,-1.1,22.4,17.2,8.871841357001115,21.938459777972934,4.388607661809374e-05
12.299999999999983,123.265,2.05141,252.1,-1.4,24.0,17.2,8.885281152659577,22.14785007085119,4.462866488275097e-05
12.400000000000006,123.054,2.07069,252.1,-1.3,23.7,17.2,8.942830026805062,22.352933022117835,4.542451142697246e-05
12.500000000000028,122.842,2.19058,251.8,-1.8,23.4,17.2,9.031574520740257,22.54581966800894,4.622782644059242e-05
12.599999999999994,122.606,2.29799,251.4,-2.6,22.7,17.2,9.156559869745138,22.748993212706722,4.712719054733583e-05
12.700000000000017,122.388,2.47208,251.2,-4.6,19.6,17.2,9.319421448592255,22.917441388950525,4.796559387543198e-05
12.799999999999983,122.188,2.5507,251.5,-5.6,9.3,17.2,9.526984376340312,23.04765117181745,4.8743078310486965e-05
12.900000000000006,122.009,2.48803,252.0,-6.0,-3.2,17.2,9.715739155505492,23.163205649548015,4.9446786230866735e-05
13.000000000000028,121.774,2.33922,252.7,-5.4,-14.4,17.2,9.91445146949955,23.334861252588183,5.037861745105232e-05
13.099999999999994,121.558,2.19414,252.9,-3.8,-23.8,17.1,10.076885239813752,23.502186403948876,0.10005124925497899
13.200000000000017,121.341,2.14761,253.0,-2.6,-26.5,17.1,10.212775725649557,23.680188446735972,0.10005212453830126
13.299999999999983,121.13,2.15725,253.0,-2.0,-27.5,17.1,10.312367632388682,23.868607404248067,0.10005298685643016
13.400000000000006,120.888,2.22582,253.0,-2.0,-28.6,17.1,10.430507676018358,24.08162497105517,0.10005397890854795
13.500000000000028,120.667,2.3627,253.1,-2.2,-29.5,17.1,10.470652822819066,24.304547864683187,0.10005488950648544
13.599999999999994,120.438,2.52387,253.0,-2.1,-29.8,17.1,10.476470113926101,24.550030436869832,0.1000558382287835
13.700000000000017,120.223,2.76658,253.0,-2.1,-30.2,17.1,10.441527323407872,24.798422795457896,0.10005674046376534
13.799999999999983,120.012,3.00172,253.2,-2.6,-30.4,17.1,10.393512185015219,25.047174119692762,0.10005763295381431
13.900000000000006,119.798,3.12497,253.5,-4.7,-24.9,17.1,10.287330356087008,25.324075459242103,0.10005855157396137
14.000000000000028,119.568,3.00808,253.1,-7.3,-7.4,17.1,10.169477669983117,25.623521147357515,0.10005955669481281
14.099999999999994,119.355,2.75173,252.1,-6.6,11.7,17.1,10.07879542150659,25.892808397166107,0.10006050051910176
14.200000000000017,119.133,2.51767,252.3,-4.5,21.0,17.1,10.028870353336252,26.15587141610428,0.10006149281042198
14.299999999999983,118.92,2.33046,251.5,-5.1,22.6,17.2,10.012568267320862,26.394603398722914,6.244884032380327e-05
14.400000000000006,118.686,2.22033,251.1,-5.6,23.1,17.2,10.03377538121494,26.640910729016582,6.350546052313888e-05
14.500000000000028,118.466,2.2168,251.1,-5.4,23.4,17.2,10.091552645032575,26.85543292553121,6.449719571310908e-05
14.599999999999994,118.241,2.20756,250.7,-6.6,23.3,17.2,10.137500109662735,27.0812502073132,6.552355901678908e-05
14.700000000000017,118.029,2.3196,250.4,-8.3,23.5,17.2,10.271393963520357,27.254647125603597,6.647627101141751e-05
14.799999999999983,117.808,2.36251,251.0,-9.5,16.2,17.2,10.445504654029435,27.420574977326883,6.746928600787072e-05
14.900000000000006,117.611,2.25691,252.0,-12.1,-2.0,17.2,10.620589058916146,27.560269852730634,6.836143058652766e-05
15.000000000000028,117.422,1.9896,253.8,-13.2,-16.8,17.2,10.794589846039411,27.69254159255945,6.922756410254749e-05
15.099999999999994,117.261,1.73334,254.2,-9.7,-24.4,17.2,10.928385317478646,27.810104641261255,6.996632204625541e-05
15.200000000000017,117.089,1.64712,253.7,-6.1,-26.3,17.2,11.026295468297143,27.955664908848814,7.077259314236528e-05
15.299999999999983,116.928,1.68897,253.5,-4.5,-27.6,17.2,11.086170395301982,28.105906733807082,7.15357526752669e-05
15.400000000000006,116.758,1.80444,253.6,-4.0,-28.5,17.1,11.116216309877338,28.277348413444837,0.10007234554906841
15.500000000000028,116.598,1.97717,253.6,-4.1,-29.2,17.2,11.14400293000922,28.440298672058628,7.311796064080056e-05
15.599999999999994,116.432,2.1509,253.7,-4.4,-29.7,17.2,11.102321657197425,28.63882168189509,7.393249818310466e-05
15.700000000000017,116.281,2.3575,253.9,-5.5,-28.9,17.2,11.023833204564204,28.836428354167538,7.468468846294485e-05
15.799999999999983,116.133,2.43562,253.9,-7.4,-19.8,17.2,10.90868209404751,29.04639939048135,7.543899659978592e-05
15.900000000000006,116.016,2.28206,252.9,-8.6,-4.2,17.2,10.80246828534995,29.219980263727685,7.604886724532633e-05
16.00000000000003,115.869,2.03056,251.9,-7.5,11.3,17.2,10.705180403212275,29.422612122356362,7.681522322222634e-05
16.099999999999994,115.725,1.73306,251.8,-5.7,20.5,17.2,10.650487415701264,29.60309667100306,7.755739729908839e-05
16.200000000000017,115.568,1.52529,251.4,-6.0,23.4,17.2,10.639628988742931,29.779212740545454,7.835824232316213e-05
16.299999999999983,115.407,1.4941,250.8,-6.6,23.7,17.2,10.633148252999714,29.958139200290653,7.918386954752776e-05
16.400000000000006,115.255,1.55152,251.0,-5.8,23.1,17.2,10.696493530194385,30.095673097761804,7.993676569473251e-05
16.50000000000003,115.11,1.75703,251.0,-5.5,22.6,17.2,10.795368736912465,30.211785207995927,8.065246196409248e-05
16.599999999999994,114.956,1.99095,250.7,-6.4,22.5,17.2,10.94010116242574,30.316747203999043,8.139816970231806e-05
16.700000000000017,114.811,2.27913,250.3,-7.9,22.4,17.2,11.121189923616129,30.39646891687754,8.20915798733779e-05
16.799999999999983,114.676,2.40745,250.7,-8.9,15.6,17.2,11.331957238112352,30.45276796360745,8.273137637448968e-05
16.900000000000006,114.542,2.38852,251.5,-9.3,0.4,17.2,11.559868277780765,30.501132157938223,8.337438312278067e-05
17.00000000000003,114.408,2.15489,252.7,-9.1,-13.6,17.2,11.786571474607792,30.549817100155664,8.40227288216866e-05
17.099999999999994,114.287,1.83417,253.2,-6.7,-24.1,17.2,11.973748445281679,30.60157222873461,8.462025272137907e-05
17.200000000000017,114.184,1.53053,253.0,-4.0,-26.9,17.2,12.14150466729307,30.642353088571554,8.513555963052255e-05
17.299999999999983,114.063,1.35577,253.0,-2.9,-27.4,17.2,12.261438848324548,30.723251069911058,8.575384517151008e-05
17.400000000000006,113.925,1.33059,253.1,-2.7,-28.5,17.2,12.357933047630736,30.832803010464957,8.646914545273887e-05
17.50000000000003,113.792,1.38269,253.3,-2.9,-29.4,17.2,12.415464491389155,30.952664966425264,8.716042537848523e-05
17.599999999999994,113.645,1.45359,253.4,-3.1,-29.4,17.2,12.502743931571533,31.075268499082274,8.792733504581207e-05
17.700000000000017,113.517,1.69631,253.4,-2.9,-29.7,17.2,12.486481971572633,31.22216552757939,8.861206604571237e-05
17.799999999999983,113.383,2.00733,253.4,-2.8,-30.1,17.2,12.426801611095133,31.392935848059757,8.933251988452184e-05
17.900000000000006,113.253,2.2587,253.5,-3.7,-28.7,17.2,12.33384515145056,31.57357323895727,9.004279141944238e-05
18.00000000000003,113.107,2.36849,253.4,-4.8,-19.7,17.2,12.216905459135091,31.78211616644093,9.085181651702356e-05
18.099999999999994,112.972,2.3119,252.8,-4.7,-7.7,17.2,12.095229772244751,31.981868969553673,9.161616777841886e-05
18.200000000000017,112.827,2.13499,252.2,-4.1,6.2,17.2,11.984907164557276,32.18753275350739,9.244143499920199e-05
18.299999999999983,112.68,1.9012,252.0,-2.7,17.6,17.2,11.916061210309334,32.37771628067303,9.327309181550447e-05
18.400000000000006,112.512,1.74008,252.2,-1.9,22.5,17.3,11.892465910953783,32.57120697291603,-0.0999057863030588
18.50000000000003,112.323,1.69668,251.6,-2.9,23.3,17.3,11.91336961053053,32.76798854913784,-0.09990474073245803
18.599999999999994,112.139,1.73768,251.7,-2.8,23.1,17.3,11.975790392960427,32.941293957788105,-0.09990373123287277
18.700000000000017,111.963,1.90683,251.6,-2.9,22.8,17.3,12.074223639665307,33.09161961344274,-0.09990276747604199
18.799999999999983,111.779,2.07899,251.1,-4.2,22.6,17.3,12.217066446458693,33.230275842199056,-0.09990177407643852
18.900000000000006,111.601,2.32237,250.7,-5.8,22.9,17.2,12.360400265419855,33.362310300899054,9.919135651070832e-05
19.00000000000003,111.414,2.59621,250.7,-6.7,21.2,17.2,12.588401083778345,33.467165036589364,0.00010018729642791158
19.099999999999994,111.239,2.71873,251.3,-7.0,11.7,17.2,12.831592231580892,33.553545896204895,0.0001011270869684111
19.200000000000017,111.06,2.68989,251.8,-7.4,-1.4,17.2,13.09739415642347,33.634886281759044,0.00010209645750336449
19.299999999999983,110.904,2.48976,252.7,-7.3,-12.4,17.2,13.339397638109293,33.70224346963291,0.00010295546359539998
19.400000000000006,110.734,2.19611,253.1,-5.5,-22.6,17.2,13.570805178678519,33.788769466212415,0.00010390376984581451
19.50000000000003,110.573,1.92974,253.0,-3.8,-27.1,17.2,13.758433088637227,33.88440649588972,0.00010481324906130851
19.599999999999994,110.402,1.78517,252.9,-2.8,-27.5,17.2,13.920306450924251,34.002450465499635,0.00010579331512960977
19.700000000000017,110.244,1.69886,253.1,-2.8,-28.4,17.2,14.090802196747482,34.102196238294795,0.00010670125684431042
19.799999999999983,110.071,1.69483,253.2,-2.9,-29.1,17.2,14.175590978421496,34.25417912527397,0.0001077036397143516
19.900000000000006,109.905,1.78541,253.2,-3.0,-29.5,17.2,14.221350553470469,34.415425773305465,0.00010867337626851992
20.00000000000003,109.728,1.91697,253.3,-3.2,-29.8,17.2,14.231730490484683,34.60304297954629,0.00010971100201562223
20.099999999999994,109.563,2.14767,253.3,-3.1,-29.9,17.2,14.199503952332886,34.79610548326474,0.00011068764406463316
20.200000000000017,109.407,2.38239,253.4,-3.6,-28.4,17.2,14.135749459141,34.99304767733651,0.00011162217340565661
20.299999999999983,109.239,2.52396,253.1,-3.0,-19.2,17.2,14.044492276047693,35.21361109639711,0.0001126320950515236
20.400000000000006,109.049,2.54007,252.5,-0.7,-5.7,17.2,13.951744159558821,35.46004855291079,0.00011379186606053082
20.50000000000003,108.855,2.46914,252.5,1.1,7.6,17.2,13.884554164300907,35.699291901001715,0.00011497772331825473
20.599999999999994,108.605,2.39728,252.8,2.6,17.2,17.2,13.86075680220102,35.981737383634055,0.000116512287025472
20.700000000000017,108.381,2.40104,253.0,3.0,21.2,17.2,13.869810656983304,36.22252313263246,0.00011789217598501267
20.799999999999983,108.133,2.47004,252.6,2.0,22.1,17.3,13.92186714928485,36.470526209115896,-0.09988058100287223
20.900000000000006,107.885,2.62006,252.4,1.4,22.9,17.3,14.012588519772953,36.701780722189,-0.09987905662215191
21.00000000000003,107.613,2.70472,252.4,0.9,21.7,17.2,14.103731652196101,36.9590003218749,0.00012262931693829415
21.099999999999994,107.348,2.84842,252.4,0.3,14.8,17.2,14.263293795426707,37.17850128026719,0.00012426053156033845
21.200000000000017,107.07,2.9256,251.9,-1.7,3.9,17.2,14.45296512510303,37.40049176328873,0.0001259849012491543
21.299999999999983,106.798,2.94782,252.1,-4.2,-3.6,17.2,14.639559055596129,37.61636504891901,0.00012767916065126172
21.400000000000006,106.506,2.88281,252.6,-3.2,-11.6,17.2,14.833501218719388,37.85217840112681,0.000129524001851955
21.50000000000003,106.224,2.84089,252.5,-1.6,-22.8,17.2,14.997634720486412,38.08938942236608,0.00013131948752587164
21.599999999999994,105.926,2.85325,252.6,-1.1,-27.7,17.2,15.142125120319808,38.35156573934635,0.00013323222539263213
21.700000000000017,105.64,2.92417,252.4,-0.7,-27.9,17.2,15.24312772205895,38.61955394577189,0.0001350884783875017
21.799999999999983,105.337,3.06587,252.4,-0.7,-28.9,17.2,15.311435130503943,38.920572124002646,0.00013708035510440197
21.900000000000006,105.036,3.23714,252.6,-0.9,-29.6,17.2,15.397423704571816,39.21126506350535,0.00013906806023467055
22.00000000000003,104.73,3.37554,252.8,-1.3,-29.9,17.2,15.39457304456894,39.54653529399507,0.00014112846182801064
22.099999999999994,104.437,3.58588,252.9,-1.4,-30.1,17.2,15.353640935028743,39.882454819099394,0.00014311865576122074
22.200000000000017,104.132,3.80209,253.1,-1.7,-30.1,17.2,15.268183797159473,40.25276375539728,0.0001452372753414366
22.299999999999983,103.85,3.86885,253.5,-3.9,-24.2,17.2,15.187297840356425,40.595098502098324,0.00014721069064194126
22.400000000000006,103.55,3.76248,253.3,-6.4,-6.8,17.2,15.074707824825934,40.97250229813294,0.00014935400460824866
22.50000000000003,103.264,3.55336,252.3,-6.1,12.0,17.2,14.99391149179852,41.3204044015111,0.00015140498462251628
22.599999999999994,102.961,3.32194,252.6,-3.6,21.0,17.2,14.954175775884202,41.670375953046474,0.0001535847057994033
22.700000000000017,102.66,3.16199,251.9,-4.4,21.7,17.2,14.966477978252511,41.994305240438564,0.0001557377791225889
22.799999999999983,102.351,3.05372,251.4,-5.1,23.0,17.3,15.000015795791466,42.318471851196286,-0.09984204295370525
22.900000000000006,102.051,3.02819,251.7,-4.5,24.9,17.3,15.069924111924552,42.61545769884787,-0.09983990141612775
23.00000000000003,101.731,3.00679,251.7,-4.2,23.6,17.3,15.18217313458395,42.91674296603888,-0.09983761711288164
23.099999999999994,101.458,3.07194,251.2,-4.8,21.9,17.3,15.257403891317772,43.18200484280333,-0.09983564871249939
23.200000000000017,101.165,3.21005,251.6,-4.9,17.6,17.3,15.44824858167643,43.41781808775712,-0.09983358796556896
23.299999999999983,100.878,3.24815,251.9,-5.1,5.3,17.3,15.650417408414038,43.643038811771305,-0.09983155819374101
23.400000000000006,100.554,3.1555,252.3,-4.6,-11.1,17.2,15.867669605624453,43.90073113178545,0.00017074691010243725
23.50000000000003,100.253,3.12091,252.5,-2.1,-23.4,17.2,16.048409592415414,44.150466563075724,0.0001729227695914659
23.599999999999994,99.984,3.12431,252.3,0.0,-26.0,17.2,16.172745401367614,44.390342928323165,0.00017490246527973596
23.700000000000017,99.6967,3.21006,252.1,0.6,-26.9,17.2,16.278180743189516,44.658147740748895,0.00017703924436496266
23.799999999999983,99.3714,3.322,252.2,0.7,-28.2,17.2,16.372433727161685,44.972660240677655,0.00017948988782645614
23.900000000000006,99.0432,3.48841,252.2,0.6,-29.3,17.2,16.439464281208316,45.30240096292505,0.00018199336355095852
24.00000000000003,98.6162,3.6021,252.3,0.5,-29.9,17.2,16.57307925664658,45.710954791544864,0.00018525206312691722
24.099999999999994,98.2672,3.76712,252.4,0.3,-29.4,17.2,16.585272046679396,46.087983809040864,0.00018799481108811023
24.200000000000017,97.9092,3.90467,252.7,-0.3,-20.4,17.2,16.570918591171523,46.48712958159008,0.00019085096581061833
24.299999999999983,97.5641,3.89687,252.6,-0.3,-2.1,17.2,16.557544645988628,46.87202479077242,0.00019362971595704437
24.400000000000006,97.1837,3.8406,252.8,0.8,15.2,17.2,16.58717031232989,47.276508595287986,0.00019668977794395914
24.50000000000003,96.8204,3.84271,253.8,2.8,22.4,17.2,16.63809765669364,47.652743174607096,0.0001996198052323095
24.599999999999994,96.4289,3.88095,253.4,2.1,21.8,17.2,16.738208209810708,48.037828759893806,0.00020276953682074605
24.700000000000017,96.0435,3.9757,252.6,0.2,21.3,17.2,16.869156016362645,48.40211109894621,0.00020586674537437233
24.799999999999983,95.6278,4.04249,252.4,-0.9,21.5,17.2,17.009486378846333,48.79558184277184,0.00020923591887456183
24.900000000000006,95.2243,4.16119,252.4,-1.5,20.8,17.2,17.213326108132986,49.14661367368167,0.00021247721888961735
25.00000000000003,94.8009,4.19242,251.1,-4.8,19.2,17.2,17.4688455579902,49.49616366481586,0.0002158761287844868
25.099999999999994,94.411,4.19927,250.2,-8.9,16.3,17.2,17.73882704514392,49.80243492352919,0.00021900521873163825
25.200000000000017,94.0272,4.16354,251.1,-9.7,5.0,17.2,18.032037592061485,50.091645073443885,0.00022209317012311658
25.299999999999983,93.7073,4.01243,252.4,-9.4,-8.6,17.2,18.28269049678599,50.330191849277334,0.0002246850923661725
25.400000000000006,93.3188,3.80964,253.1,-7.4,-21.8,17.2,18.560285958470885,50.632094675843675,0.00022787675210445002
25.50000000000003,92.9497,3.6608,253.0,-4.7,-26.9,17.2,18.79274077519671,50.93298963848236,0.0002309541902452139
25.599999999999994,92.5597,3.62628,252.8,-3.0,-27.3,17.2,19.000189550523253,51.26805246911085,0.0002342516608759837
25.700000000000017,92.1602,3.6185,252.8,-2.7,-28.3,17.2,19.193349579249062,51.61994721293124,0.00023766767322008775
25.799999999999983,91.7895,3.61351,252.9,-2.7,-28.9,17.2,19.31994576823024,51.96981850202649,0.00024089066524446423
25.900000000000006,91.4429,3.67548,252.9,-2.7,-29.7,17.2,19.4018954080122,52.313252056395434,0.00024394441576447434
26.00000000000003,91.086,3.75111,252.8,-2.7,-28.3,17.2,19.449748426134132,52.68318603618049,0.0002471341727172671
26.099999999999994,90.7725,3.76007,252.6,-2.1,-16.7,17.2,19.504403201954844,53.00257858653782,0.00024994538925149357
26.200000000000017,90.4204,3.79225,252.4,-0.7,2.3,17.2,19.53701963009044,53.37435314589442,0.00025314114880359284
26.299999999999983,90.0637,3.8487,252.9,2.0,16.1,17.2,19.601718767772404,53.73694026805319,0.000256383490011558
26.400000000000006,89.6524,3.95555,253.9,4.3,21.1,17.2,19.71824520002439,54.13615395195754,0.00026011654558999453
26.50000000000003,89.2048,4.10692,253.4,3.4,20.6,17.2,19.868149053761975,54.56011882017104,0.0002641908392266856
26.599999999999994,88.7599,4.22217,252.8,1.5,19.9,17.2,20.065444414308956,54.959851347342806,0.0002682401072426899
26.700000000000017,88.336,4.39293,252.4,0.4,19.5,17.2,20.286757592346838,55.32558398903594,0.0002721008257005053
26.799999999999983,87.8994,4.48123,251.7,-1.1,18.8,17.2,20.550564579349718,55.68610033336554,0.00027608312762872345
26.900000000000006,87.4748,4.61588,251.1,-3.5,18.4,17.2,20.83814093974602,56.02295724022541,0.0002799678704512587
27.00000000000003,87.03,4.67997,251.3,-4.3,13.3,17.2,21.14090778969893,56.37539342524603,0.0002840695820829353
27.099999999999994,86.6082,4.63478,251.8,-4.3,1.5,17.2,21.464363689814505,56.693715184082976,0.0002879734321101779
27.200000000000017,86.1959,4.52016,252.4,-4.5,-13.0,17.2,21.782658797217497,57.004262536694924,0.00029182138996652895
27.299999999999983,85.7966,4.35952,252.9,-3.9,-24.4,17.2,22.066163677042546,57.31614653437521,0.00029559122939204485
27.400000000000006,85.3808,4.22325,253.0,-2.8,-27.0,17.2,22.343383888629212,57.64915437101995,0.00029955851275786927
27.50000000000003,84.9636,4.13614,252.8,-2.1,-27.5,17.2,22.569401313292662,58.0061578040669,0.00030359183549499846
27.599999999999994,84.5303,4.10433,252.7,-1.8,-28.4,17.2,22.767658963719395,58.39295315072086,0.0003078240993321657
27.700000000000017,84.1229,4.10664,252.7,-1.4,-29.3,17.2,22.92020379004058,58.77152374666241,0.0003118463099678337
27.799999999999983,83.6867,4.11215,252.7,-1.2,-29.7,17.2,23.098656507821268,59.170141176299126,0.00031617408452611073
27.900000000000006,83.2901,4.18328,252.6,-1.1,-26.0,17.2,23.18464631023295,59.56596403156735,0.00032016905062448586
28.00000000000003,82.8749,4.27846,252.4,0.2,-15.5,17.2,23.25435942330523,59.98937165717265,0.00032438792859501575
28.099999999999994,82.4706,4.32462,252.4,3.0,-2.6,17.2,23.325471016647537,60.40027757240908,0.00032852300480357144
28.200000000000017,82.0363,4.44858,253.1,5.3,10.2,17.2,23.428125152638763,60.830336773286305,0.000332982534029469
28.299999999999983,81.594,4.60021,253.8,7.1,17.2,17.2,23.55970663053148,61.256424567641304,0.0003375442537318918
28.400000000000006,81.1034,4.79813,253.9,7.3,18.2,17.2,23.741988481608026,61.71285365318994,0.00034261762745479984
28.50000000000003,80.6221,5.00013,253.5,5.8,18.2,17.2,23.951746997664877,62.14702083642051,0.0003476153095665069
28.599999999999994,80.1043,5.1218,252.6,4.3,16.2,17.2,24.20573322589998,62.601578376958244,0.00035301960102529506
28.700000000000017,79.5806,5.28261,252.6,4.0,14.8,17.2,24.448658316623792,63.06745393461176,0.00035853431983134953
28.799999999999983,79.0445,5.4267,252.6,3.7,15.0,17.3,24.771511715088444,63.51175555568082,-0.09963580975559871
28.900000000000006,78.5324,5.56891,252.6,2.5,13.8,17.2,25.10803752340407,63.92407151830463,0.0003696247537678943
29.00000000000003,77.9986,5.59885,252.2,0.7,4.0,17.2,25.478955306266254,64.34535399154534,0.0003753340088135104
29.099999999999994,77.5193,5.48695,252.2,-0.7,-11.2,17.2,25.804160059498386,64.72739044113302,0.00038050859355998057
29.200000000000017,76.9905,5.34301,252.3,-0.7,-24.1,17.2,26.144682677064623,65.1570660797021,0.00038627075521269205
29.299999999999983,76.4843,5.24368,252.2,-0.2,-27.4,17.2,26.436077060985887,65.58353448413996,0.00039184294090155447
29.400000000000006,75.9425,5.20803,252.1,0.0,-27.8,17.2,26.708513388216787,66.0570389884154,0.00039786374439287897
29.50000000000003,75.433,5.18847,252.2,-0.2,-28.5,17.2,26.95233142213001,66.50757933562191,0.0004035705304641368
29.599999999999994,74.8914,5.19024,252.2,-0.3,-29.0,17.2,27.153410396365167,67.01144878443966,0.00040969578513383453
29.700000000000017,74.3833,5.20097,252.4,-0.8,-29.7,17.2,27.30483225665847,67.49997591892954,0.0004154903314752545
29.799999999999983,73.8624,5.20743,252.7,-1.3,-29.4,17.2,27.420701250011696,68.01782917068456,0.00042148558169863293
29.900000000000006,73.336,5.22864,252.8,-1.1,-21.8,17.2,27.560767382579954,68.53129863811859,0.00042758129315778604
30.00000000000003,72.8053,5.24603,252.6,0.3,-6.8,17.2,27.650593003135906,69.07125338888527,0.00043379116116604166
30.099999999999994,72.3032,5.2085,252.5,1.8,8.4,17.2,27.752927285252426,69.57490197383994,0.00043970627759115644
30.200000000000017,71.7783,5.25733,252.5,2.4,17.5,17.2,27.893539623067454,70.08687456218847,0.00044592163676249186
30.299999999999983,71.2637,5.34316,252.3,2.5,20.8,17.2,28.070193223528218,70.57191516326053,0.00045204253905239966
30.400000000000006,70.7032,5.40617,252.6,3.0,20.4,17.2,28.28166047997083,71.09195945455748,0.0004587507035758165
30.50000000000003,70.1674,5.53451,252.7,2.9,16.8,17.3,28.531550327187492,71.56822194133245,-0.09953481159847932
30.599999999999994,69.6049,5.62777,252.6,1.9,14.3,17.3,28.820908298283683,72.05650737816154,-0.09952801360947205
30.700000000000017,69.0669,5.68368,252.3,0.6,10.6,17.3,29.120509552519984,72.51379050844295,-0.09952147032341863
30.799999999999983,68.5135,5.58862,252.2,-1.7,-0.6,17.2,29.39974206098112,72.99673276557438,0.0004853186331175152
30.900000000000006,67.9841,5.47827,252.7,-3.7,-13.1,17.3,29.69803766685122,73.44537960475259,-0.09950814831083221
31.00000000000003,67.4379,5.3144,253.0,-3.5,-23.9,17.2,29.984384223759562,73.91753837784856,0.0004986453994693107
31.099999999999994,66.9329,5.15523,253.0,-2.7,-27.4,17.2,30.218895346570992,74.36721929542875,0.0005049796326908051
31.200000000000017,66.4467,5.12526,253.0,-2.5,-27.8,17.2,30.41984135094193,74.81076034037352,0.0005111201168315205
31.299999999999983,65.9628,5.07701,253.2,-2.9,-28.8,17.2,30.578105845195953,75.27002235229502,0.0005172765641656696
31.400000000000006,65.456,5.06162,253.2,-3.0,-29.3,17.2,30.706957854083143,75.7669576482761,0.0005237760413674408
31.50000000000003,64.9799,5.07169,253.1,-3.1,-29.2,17.2,30.79491098667841,76.24806184344126,0.0005299295220400069
31.599999999999994,64.4755,5.04357,253.2,-3.8,-29.3,17.2,30.880934165529307,76.76113431388167,0.0005364954242672582
31.700000000000017,64.0152,5.01488,253.6,-5.9,-23.7,17.2,30.91018896881744,77.2511169091304,0.0005425472571314316
31.799999999999983,63.5393,4.93314,253.0,-5.8,-9.2,17.3,30.932529720566297,77.76168999027823,-0.09945114573797653
31.900000000000006,63.0895,4.84701,252.4,-3.4,7.8,17.3,30.97148180762476,78.23689882186193,-0.0994451499645237
32.00000000000003,62.6133,4.80063,252.9,0.0,18.8,17.3,31.049347662336494,78.72407827272032,-0.09943878151801933
32.099999999999994,62.1379,4.79928,253.3,1.3,21.5,17.3,31.172827918590283,79.19017172674651,-0.09943241220087273
32.20000000000002,61.6442,4.84569,252.9,0.2,20.1,17.3,31.331141841683646,79.66088906368967,-0.09942577825493792
32.29999999999998,61.174,4.85915,252.0,-3.0,19.0,17.3,31.511930457993486,80.0957850944275,-0.09941944175803741
32.400000000000006,60.6861,4.76249,251.3,-7.1,14.4,17.3,31.724715212778648,80.53575942740376,-0.0994128485682868
32.50000000000003,60.2364,4.62451,251.4,-10.3,5.9,17.3,31.893668113850154,80.95335019737728,-0.09940672231369874
32.599999999999994,59.7719,4.44997,252.0,-12.2,-3.3,17.3,32.11806288026891,81.36248639671604,-0.09940039030078474
32.70000000000002,59.3456,4.28752,253.2,-12.0,-12.5,17.3,32.31877749333055,81.74028073340008,-0.09939454769671663
32.79999999999998,58.9117,4.15476,253.5,-8.6,-23.8,17.3,32.50370225833698,82.13342546161685,-0.09938855798937496
32.900000000000006,58.5055,4.11644,253.3,-5.8,-28.2,17.3,32.616339029569076,82.52860219660232,-0.09938288503988169
33.00000000000003,58.0873,4.12333,253.1,-4.1,-28.5,17.3,32.72757303900783,82.93760946027456,-0.09937701266320964
33.099999999999994,57.6961,4.09397,253.0,-3.4,-29.3,17.3,32.80089599179887,83.33415733620717,-0.09937147117517675
33.20000000000002,57.294,4.17153,253.2,-3.9,-30.0,17.3,32.846152887493766,83.75555990288132,-0.0993657233662919
33.29999999999998,56.8914,4.19424,253.8,-6.5,-26.6,17.3,32.91105728729717,84.16892822528942,-0.09935995010156162
33.400000000000006,56.4935,4.10087,253.4,-8.4,-12.2,17.3,32.9165381508047,84.60460075087558,-0.0993541644771696
33.50000000000003,56.1287,3.97667,252.1,-7.5,7.3,17.3,32.9344423349106,84.9986632720404,-0.09934883730558752
33.599999999999994,55.757,3.8662,252.5,-3.5,19.9,17.3,32.98769729264984,85.38423319144474,-0.09934341605308816
33.70000000000002,55.3962,3.84959,252.9,-1.5,22.6,17.3,33.07917362262903,85.74022870028726,-0.09933816915582483
33.79999999999998,55.0256,3.8769,251.9,-2.2,21.3,17.3,33.216330885202495,86.08568863103504,-0.0993328042473891
33.900000000000006,54.6445,3.98019,251.4,-2.8,21.6,17.3,33.3822059929238,86.4292505300482,-0.0993272950874644
34.00000000000003,54.234,4.03211,251.6,-2.9,21.6,17.3,33.594551052484945,86.78373665811206,-0.09932136697017668
34.099999999999994,53.8486,4.14255,251.3,-4.1,21.3,17.3,33.83510074237974,87.09729612463593,-0.09931581949639856
34.20000000000002,53.4965,4.15757,250.6,-7.4,18.1,17.3,34.06025461323,87.38151456038011,-0.09931073366460375
34.29999999999998,53.1302,4.08822,251.1,-10.5,2.9,17.3,34.341780773100766,87.6555104431454,-0.09930546308267552
34.400000000000006,52.7407,3.88228,252.8,-10.9,-15.3,17.3,34.6313039752083,87.9518442893993,-0.09929981579981195
34.50000000000003,52.382,3.68207,253.5,-8.3,-25.1,17.3,34.876481048788406,88.23482150445045,-0.0992945700781327
34.599999999999994,51.9994,3.52873,253.1,-5.1,-27.1,17.3,35.09860558035729,88.55470445505176,-0.09928891777305182
34.70000000000002,51.6562,3.4626,252.9,-3.8,-27.8,17.3,35.272280725042776,88.85326928797676,-0.09928380763174616
34.79999999999998,51.2987,3.48837,252.9,-3.3,-28.4,17.3,35.42255360457369,89.17820087979004,-0.0992784432743683
34.900000000000006,50.963,3.51231,252.9,-3.4,-29.3,17.3,35.53123127158385,89.49791679461512,-0.09927336165367606
35.00000000000003,50.6225,3.45641,253.2,-4.7,-29.9,17.2,35.67678481276708,89.80621755842873,0.0007317826163308894
35.099999999999994,50.3087,3.45448,253.6,-6.3,-25.6,17.2,35.71764755689704,90.13260494396019,0.0007366120748457661
35.20000000000002,49.9988,3.46629,253.0,-6.0,-12.4,17.2,35.735535507882304,90.4654495791364,0.0007414202634734579
35.29999999999998,49.6894,3.43115,252.3,-3.6,5.1,17.2,35.770506446897585,90.79008816366664,0.0007462250276688565
35.400000000000006,49.3331,3.4469,252.6,-0.7,17.5,17.2,35.849910406937596,91.14626309330458,0.0007517478645588938
35.50000000000003,48.9763,3.52807,252.8,0.0,21.0,17.3,35.98063469588428,91.47943268673315,-0.09924274883507067
35.599999999999994,48.6037,3.61509,252.0,-1.5,20.2,17.3,36.1439107585951,91.81489925739899,-0.09923700621883924
35.70000000000002,48.2475,3.7571,251.7,-2.9,20.3,17.3,36.3329325081514,92.12047075606075,-0.0992315258998353
35.79999999999998,47.8765,3.83082,251.4,-4.5,20.8,17.3,36.56537994386386,92.42244101598835,-0.09922582817234726
35.900000000000006,47.5206,3.96036,251.0,-5.8,21.1,17.3,36.799446814129794,92.70719376227984,-0.09922034894584542
36.00000000000003,47.151,4.12009,250.8,-6.2,21.0,17.2,37.11009484810238,92.97265339208153,0.0007853178289813911
36.099999999999994,46.8065,4.24081,250.8,-7.0,17.7,17.2,37.43673396040027,93.20409935647162,0.0007906083929469787
36.20000000000002,46.4592,4.25695,251.3,-7.5,6.3,17.3,37.79505611510281,93.42566045881615,-0.0992040321239962
36.29999999999998,46.1696,4.11013,252.2,-7.7,-8.8,17.3,38.114040302121666,93.60276197469463,-0.09919953204369492
36.400000000000006,45.816,3.86109,252.9,-6.4,-22.6,17.3,38.45511139004455,93.84118793497831,-0.09919397701143495
36.50000000000003,45.4866,3.62185,253.0,-4.4,-27.4,17.2,38.741187806540715,94.0777762389728,0.000811241185189715
36.599999999999994,45.1469,3.44114,252.9,-3.4,-27.4,17.2,38.996934846844205,94.33899161785058,0.0008166603272421469
36.70000000000002,44.8065,3.32446,253.0,-3.3,-28.2,17.2,39.248743447115245,94.60306704147365,0.0008221198872533364
36.79999999999998,44.4732,3.25356,253.2,-3.4,-29.0,17.2,39.43059176562372,94.88890078255056,0.0008274860726196209
36.900000000000006,44.1557,3.21318,253.2,-3.6,-30.0,17.2,39.56941749337872,95.17541460931898,0.0008326137952252566
37.00000000000003,43.8217,3.21461,253.2,-3.7,-30.2,17.2,39.67859521400633,95.49220537477566,0.0008380248108537103
37.099999999999994,43.5172,3.25042,253.3,-4.2,-30.0,17.2,39.73262134927346,95.79999652983582,0.0008429747325990888
37.20000000000002,43.2341,3.32781,253.3,-5.4,-27.0,17.2,39.743460119301574,96.10285463755969,0.0008475928863305171
37.29999999999998,42.9425,3.32799,252.9,-5.5,-12.9,17.2,39.73942795664813,96.42137624692357,0.0008523699687685848
37.400000000000006,42.6177,3.29928,252.2,-4.1,6.6,17.2,39.76228191845604,96.76510333235558,0.0008577144878145759
37.50000000000003,42.3023,3.28031,252.5,-1.4,18.4,17.2,39.81437944430496,97.0862744216613,0.0008629161575761657
37.599999999999994,41.921,3.34022,253.1,0.6,20.8,17.2,39.917670287106716,97.45746314750285,0.0008692197026078929
37.70000000000002,41.5902,3.4593,252.6,0.0,20.3,17.2,40.042756448079885,97.7642378643098,0.0008746971917474866
37.79999999999998,41.2372,3.55507,252.3,-1.0,20.6,17.2,40.21376493958576,98.07542627905771,0.0008805500917539177
37.900000000000006,40.8969,3.69591,251.9,-2.5,20.4,17.3,40.41282273838077,98.36078016196518,-0.09911379703574497
38.00000000000003,40.5474,3.68155,251.3,-5.1,14.4,17.3,40.60129851111763,98.66092536980292,-0.09910796456945192
38.099999999999994,40.2155,3.64563,251.5,-6.8,1.8,17.3,40.83588834129569,98.92232025239717,-0.09910241666205621
38.20000000000002,39.8824,3.55196,252.4,-6.6,-10.5,17.3,41.076385876004124,99.18303156071786,-0.09909682091070593
38.29999999999998,39.5635,3.43721,252.9,-5.2,-22.1,17.3,41.283545129726924,99.44257474963538,-0.09909144045580831
38.400000000000006,39.2325,3.36697,252.9,-3.9,-27.3,17.2,41.46825500939178,99.72475629012479,0.0009141625851682988
38.50000000000003,38.8966,3.36828,252.8,-2.9,-27.7,17.2,41.61329359347384,100.02875088758358,0.0009198658568436713
38.599999999999994,38.535,3.42825,252.8,-2.6,-27.9,17.2,41.73607865148716,100.36981922564425,0.0009260232039487448
38.70000000000002,38.1997,3.50894,253.0,-2.9,-29.1,17.2,41.81528475951693,100.70046739758405,0.0009317513207349748
38.79999999999998,37.863,3.55183,253.3,-3.4,-29.8,17.2,41.85614952668021,101.0486923696931,0.0009375229196315615
38.900000000000006,37.5292,3.61321,253.8,-4.5,-29.8,17.2,41.91349913218498,101.38711897587643,0.0009432655170229509
39.00000000000003,37.1995,3.6614,253.9,-6.5,-24.1,17.2,41.891137740302725,101.75512045514785,0.0009489736652561476
39.099999999999994,36.8935,3.56759,253.2,-7.1,-7.9,17.2,41.86105379296458,102.1013529109207,0.0009543020886084719
39.20000000000002,36.5758,3.48348,252.3,-4.6,10.3,17.2,41.844608658157156,102.45522598891141,0.0009598638093528677
39.29999999999998,36.2631,3.41697,253.0,-0.9,19.6,17.2,41.86886269049912,102.78645893087554,0.0009653468237864615
39.400000000000006,35.9162,3.39154,252.3,-1.2,21.0,17.3,41.93699550866183,103.13605988092954,-0.09902856478562683
39.50000000000003,35.5831,3.4358,251.8,-2.1,22.1,17.3,42.03819835226864,103.45603516605894,-0.09902271941067653
39.599999999999994,35.2325,3.49136,251.7,-2.1,22.8,17.3,42.1832299975879,103.77565105486069,-0.09901657170375344
39.70000000000002,34.8864,3.5751,251.5,-3.1,21.8,17.3,42.33574551795934,104.08714687971019,-0.09901048547004976
39.79999999999998,34.5429,3.62851,251.3,-5.0,18.6,17.3,42.54823782581944,104.3692054851503,-0.09900446370846439
39.900000000000006,34.2173,3.63157,251.2,-7.6,9.7,17.3,42.77408395670656,104.62622048686254,-0.09899873833015249
40.00000000000003,33.8778,3.49341,252.1,-9.5,-5.2,17.3,43.01794801682223,104.89078632308204,-0.0989927519396474
40.099999999999994,33.6164,3.28534,253.3,-8.7,-19.7,17.2,43.19673219941693,105.0987270954495,0.001011880502083784
40.20000000000002,33.3076,3.16426,253.6,-6.1,-26.6,17.2,43.38059310059136,105.35638783442968,0.0010173801281787576
40.29999999999998,33.0094,3.11591,253.2,-4.0,-27.7,17.2,43.522840121290656,105.62029793712611,0.0010227121022445829
40.400000000000006,32.6805,3.18544,253.0,-3.0,-28.0,17.2,43.64339714318584,105.92684719740713,0.0010286187994914542
40.50000000000003,32.3671,3.27352,252.9,-2.9,-29.1,17.2,43.72456230236753,106.23345415834919,0.0010342711753850153
40.599999999999994,31.9926,3.33895,253.2,-3.2,-29.5,17.2,43.84659355482533,106.58915854501352,0.001041040142901295
40.70000000000002,31.6797,3.48788,253.2,-3.5,-29.7,17.2,43.85894714229825,106.92504817109028,0.001046741971627796
40.79999999999998,31.3518,3.58962,253.0,-3.3,-22.8,17.2,43.84047672595552,107.29135031921841,0.0010527610324970738
40.900000000000006,31.041,3.59758,252.6,-1.7,-7.5,17.2,43.813717473710746,107.64357960197343,0.0010585027527874047
41.00000000000003,30.7019,3.55409,252.5,0.0,9.6,17.2,43.799360499403676,108.02224591056171,0.0010648010471250302
41.099999999999994,30.3805,3.52633,253.5,3.2,20.0,17.2,43.82533557287917,108.36398337265675,0.0010707711328805658
41.20000000000002,30.032,3.59693,253.7,3.8,22.2,17.3,43.900782087600504,108.71316990638483,-0.0989227704099811
41.29999999999998,29.6837,3.71332,253.0,2.6,20.8,17.3,44.01026816855682,109.04668528056075,-0.09891632564364272
41.400000000000006,29.3097,3.82938,252.8,1.8,20.6,17.3,44.13903071042424,109.39973763156443,-0.09890939271086197
41.50000000000003,28.9345,4.01376,252.8,1.9,20.3,17.3,44.32208706271924,109.7288953023504,-0.0989024705096142
41.599999999999994,28.5348,4.1557,252.4,1.3,18.8,17.3,44.5530638745993,110.06317871503758,-0.0988951011923298
41.70000000000002,28.1418,4.31417,251.5,-1.2,18.9,17.3,44.81117414667169,110.37781961864646,-0.09888785430078784
41.79999999999998,27.7331,4.31791,251.2,-4.1,11.7,17.3,45.09181222012869,110.69998453687471,-0.09888029104440221
41.900000000000006,27.3423,4.21913,251.9,-7.4,-5.2,17.3,45.38014422874435,110.99984375981376,-0.09887303094233246
42.00000000000003,26.9486,3.9898,253.3,-8.5,-20.3,17.3,45.66413113762891,111.30553763694527,-0.09886567509082411
42.099999999999994,26.589,3.76951,253.8,-7.0,-25.5,17.3,45.89652846307861,111.59713430193219,-0.09885891005957248
42.20000000000002,26.2302,3.66288,253.6,-5.7,-26.6,17.2,46.09145926275636,111.9043490574881,0.0011478786090677318
42.29999999999998,25.9278,3.60214,253.3,-4.9,-27.9,17.2,46.24444333419301,112.16822259793179,0.0011536188384262402
42.400000000000006,25.5472,3.60852,253.4,-5.0,-28.6,17.2,46.39447670137047,112.51851573677206,0.0011608774186058213
42.50000000000003,25.1928,3.60446,253.6,-5.5,-29.5,17.2,46.496122934596386,112.86099301559062,0.0011676652242300634
42.599999999999994,24.8342,3.58326,254.1,-7.0,-29.8,17.2,46.554215148169334,113.22705745856797,0.001174572771393656
42.70000000000002,24.4609,3.52743,254.0,-9.1,-23.4,17.2,46.65180544541868,113.59222029022371,0.0011817753875682513
42.79999999999998,24.1304,3.4298,252.8,-9.5,-4.0,17.2,46.666882891755684,113.94710283959512,0.0011882101734066453
42.900000000000006,23.8164,3.34487,252.1,-5.9,14.2,17.2,46.705276591726914,114.27423630278192,0.0011943386442254678
43.00000000000003,23.4774,3.37052,253.1,-1.1,21.3,17.2,46.78958833651376,114.60844486160295,0.0012009490730413575
43.099999999999994,23.1384,3.46575,253.1,0.7,21.3,17.2,46.915585336658985,114.92393479027712,0.0012075497635670729
43.20000000000002,22.7885,3.594,252.3,-0.1,20.3,17.2,47.078443641179895,115.23475048761495,0.00121435686444471
43.29999999999998,22.4443,3.78093,252.1,-1.0,20.9,17.3,47.26770076541678,115.52750440420128,-0.09877894728488812
43.400000000000006,22.0702,3.84942,252.2,-1.2,20.2,17.2,47.49916649502612,115.83449899026967,0.0012283402855786107
43.50000000000003,21.733,3.83026,251.6,-5.2,12.9,17.2,47.67141279485158,116.12743074844464,0.0012349527649782033
43.599999999999994,21.3703,3.69143,252.0,-10.6,-5.2,17.2,47.937089879249974,116.40765543386672,0.0012420547626348366
43.70000000000002,21.0413,3.45492,254.0,-12.1,-21.9,17.2,48.16768822281313,116.66706224419895,0.0012485335540795006
43.79999999999998,20.7129,3.19578,254.2,-8.9,-26.5,17.2,48.37369802536419,116.93684983199597,0.0012550335997545403
43.900000000000006,20.4087,3.0745,253.6,-6.4,-27.2,17.2,48.530094076804104,117.20145251224764,0.0012610785414644
44.00000000000003,20.0941,3.12811,253.5,-5.3,-28.1,17.2,48.67384997444837,117.48281650583198,0.0012673488641894437
44.099999999999994,19.7987,3.11368,253.6,-5.4,-28.9,17.2,48.75779498249664,117.76828986985913,0.0012732523464578094
44.20000000000002,19.4948,3.11245,253.8,-5.9,-29.3,17.2,48.80902472484436,118.07695508213584,0.0012793460080686714
44.29999999999998,19.2104,3.24034,253.8,-5.6,-29.9,17.2,48.82029981263907,118.38197603606707,0.0012850802849087017
44.400000000000006,18.9206,3.39089,253.6,-5.0,-30.1,17.2,48.831346696786454,118.69351225987766,0.0012909500001043739
44.50000000000003,18.6482,3.57725,253.7,-5.1,-29.7,17.2,48.76418578797238,119.02187741297035,0.0012965488222391741
44.599999999999994,18.372,3.69649,253.8,-6.6,-24.4,17.2,48.65612134759633,119.37577141565248,0.0013023266355105534
44.70000000000002,18.1122,3.64292,253.1,-7.3,-8.8,17.2,48.54780896651673,119.7151266266275,0.0013078521881269012
44.79999999999998,17.8173,3.48089,252.3,-4.1,9.8,17.2,48.45292047781233,120.09088121758953,0.001314185677209423
44.900000000000006,17.5424,3.35166,253.2,0.7,19.8,17.3,48.405476597831495,120.42350944746723,-0.0986799103421383
45.00000000000003,17.2407,3.2932,253.1,2.0,20.7,17.3,48.39982880689922,120.766911000708,-0.09867346748956152
45.099999999999994,16.944,3.29555,252.6,1.8,21.1,17.3,48.43306982211908,121.08549394424972,-0.09866717967487659
45.20000000000002,16.6358,3.40313,253.1,3.1,21.6,17.3,48.47714607265958,121.41227405734399,-0.09866063818479986
45.29999999999998,16.3094,3.52166,252.9,2.9,21.3,17.3,48.58199244804901,121.72726962352435,-0.09865383751418833
45.400000000000006,15.9376,3.58992,252.3,0.9,20.0,17.3,48.73057263285187,122.07034469631505,-0.09864614975614927
45.50000000000003,15.578,3.65234,252.0,-1.5,10.6,17.3,48.898494488059306,122.388763684975,-0.09863876457772847
45.599999999999994,15.2058,3.61701,252.1,-5.3,-5.9,17.3,49.08167040063174,122.71316314120658,-0.09863112556147513
45.70000000000002,14.8483,3.50515,253.4,-7.5,-20.9,17.3,49.20507170903483,123.05381567557482,-0.09862361425883392
45.79999999999998,14.4844,3.42117,253.8,-6.1,-26.2,17.2,49.34335562649059,123.39378067990954,0.0013840200447887696
45.900000000000006,14.1533,3.4506,253.3,-4.2,-26.9,17.2,49.437681342855086,123.72096487512864,0.0013910847543847638
46.00000000000003,13.8232,3.55674,253.1,-3.3,-27.8,17.2,49.497934376187025,124.06726282008434,0.0013982729636801139
46.099999999999994,13.519,3.66703,253.1,-3.1,-29.3,17.2,49.5415751278358,124.39439513911617,0.0014049797760691263
46.20000000000002,13.2091,3.80739,253.2,-3.2,-30.0,17.2,49.53531444744003,124.76005163673236,0.0014120651445601595
46.29999999999998,12.9161,4.01162,253.4,-3.4,-30.5,17.2,49.49603920038014,125.12986304549867,0.0014189971316618255
46.400000000000006,12.6075,4.18959,253.2,-3.4,-29.1,17.2,49.42183922839319,125.54671842262269,0.0014266020013415925
46.50000000000003,12.3182,4.23135,253.0,-3.1,-16.8,17.2,49.37196890858958,125.9311126993007,0.0014337856953545725
46.599999999999994,12.0378,4.14261,252.6,-1.2,3.0,17.2,49.2768875348376,126.34454032380164,0.0014412155693470652
46.70000000000002,11.7569,4.05853,253.2,2.2,17.4,17.2,49.22426794310014,126.73633149402856,0.0014485732648310545
46.79999999999998,11.4369,4.00962,253.9,3.9,21.8,17.2,49.221865482209495,127.14649077336054,0.0014567098090765285
46.900000000000006,11.116,4.01013,253.3,2.9,21.6,17.2,49.23327580158802,127.5536141822399,0.001464918738808052
47.00000000000003,10.7561,4.02396,252.7,1.7,21.5,17.3,49.30277288249073,127.96920152561465,-0.09852622525809096
47.099999999999994,10.3991,4.06132,252.6,0.8,22.0,17.3,49.4122234030211,128.35047358897705,-0.09851772142858906
47.20000000000002,10.0137,4.09465,252.2,-1.4,19.2,17.3,49.567873596187354,128.73138134675312,-0.09850884032426777
47.29999999999998,9.6392,4.07536,252.0,-4.6,6.1,17.2,49.735626350539704,129.08826015461915,0.0014996754845846283
47.400000000000006,9.28031,3.98778,252.6,-9.1,-9.6,17.2,49.8753065100507,129.45328564955608,0.00150816217535521
47.50000000000003,8.92706,3.89916,253.8,-8.8,-21.9,17.2,50.018754563203146,129.8101615251353,0.001516534960035898
47.599999999999994,8.57705,3.84568,253.6,-6.1,-27.2,17.2,50.138073707514465,130.19191406153567,0.0015252487778028012
47.70000000000002,8.26778,3.83538,253.7,-6.6,-26.8,17.2,50.21775235690144,130.5637799141936,0.0015334724312232595
47.79999999999998,7.9393,3.81504,254.0,-8.6,-21.6,17.2,50.30261531814442,130.96887946830628,0.0015424395822378756
47.900000000000006,7.68094,3.74954,253.8,-10.3,-16.0,17.2,50.33717714021087,131.337991596097,0.0015502956905599774
48.00000000000003,7.43659,3.59869,253.5,-10.8,-11.6,17.2,50.36205903700112,131.71275375120885,0.0015582147209940445
48.099999999999994,7.2315,3.40639,253.2,-10.6,-8.4,17.2,50.37656950195551,132.05241215131596,0.0015653464227867175
48.20000000000002,7.06224,3.1115,252.9,-19.6,-4.3,17.2,50.39622226246076,132.33511399695757,0.0015713547236728687
48.29999999999998,6.91499,2.69841,252.2,-28.3,0.3,17.2,50.399713371344546,132.616756912708,0.00157722706678598
48.400000000000006,6.78502,2.27921,252.1,-28.5,1.6,17.2,50.40194694015702,132.88191360254572,0.0015827575347842071
48.50000000000003,6.68971,1.84604,252.0,-28.5,1.0,17.2,50.4019381946128,133.09104650200425,0.0015871152814348477
48.599999999999994,6.62559,1.45949,252.2,-29.3,-0.1,17.2,50.37753822114186,133.29121194225496,0.0015910952573179316
48.70000000000002,6.58073,1.08323,252.5,-28.7,-1.0,17.2,50.367809405002276,133.42259484484774,0.0015937635924174742
48.79999999999998,6.55357,0.851403,252.8,-25.4,-2.4,17.2,50.35161452308165,133.52958038923032,0.0015958713263586333
48.900000000000006,6.53794,0.631283,252.9,-22.3,-3.9,17.2,50.33693371981376,133.6064039049588,0.0015973625269403158
49.00000000000003,6.52775,0.489854,252.8,-19.2,-4.6,17.2,50.32399798354879,133.6663285928925,0.0015985151647939233
49.099999999999994,6.53613,0.388023,252.7,-16.6,-4.4,17.2,50.291629262840274,133.7267852694871,0.001599524950986364
49.20000000000002,6.55081,0.321978,252.7,-14.6,-4.3,17.2,50.26892121462318,133.7453523361044,0.0015997335560093973
49.29999999999998,6.57064,0.27671,252.6,-13.0,-4.1,17.2,50.24489826742262,133.7530501498852,0.001599704745217423
