time(millisecond),datetime(utc),latitude,longitude,height_above_takeoff(meters),height_above_ground_at_drone_location(meters),ground_elevation_at_drone_location(meters),altitude_above_seaLevel(meters),height_sonar(meters),speed(m/s),distance(meters),mileage(meters),satellites,gpslevel,voltage(v),max_altitude(meters),max_ascent(meters),max_speed(m/s),max_distance(meters), xSpeed(m/s), ySpeed(m/s), zSpeed(m/s), compass_heading(degrees), pitch(degrees), roll(degrees),isPhoto,isVideo,rc_elevator,rc_aileron,rc_throttle,rc_rudder,rc_elevator(percent),rc_aileron(percent),rc_throttle(percent),rc_rudder(percent),gimbal_heading(degrees),gimbal_pitch(degrees),battery_percent,voltageCell1,voltageCell2,voltageCell3,voltageCell4,voltageCell5,voltageCell6,current(A),battery_temperature(c),altitude(meters),ascent(meters),flycStateRaw,flycState,message
100,2022-07-07 08:10:25,32.8256841215075,34.9559635814824,0,Available with any HD 360 subscription,Available with any HD 360 subscription,5.4942341,0.1,0.0276533,0,0,17,0,0,5.4942341,0,0.0276533,0,0,0,0,222.7, -1.3, 3.2,0,0,1024,1024,1024,1024,0,0,0,0,359.9222073,0.015958,97,4.263,4.264,4.262,4.264,0,0,0,38,5.4942341,0,41,Motors_Started,"Log filename: FLY457.DAT"
200,2022-07-07 08:10:25,32.8256841218699,34.9559635330617,0,,,5.4942341,0.1,0.0285262,0.00452505,0.00452505,17,0,0,5.4942341,0,0.0285262,0.00452505,0,0,0,222.5, -1.4, 3.2,0,0,1024,1024,1024,1024,0,0,0,0,359.9222286,0.0160209,97,4.263,4.264,4.262,4.264,0,0,0,38,5.4942341,0,41,Motors_Started,
300,2022-07-07 08:10:25,32.8256841219476,34.955963503318,0,,,5.4942341,0.1,0.0122188,0.00730456,0.00730459,17,0,0,5.4942341,0,0.0285262,0.00730456,0,0,0,222.4, -1.4, 3.2,0,0,1024,1024,1024,1024,0,0,0,0,359.9222203,0.0160712,97,4.263,4.264,4.262,4.264,0,0,0,38,5.4942341,0,41,Motors_Started,
400,2022-07-07 08:10:25,32.8256841232435,34.9559634927516,0,,,5.4942341,0.1,0.0110606,0.00829406,0.00830246,17,0,0,5.4942341,0,0.0285262,0.00829406,0,0,0,222.5, -1.4, 3.2,0,0,1024,1024,1024,1024,0,0,0,0,359.9222148,0.0161606,97,4.263,4.264,4.262,4.264,0,0,0,38,5.4942341,0,41,Motors_Started,
500,2022-07-07 08:10:25,32.8256841304868,34.9559634758522,0,,,5.4942341,0.1,0.0131478,0.00992143,0.0100753,17,0,0,5.4942341,0,0.0285262,0.00992143,0,0,0,222.4, -1.4, 3.2,0,0,1024,1024,1024,1024,0,0,0,0,359.9221225,0.016514,97,4.263,4.264,4.262,4.264,0,0,0,38,5.4942341,0,41,Motors_Started,
600,2022-07-07 08:10:25,32.8256841321307,34.9559634835054,0,,,5.4942341,0.1,0.00603327,0.00923177,0.0108134,17,0,0,5.4942341,0,0.0285262,0.00992143,0,0,0,222.4, -1.4, 3.2,0,0,1024,1024,1024,1024,0,0,0,0,359.9221258,0.0164888,97,4.263,4.264,4.262,4.264,0,0,0,38,5.4942341,0,41,Motors_Started,
700,2022-07-07 08:10:25,32.8256841332677,34.9559634929227,0,,,5.4942341,0.1,0.00361799,0.00837852,0.0117025,17,0,0,5.4942341,0,0.0285262,0.00992143,0,0,0,222.6, -1.4, 3.2,0,0,1024,1024,1024,1024,0,0,0,0,359.9219807,0.0158241,97,4.263,4.264,4.262,4.264,0,0,0,38,5.4942341,0,41,Motors_Started,
800,2022-07-07 08:10:26,32.8256841333097,34.9559635043862,0,,,5.4942341,0.1,0.00325658,0.00732314,0.0127738,17,0,0,5.4942341,0,0.0285262,0.00992143,0,0,0,222.5, -1.3, 3.2,0,0,1024,1024,1024,1024,0,0,0,0,359.9219765,0.015951,97,4.263,4.264,4.262,4.264,0,0,0,38,5.4942341,0,41,Motors_Started,
900,2022-07-07 08:10:26,32.8256841327686,34.9559634946428,0,,,5.4942341,0.1,0.00484461,0.00821114,0.0136863,17,0,0,5.4942341,0,0.0285262,0.00992143,0,0,0,222.5, -1.3, 3.2,0,0,1024,1024,1024,1024,0,0,0,0,359.9219242,0.016302,97,4.263,4.264,4.262,4.264,0,0,0,38,5.4942341,0,41,Motors_Started,
1000,2022-07-07 08:10:26,32.8256841301566,34.9559634554026,0,,,5.4942341,0.1,0.00395283,0.0118212,0.0173647,17,0,16.986,5.4942341,0,0.0285262,0.0118212,0,0,0,222.5, -1.3, 3.1,0,0,1024,1024,1024,1024,0,0,0,0,359.9219199,0.0163538,97,4.263,4.264,4.262,4.264,0,0,1.568,38,5.4942341,0,41,Motors_Started,
1100,2022-07-07 08:10:26,32.8256841247074,34.9559634269457,0,,,5.4942341,0.1,0.00748876,0.0144457,0.0200922,17,0,16.986,5.4942341,0,0.0285262,0.0144457,0,0,0,222.5, -1.3, 3.2,0,0,1024,1024,1024,1024,0,0,0,0,359.921828,0.0160507,97,4.263,4.264,4.262,4.264,0,0,1.568,38,5.4942341,0,41,Motors_Started,
1200,2022-07-07 08:10:26,32.8256841217449,34.9559634142333,0,,,5.4942341,0.1,0.0069823,0.0156293,0.021325,17,0,16.986,5.4942341,0,0.0285262,0.0156293,0,0,0,222.5, -1.3, 3.2,0,0,1024,1024,1024,1024,0,0,0,0,359.921828,0.016039,97,4.263,4.264,4.262,4.264,0,0,1.568,38,5.4942341,0,41,Motors_Started,
1300,2022-07-07 08:10:26,32.8256841167061,34.9559633455423,0,,,5.4942341,0.1,0.00989507,0.0220549,0.0277685,17,0,16.986,5.4942341,0,0.0285262,0.0220549,0,0,0,222.5, -1.3, 3.2,0,0,1024,1024,1024,1024,0,0,0,0,359.9214431,0.0173374,97,4.263,4.264,4.262,4.264,0,0,1.568,38,5.4942341,0,41,Motors_Started,
1400,2022-07-07 08:10:26,32.8256841120109,34.9559632972498,0,,,5.4942341,0.1,0.00813369,0.0265823,0.0323115,17,0,16.986,5.4942341,0,0.0285262,0.0265823,0,0,0,222.5, -1.3, 3.2,0,0,1024,1024,1024,1024,0,0,0,0,359.9214445,0.0173047,97,4.263,4.264,4.262,4.264,0,0,1.568,38,5.4942341,0,41,Motors_Started,
1500,2022-07-07 08:10:26,32.8256841077301,34.9559632684619,0,,,5.4942341,0.1,0.00657589,0.0292916,0.0350435,17,0,16.986,5.4942341,0,0.0285262,0.0292916,0,0,0,222.5, -1.3, 3.2,0,0,1024,1024,1024,1024,0,0,0,0,359.9213771,0.016491,97,4.263,4.264,4.262,4.264,0,0,1.568,38,5.4942341,0,41,Motors_Started,
1600,2022-07-07 08:10:26,32.8256841026607,34.9559632583949,0,,,5.4942341,0.1,0.00865194,0.0302649,0.0361402,17,0,16.986,5.4942341,0,0.0285262,0.0302649,0,0,0,222.5, -1.3, 3.2,0,0,1024,1024,1024,1024,0,0,0,0,359.9213791,0.0164741,97,4.263,4.264,4.262,4.264,0,0,1.568,38,5.4942341,0,10,Assisted_Takeoff,
1700,2022-07-07 08:10:26,32.8256840997975,34.955963258416,0,,,5.4942341,0.1,0.00750038,0.0302867,0.0364586,17,0,16.986,5.4942341,0,0.0285262,0.0302867,0,0,0,222.6, -1.4, 3.2,0,0,1024,1024,1024,1024,0,0,0,0,359.9215203,0.0160827,97,4.263,4.264,4.262,4.264,0,0,1.568,38,5.4942341,0,10,Assisted_Takeoff,
1800,2022-07-07 08:10:27,32.8256841099313,34.9559633284114,0,,,5.4942341,0.1,0.00587546,0.0236843,0.043096,17,0,16.986,5.4942341,0,0.0285262,0.0302867,0,0,0,222.6, -1.4, 3.2,0,0,1024,1024,1024,1024,0,0,0,0,359.9215159,0.0160868,97,4.263,4.264,4.262,4.264,0,0,1.568,38,5.4942341,0,10,Assisted_Takeoff,
1900,2022-07-07 08:10:27,32.8256841095894,34.9559633168821,0,,,5.4942341,0.1,0.00900652,0.0247622,0.0441741,17,0,16.986,5.4942341,0,0.0285262,0.0302867,0,0,0,222.6, -1.4, 3.2,0,0,1024,1024,1024,1024,0,0,0,0,359.9215402,0.0159924,97,4.263,4.264,4.262,4.264,0,0,1.568,38,5.4942341,0,10,Assisted_Takeoff,
2000,2022-07-07 08:10:27,32.8256841097099,34.9559632757401,0,,,5.4942341,0.1,0.00605662,0.0286015,0.0480188,17,0,16.926,5.4942341,0,0.0285262,0.0302867,0,0,0,222.6, -1.4, 3.2,0,0,1024,1024,1024,1024,0,0,0,0,359.9215399,0.0159506,97,4.233,4.236,4.237,4.24,0,0,4.436,38,5.4942341,0,10,Assisted_Takeoff,
2100,2022-07-07 08:10:27,32.8256841103148,34.9559632494343,0,,,5.4942341,0.1,0.00933431,0.0310546,0.050478,17,0,16.926,5.4942341,0,0.0285262,0.0310546,0,0,0,222.6, -1.4, 3.2,0,0,1024,1024,1024,1024,0,0,0,0,359.9214992,0.0166182,97,4.233,4.236,4.237,4.24,0,0,4.436,38,5.4942341,0,10,Assisted_Takeoff,
2200,2022-07-07 08:10:27,32.8256841199104,34.9559632143765,0,,,5.4942341,0.1,0.00943532,0.0343062,0.0539235,17,0,16.926,5.4942341,0,0.0285262,0.0343062,0,0,0,222.6, -1.4, 3.2,0,0,1024,1024,1024,1024,0,0,0,0,359.9215,0.0165898,97,4.233,4.236,4.237,4.24,0,0,4.436,38,5.4942341,0,10,Assisted_Takeoff,
2300,2022-07-07 08:10:27,32.8256841195579,34.9559632123256,0,,,5.4942341,0.1,0.00846322,0.0344981,0.0541191,17,0,16.926,5.4942341,0,0.0285262,0.0344981,0,0,0,222.6, -1.4, 3.2,0,0,1024,1024,1024,1024,0,0,0,0,359.9214467,0.0159855,97,4.233,4.236,4.237,4.24,0,0,4.436,38,5.4942341,0,10,Assisted_Takeoff,
2400,2022-07-07 08:10:27,32.8256841188316,34.9559632160932,0,,,5.4942341,0.1,0.00533698,0.0341466,0.0544804,17,0,16.926,5.4942341,0,0.0285262,0.0344981,0,0,0,222.6, -1.4, 3.2,0,0,1024,1024,1024,1024,0,0,0,0,359.9214489,0.0159867,97,4.233,4.236,4.237,4.24,0,0,4.436,38,5.4942341,0,10,Assisted_Takeoff,
2500,2022-07-07 08:10:27,32.8256841185446,34.9559632209439,0,,,5.4942341,0.1,0.00620534,0.0336936,0.0549348,17,0,16.926,5.4942341,0,0.0285262,0.0344981,0,0,0,222.6, -1.4, 3.2,0,0,1024,1024,1024,1024,0,0,0,0,359.9214062,0.0164932,97,4.233,4.236,4.237,4.24,0,0,4.436,38,5.4942341,0,10,Assisted_Takeoff,
2600,2022-07-07 08:10:27,32.8256841196674,34.9559632748992,0,,,5.4942341,0.1,0.00793125,0.0286507,0.0599784,17,0,16.926,5.4942341,0,0.0285262,0.0344981,0,0,0,222.6, -1.4, 3.2,0,0,1024,1024,1024,1024,0,0,0,0,359.9214111,0.0164572,97,4.233,4.236,4.237,4.24,0,0,4.436,38,5.4942341,0,10,Assisted_Takeoff,
2700,2022-07-07 08:10:27,32.8256841190465,34.9559632564312,0,,,5.4942341,0.1,0.00746488,0.030377,0.0617056,17,0,16.926,5.4942341,0,0.0285262,0.0344981,0,0,0,222.6, -1.4, 3.2,0,0,1024,1024,1024,1024,0,0,0,0,359.9214923,0.015823,97,4.233,4.236,4.237,4.24,0,0,4.436,38,5.4942341,0,10,Assisted_Takeoff,
2800,2022-07-07 08:10:28,32.8256841185763,34.9559632086467,0,,,5.4942341,0.1,0.00710568,0.0348427,0.0661713,17,0,16.926,5.4942341,0,0.0285262,0.0348427,0,0,0,222.6, -1.4, 3.2,0,0,1024,1024,1024,1024,0,0,0,0,359.9214926,0.0158075,97,4.233,4.236,4.237,4.24,0,0,4.436,38,5.4942341,0,10,Assisted_Takeoff,
2900,2022-07-07 08:10:28,32.8256841187994,34.9559631776509,0,,,5.4942341,0.1,0.00593201,0.0377389,0.0690679,17,0,16.926,5.4942341,0,0.0285262,0.0377389,0,0,0,222.6, -1.4, 3.2,0,0,1024,1024,1024,1024,0,0,0,0,359.9214808,0.0159299,97,4.233,4.236,4.237,4.24,0,0,4.436,38,5.4942341,0,10,Assisted_Takeoff,
3000,2022-07-07 08:10:28,32.8256841293249,34.9559631128377,0,,,5.4942341,0.1,0.00716234,0.0438031,0.0752367,17,0,16.924,5.4942341,0,0.0285262,0.0438031,0,0,0,222.6, -1.4, 3.2,0,0,1024,1024,1024,1024,0,0,0,0,359.9214784,0.0159111,97,4.254,4.256,4.253,4.254,0,0,2.534,38,5.4942341,0,10,Assisted_Takeoff,
3100,2022-07-07 08:10:28,32.8256841081413,34.9559631099954,0,,,5.4942341,0.1,0.00640755,0.0440851,0.0776074,17,0,16.924,5.4942341,0,0.0285262,0.0440851,0,0,0,222.6, -1.4, 3.2,0,0,1024,1024,1024,1024,0,0,0,0,359.9214744,0.0159476,97,4.254,4.256,4.253,4.254,0,0,2.534,38,5.4942341,0,10,Assisted_Takeoff,
3200,2022-07-07 08:10:28,32.8256840579066,34.9559631144418,0,,,5.4942341,0.1,0.00718487,0.0442139,0.0832093,17,0,16.924,5.4942341,0,0.0285262,0.0442139,0,0,0,222.6, -1.3, 3.2,0,0,1024,1024,1024,1024,0,0,0,0,359.921475,0.0159021,97,4.254,4.256,4.253,4.254,0,0,2.534,38,5.4942341,0,10,Assisted_Takeoff,
3300,2022-07-07 08:10:28,32.8256840274034,34.9559631241503,0,,,5.4942341,0.1,0.0171754,0.0439999,0.0867206,17,0,16.924,5.4942341,0,0.0285262,0.0442139,0,0,0,222.6, -1.3, 3.2,0,0,1024,1024,1024,1024,0,0,0,0,359.9213672,0.0170253,97,4.254,4.256,4.253,4.254,0,0,2.534,38,5.4942341,0,10,Assisted_Takeoff,
3400,2022-07-07 08:10:28,32.8256840291801,34.9559631503237,0,,,5.4942341,0.1,0.032727,0.041579,0.0891745,17,0,16.924,5.4942341,0,0.032727,0.0442139,0,0,0,222.7, -0.9, 3.2,0,0,1024,1024,1024,1024,0,0,0,0,359.9213717,0.0170017,97,4.254,4.256,4.253,4.254,0,0,2.534,38,5.4942341,0,10,Assisted_Takeoff,
3500,2022-07-07 08:10:28,32.825683982403,34.9559632225066,0,,,5.4942341,0.1,0.0956564,0.0369409,0.0976927,17,0,16.924,5.4942341,0,0.0956564,0.0442139,0.1,0,-0.1,222.9, 0.1, 3.1,0,0,1024,1024,1024,1024,0,0,0,0,359.9210568,0.0153535,97,4.254,4.256,4.253,4.254,0,0,2.534,38,5.4942341,0,10,Assisted_Takeoff,
3600,2022-07-07 08:10:28,32.8256840776377,34.9559632581018,0,,,5.4942341,0.1,0.265554,0.0306109,0.108793,17,0,16.924,5.4942341,0,0.265554,0.0442139,0.1,0.1,-0.2,223.4, 2.5, 1.9,0,0,1024,1024,1024,1024,0,0,0,0,359.9210581,0.0153617,97,4.254,4.256,4.253,4.254,0,0,2.534,38,5.4942341,0,10,Assisted_Takeoff,
3700,2022-07-07 08:10:28,32.8256842261131,34.9559634043541,0,,,5.4942341,0.1,0.547242,0.0202313,0.130227,17,0,16.924,5.4942341,0,0.547242,0.0442139,0.2,0.2,-0.5,223.9, 4.3, 0,0,0,1024,1024,1024,1024,0,0,0,0,359.921029,0.0153743,97,4.254,4.256,4.253,4.254,0,0,2.534,38,5.4942341,0,10,Assisted_Takeoff,
3800,2022-07-07 08:10:29,32.8256844093814,34.9559636908179,0,,,5.4942341,0.1,0.948896,0.0336043,0.163873,17,0,16.924,5.4942341,0,0.948896,0.0442139,0.2,0.3,-0.9,223.9, 2.6, -0.5,0,0,1024,1024,1024,1024,0,0,0,0,359.9209923,0.0153813,97,4.254,4.256,4.253,4.254,0,0,2.534,38,5.4942341,0,6,P-GPS,
3900,2022-07-07 08:10:29,32.8256846431657,34.9559640102951,0,,,5.4942341,0.2,1.42027,0.0705062,0.203461,17,0,16.924,5.4942341,0,1.42027,0.0705062,0.2,0.3,-1.4,223.9, -1.1, -0.3,0,0,1024,1024,1024,1024,0,0,0,0,359.9210027,0.0152713,97,4.254,4.256,4.253,4.254,0,0,2.534,38,5.4942341,0,6,P-GPS,
4000,2022-07-07 08:10:29,32.8256848007625,34.9559643261168,0.1,,,5.5942341,0.3,1.91053,0.102704,0.237785,17,0,16.732,5.5942341,0.1,1.91053,0.102704,0.1,0.3,-1.9,223.8, -2.5, 0.1,0,0,1024,1024,1024,1024,0,0,0,0,359.9210259,0.0152027,97,4.212,4.211,4.203,4.2,0,0,6.992,38,5.5942341,0.1,6,P-GPS,
4100,2022-07-07 08:10:29,32.8256849070359,34.9559646119238,0.3,,,5.7942341,0.3,2.41663,0.130013,0.266992,17,0,16.732,5.7942341,0.3,2.41663,0.130013,0.1,0.3,-2.4,223.9, -3.2, 0.8,0,0,1024,1024,1024,1024,0,0,0,0,359.9211824,0.0148068,97,4.212,4.211,4.203,4.2,0,0,6.992,38,5.7942341,0.3,6,P-GPS,
4200,2022-07-07 08:10:29,32.8256849691155,34.9559648555926,0.5,,,5.9942341,0.6,2.96714,0.151859,0.290786,17,0,16.732,5.9942341,0.5,2.96714,0.151859,0.1,0.2,-3,223.8, -4.1, 1.8,0,0,1024,1024,1024,1024,0,0,0,0,359.921291,0.0147893,97,4.212,4.211,4.203,4.2,0,0,6.992,38,5.9942341,0.5,6,P-GPS,
4300,2022-07-07 08:10:29,32.8256850648077,34.9559648644652,0.7,,,6.1942341,0.8,3.50523,0.159307,0.30146,17,0,16.732,6.1942341,0.7,3.50523,0.159307,0.1,0.2,-3.5,223.8, -4.4, 3,0,0,1024,1024,1024,1024,0,0,0,0,359.9217665,0.0150114,97,4.212,4.211,4.203,4.2,0,0,6.992,38,6.1942341,0.7,6,P-GPS,
4400,2022-07-07 08:10:29,32.8256851656939,34.9559650086438,1,,,6.4942341,1.1,3.92605,0.176835,0.318992,17,0,16.732,6.4942341,1,3.92605,0.176835,0.1,0.2,-3.9,223.8, -3.8, 2.6,0,0,1024,1024,1024,1024,0,0,0,0,359.9216797,0.0149953,97,4.212,4.211,4.203,4.2,0,0,6.992,38,6.4942341,1,6,P-GPS,
4500,2022-07-07 08:10:29,32.8256852685192,34.9559651711372,1.4,,,6.8942341,0.1,4.29592,0.195801,0.338001,17,0,16.732,6.8942341,1.4,4.29592,0.195801,0.1,0.2,-4.3,223.8, -3.1, 0.7,0,0,1024,1024,1024,1024,0,0,0,0,359.9215052,0.0144556,97,4.212,4.211,4.203,4.2,0,0,6.992,38,6.8942341,1.4,6,P-GPS,
4600,2022-07-07 08:10:29,32.825685380011,34.955965393682,1.8,,,7.2942341,0.4,4.44033,0.219695,0.362213,17,0,16.732,7.2942341,1.8,4.44033,0.219695,0.1,0.2,-4.4,223.7, -3.2, 0.3,0,0,1024,1024,1024,1024,0,0,0,0,359.9215044,0.0145587,97,4.212,4.211,4.203,4.2,0,0,6.992,38,7.2942341,1.8,6,P-GPS,
4700,2022-07-07 08:10:29,32.8256855709245,34.955965750028,2.2,,,7.6942341,0.9,4.36975,0.258934,0.401706,17,0,16.732,7.6942341,2.2,4.44033,0.258934,0.1,0.3,-4.4,223.8, -3.4, 1.6,0,0,1024,1024,1024,1024,0,0,0,0,359.9212825,0.0131133,97,4.212,4.211,4.203,4.2,0,0,6.992,38,7.6942341,2.2,6,P-GPS,
4800,2022-07-07 08:10:30,32.8256856500945,34.9559660688681,2.7,,,8.1942341,1.3,4.09884,0.287969,0.432775,17,0,16.732,8.1942341,2.7,4.44033,0.287969,0.1,0.3,-4.1,223.9, -2.7, 2.5,0,0,1024,1024,1024,1024,0,0,0,0,359.9212824,0.0130824,97,4.212,4.211,4.203,4.2,0,0,6.992,38,8.1942341,2.7,6,P-GPS,
4900,2022-07-07 08:10:30,32.8256857676564,34.9559663726817,3.1,,,8.5942341,1.5,3.62157,0.318664,0.464031,17,0,16.732,8.5942341,3.1,4.44033,0.318664,0.1,0.3,-3.6,223.8, -3.9, 3.3,0,0,1024,1024,1024,1024,0,0,0,0,359.9212494,0.0134549,97,4.212,4.211,4.203,4.2,0,0,6.992,38,8.5942341,3.1,6,P-GPS,
5000,2022-07-07 08:10:30,32.8256859285886,34.9559666831183,3.5,,,8.9942341,0.2,3.06813,0.352696,0.498117,17,0,16.969,8.9942341,3.5,4.44033,0.352696,0.2,0.3,-3,223.7, -5.4, 3.5,0,0,1024,1024,1024,1024,0,0,0,0,359.9212545,0.0134186,97,4.212,4.211,4.203,4.2,0,0,6.992,38,8.9942341,3.5,6,P-GPS,
5100,2022-07-07 08:10:30,32.8256860667222,34.9559670037532,3.8,,,9.2942341,0.4,2.48734,0.386098,0.531789,17,0,16.969,9.2942341,3.8,4.44033,0.386098,0.2,0.3,-2.5,223.5, -6.3, 2.9,0,0,1024,1024,1024,1024,0,0,0,0,359.9212217,0.0137949,97,4.212,4.211,4.203,4.2,0,0,6.992,38,9.2942341,3.8,6,P-GPS,
5200,2022-07-07 08:10:30,32.8256861784639,34.9559674298439,4.1,,,9.5942341,0.7,1.84425,0.426211,0.5735,17,0,16.969,9.5942341,4.1,4.44033,0.426211,0.2,0.3,-1.8,223.5, -6.5, 2.8,0,0,1024,1024,1024,1024,0,0,0,0,359.9212122,0.0138389,97,4.212,4.211,4.203,4.2,0,0,6.992,38,9.5942341,4.1,6,P-GPS,
5300,2022-07-07 08:10:30,32.8256862742783,34.9559678153171,4.4,,,9.8942341,0.9,1.22459,0.46244,0.611065,17,0,16.969,9.8942341,4.4,4.44033,0.46244,0.2,0.3,-1.2,223.5, -7.4, 2.9,0,0,1024,1024,1024,1024,0,0,0,0,359.9211273,0.0140651,97,4.212,4.211,4.203,4.2,0,0,6.992,38,9.8942341,4.4,6,P-GPS,
5400,2022-07-07 08:10:30,32.825686371745,34.9559682296792,4.6,,,10.0942341,1,0.780634,0.501296,0.651276,17,0,16.969,10.0942341,4.6,4.44033,0.501296,0.2,0.3,-0.7,223.5, -8, 2.7,0,0,1024,1024,1024,1024,0,0,0,0,359.9211227,0.0141069,97,4.212,4.211,4.203,4.2,0,0,6.992,38,10.0942341,4.6,6,P-GPS,
5500,2022-07-07 08:10:30,32.8256864628397,34.9559685756446,4.7,,,10.1942341,0.1,0.487524,0.534417,0.685156,17,0,16.969,10.1942341,4.7,4.44033,0.534417,0.1,0.3,-0.4,223.6, -7.5, 2.5,0,0,1024,1024,1024,1024,0,0,0,0,359.9210804,0.0143539,97,4.212,4.211,4.203,4.2,0,0,6.992,38,10.1942341,4.7,6,P-GPS,
5600,2022-07-07 08:10:30,32.825686519786,34.9559689270268,4.7,,,10.1942341,0.1,0.352294,0.566275,0.718597,17,0,16.969,10.1942341,4.7,4.44033,0.566275,0.1,0.2,-0.2,225.3, -7.5, 2.4,0,0,1024,1024,1024,1024,0,0,0,0,359.9210893,0.0143574,97,4.212,4.211,4.203,4.2,0,0,6.992,38,10.1942341,4.7,6,P-GPS,
5700,2022-07-07 08:10:30,32.8256866460643,34.9559691343325,4.8,,,10.2942341,0.1,0.257908,0.589987,0.742524,17,0,16.969,10.2942341,4.8,4.44033,0.589987,0.1,0.2,-0.1,230.6, -7.4, 2.1,0,0,1024,1024,1024,1024,0,0,0,0,359.9210088,0.0147001,97,4.212,4.211,4.203,4.2,0,0,6.992,38,10.2942341,4.8,6,P-GPS,
5800,2022-07-07 08:10:31,32.8256868326095,34.9559692702091,4.8,,,10.2942341,0.1,0.193889,0.611148,0.766847,17,0,16.969,10.2942341,4.8,4.44033,0.611148,0.1,0.1,0,237.4, -7.2, 1.5,0,0,1024,1024,1024,1024,0,0,0,0,359.9210107,0.0146907,97,4.212,4.211,4.203,4.2,0,0,6.992,38,10.2942341,4.8,6,P-GPS,
5900,2022-07-07 08:10:31,32.8256869847906,34.9559693512256,4.8,,,10.2942341,0.1,0.160876,0.626179,0.785386,17,0,16.969,10.2942341,4.8,4.44033,0.626179,0.1,0.1,0,243.5, -7.3, 0.2,0,0,1024,1024,1024,1024,0,0,0,0,359.921065,0.0148245,97,4.212,4.211,4.203,4.2,0,0,6.992,38,10.2942341,4.8,6,P-GPS,
6000,2022-07-07 08:10:31,32.8256871993495,34.9559692961153,4.8,,,10.2942341,0.1,0.13315,0.634301,0.809796,17,0,15.968,10.2942341,4.8,4.44033,0.634301,0.1,0.1,0,246.4, -7.3, -0.3,0,0,1024,1024,1024,1024,0,0,0,0,359.921085,0.0151183,97,4.117,4.133,4.139,4.147,0,0,27.05,38,10.2942341,4.8,6,P-GPS,
6100,2022-07-07 08:10:31,32.8256872726765,34.9559692863798,4.8,,,10.2942341,0.1,0.130109,0.637977,0.818001,17,0,15.968,10.2942341,4.8,4.44033,0.637977,0.1,0,0.1,246.8, -7.2, -0.9,0,0,1024,1024,1024,1024,0,0,0,0,359.9210201,0.0149995,97,4.117,4.133,4.139,4.147,0,0,27.05,38,10.2942341,4.8,6,P-GPS,
6200,2022-07-07 08:10:31,32.8256873034234,34.9559692283047,4.8,,,10.2942341,0.1,0.0859549,0.635347,0.824415,17,0,15.968,10.2942341,4.8,4.44033,0.637977,0.1,0,0,246.7, -7, -1.6,0,0,1024,1024,1024,1024,0,0,0,0,359.9210232,0.0151295,97,4.117,4.133,4.139,4.147,0,0,27.05,38,10.2942341,4.8,6,P-GPS,
6300,2022-07-07 08:10:31,32.8256873268701,34.9559691376662,4.8,,,10.2942341,0.1,0.0620384,0.629802,0.833278,17,0,15.968,10.2942341,4.8,4.44033,0.637977,0.1,0,0,246.6, -6.3, -2.2,0,0,1024,1024,1024,1024,0,0,0,0,359.9210083,0.0152811,97,4.117,4.133,4.139,4.147,0,0,27.05,38,10.2942341,4.8,6,P-GPS,
6400,2022-07-07 08:10:31,32.8256871995217,34.9559689452495,4.8,,,10.2942341,0.1,0.0539414,0.606965,0.856166,17,0,15.968,10.2942341,4.8,4.44033,0.637977,0,-0.1,0,246.6, -6.2, -2.2,0,0,1024,1024,1024,1024,0,0,0,0,359.9210087,0.0154026,97,4.117,4.133,4.139,4.147,0,0,27.05,38,10.2942341,4.8,6,P-GPS,
6500,2022-07-07 08:10:31,32.8256872236614,34.9559688029269,4.8,,,10.2942341,0.1,0.0835037,0.597574,0.869734,17,0,15.968,10.2942341,4.8,4.44033,0.637977,0,-0.1,0,246.8, -6.1, -2.1,0,0,1024,1024,1024,1024,0,0,0,0,359.9210025,0.0157411,97,4.117,4.133,4.139,4.147,0,0,27.05,38,10.2942341,4.8,6,P-GPS,
6600,2022-07-07 08:10:31,32.8256872665007,34.9559686165754,4.7,,,10.1942341,0.1,0.129379,0.586271,0.887789,17,0,15.968,10.2942341,4.8,4.44033,0.637977,0,-0.1,0,246.8, -6.1, -1.1,0,0,1024,1024,1024,1024,0,0,0,0,359.9210263,0.0157008,97,4.117,4.133,4.139,4.147,0,0,27.05,38,10.1942341,4.7,6,P-GPS,
6700,2022-07-07 08:10:31,32.8256873308427,34.9559683900586,4.7,,,10.1942341,0.1,0.170109,0.573845,0.910133,17,0,15.968,10.2942341,4.8,4.44033,0.637977,0,-0.2,0,246.8, -6.1, -1,0,0,1024,1024,1024,1024,0,0,0,0,359.9210048,0.0156274,97,4.117,4.133,4.139,4.147,0,0,27.05,38,10.1942341,4.7,6,P-GPS,
6800,2022-07-07 08:10:32,32.8256874129391,34.9559681158272,4.7,,,10.1942341,0.1,0.194137,0.559932,0.937337,17,0,15.968,10.2942341,4.8,4.44033,0.637977,0.1,-0.2,0,246.8, -5, -1.7,0,0,1024,1024,1024,1024,0,0,0,0,359.9210256,0.0158659,97,4.117,4.133,4.139,4.147,0,0,27.05,38,10.1942341,4.7,6,P-GPS,
6900,2022-07-07 08:10:32,32.8256875448803,34.9559678190465,4.7,,,10.1942341,0.1,0.214925,0.549314,0.968713,17,0,15.968,10.2942341,4.8,4.44033,0.637977,0.1,-0.2,0,246.8, -4.4, -2.8,0,0,1024,1024,1024,1024,0,0,0,0,359.9210457,0.0166633,97,4.117,4.133,4.139,4.147,0,0,27.05,38,10.1942341,4.7,6,P-GPS,
7000,2022-07-07 08:10:32,32.8256876140245,34.955967545851,4.8,,,10.2942341,0.1,0.231381,0.536742,0.995376,17,0,16.47,10.2942341,4.8,4.44033,0.637977,0.1,-0.2,0,246.9, -4.1, -2.5,0,0,1024,1024,1024,1024,0,0,0,0,359.9210574,0.0175641,97,4.144,4.141,4.133,4.135,0,0,13.218,38,10.2942341,4.8,6,P-GPS,
7100,2022-07-07 08:10:32,32.8256876721951,34.9559672863432,4.8,,,10.2942341,0.1,0.236825,0.525146,1.02047,17,0,16.47,10.2942341,4.8,4.44033,0.637977,0.1,-0.2,0,246.9, -4.1, -3.2,0,0,1024,1024,1024,1024,0,0,0,0,359.920934,0.0188664,97,4.144,4.141,4.133,4.135,0,0,13.218,38,10.2942341,4.8,6,P-GPS,
7200,2022-07-07 08:10:32,32.8256877203926,34.9559670240338,4.8,,,10.2942341,0.1,0.203337,0.513486,1.04557,17,0,16.47,10.2942341,4.8,4.44033,0.637977,0,-0.2,0,246.9, -3.6, -4.1,0,0,1024,1024,1024,1024,0,0,0,0,359.9209252,0.0191874,97,4.144,4.141,4.133,4.135,0,0,13.218,38,10.2942341,4.8,6,P-GPS,
7300,2022-07-07 08:10:32,32.8256877513782,34.9559668638986,4.8,,,10.2942341,0.1,0.180854,0.506984,1.06092,17,0,16.47,10.2942341,4.8,4.44033,0.637977,0,-0.2,0,246.8, -2.8, -4,0,0,1024,1024,1024,1024,0,0,0,0,359.9209862,0.0150573,97,4.144,4.141,4.133,4.135,0,0,13.218,38,10.2942341,4.8,6,P-GPS,
7400,2022-07-07 08:10:32,32.8256877777256,34.955966651821,4.8,,,10.2942341,0.1,0.1722,0.497636,1.08096,17,0,16.47,10.2942341,4.8,4.44033,0.637977,0,-0.2,0,246.7, -2.5, -3.5,0,0,1024,1024,1024,1024,0,0,0,0,359.9209701,0.015472,97,4.144,4.141,4.133,4.135,0,0,13.218,38,10.2942341,4.8,6,P-GPS,
7500,2022-07-07 08:10:32,32.8256877774341,34.9559664637335,4.8,,,10.2942341,0.1,0.15845,0.487687,1.09853,17,0,16.47,10.2942341,4.8,4.44033,0.637977,0,-0.2,0,246.5, -3.2, -3.7,0,0,1024,1024,1024,1024,0,0,0,0,359.9210532,0.0136707,97,4.144,4.141,4.133,4.135,0,0,13.218,38,10.2942341,4.8,6,P-GPS,
7600,2022-07-07 08:10:33,32.8256877331979,34.9559662794177,4.8,,,10.2942341,0.1,0.162678,0.474216,1.11645,17,0,16.47,10.2942341,4.8,4.44033,0.637977,-0.1,-0.1,0,246.4, -3.6, -4.5,0,0,1024,1024,1024,1024,0,0,0,0,359.9210978,0.0133507,97,4.144,4.141,4.133,4.135,0,0,13.218,38,10.2942341,4.8,6,P-GPS,
7700,2022-07-07 08:10:33,32.8256876545206,34.95596603447,4.8,,,10.2942341,0.1,0.161894,0.454874,1.14095,17,0,16.47,10.2942341,4.8,4.44033,0.637977,-0.1,-0.1,0,246.4, -3.1, -4,0,0,1024,1024,1024,1024,0,0,0,0,359.9204334,0.015824,97,4.144,4.141,4.133,4.135,0,0,13.218,38,10.2942341,4.8,6,P-GPS,
7800,2022-07-07 08:10:33,32.8256875853396,34.9559658180044,4.8,,,10.2942341,0.1,0.1769,0.438246,1.16259,17,0,16.47,10.2942341,4.8,4.44033,0.637977,-0.1,-0.1,-0.1,246.4, -2.6, -2.3,0,0,1024,1024,1024,1024,0,0,0,0,359.9204711,0.0152344,97,4.144,4.141,4.133,4.135,0,0,13.218,38,10.2942341,4.8,6,P-GPS,
7900,2022-07-07 08:10:33,32.8256875091805,34.9559656290853,4.8,,,10.2942341,0.1,0.599832,0.422539,1.18217,17,0,16.47,10.2942341,4.8,4.44033,0.637977,-0.1,-0.1,-0.6,246.3, -2.3, -1.8,0,0,1024,1024,1024,1024,0,0,0,0,359.9217792,0.0109442,97,4.144,4.141,4.133,4.135,0,0,13.218,38,10.2942341,4.8,6,P-GPS,
8000,2022-07-07 08:10:33,32.8256874187942,34.9559654531155,4.8,,,10.2942341,0.1,1.21523,0.406256,1.20145,17,0,16.252,10.2942341,4.8,4.44033,0.637977,-0.1,-0.1,-1.2,246.3, -2.4, -1.9,0,0,1024,1024,1024,1024,0,0,0,0,359.9219064,0.00932762,97,4.144,4.141,4.133,4.135,0,0,13.218,38,10.2942341,4.8,6,P-GPS,
8100,2022-07-07 08:10:33,32.8256872991754,34.9559654027749,4.9,,,10.3942341,0.2,1.54956,0.392227,1.21556,17,0,16.252,10.3942341,4.9,4.44033,0.637977,0,-0.1,-1.5,246.3, -2.2, -1.2,0,0,1024,1024,1024,1024,0,0,0,0,359.9218696,0.00925069,97,4.144,4.141,4.133,4.135,0,0,13.218,38,10.3942341,4.9,6,P-GPS,
8200,2022-07-07 08:10:33,32.8256872370822,34.9559653291078,5,,,10.4942341,0.3,1.69761,0.383032,1.22531,17,0,16.252,10.4942341,5,4.44033,0.637977,0,-0.1,-1.7,246.4, -2.2, -1.6,0,0,1024,1024,1024,1024,0,0,0,0,359.921854,0.00935661,97,4.144,4.141,4.133,4.135,0,0,13.218,38,10.4942341,5,6,P-GPS,
8300,2022-07-07 08:10:33,32.8256871959919,34.9559652683082,5.2,,,10.6942341,0.4,1.74019,0.37649,1.2326,17,0,16.252,10.6942341,5.2,4.44033,0.637977,0,0,-1.7,246.5, -2.2, -2.6,0,0,1024,1024,1024,1024,0,0,0,0,359.9219233,0.00837265,97,4.144,4.141,4.133,4.135,0,0,13.218,38,10.6942341,5.2,6,P-GPS,
8400,2022-07-07 08:10:33,32.825687166559,34.9559652302431,5.3,,,10.7942341,0.6,1.68386,0.372033,1.23743,17,0,16.252,10.7942341,5.3,4.44033,0.637977,0,0,-1.7,246.6, -2, -3,0,0,1024,1024,1024,1024,0,0,0,0,359.9219113,0.00841999,97,4.144,4.141,4.133,4.135,0,0,13.218,38,10.7942341,5.3,6,P-GPS,
8500,2022-07-07 08:10:33,32.8256871261424,34.9559652558309,5.5,,,10.9942341,0.7,1.53519,0.368954,1.24252,17,0,16.252,10.9942341,5.5,4.44033,0.637977,0,0.1,-1.5,246.6, -2.1, -3,0,0,1024,1024,1024,1024,0,0,0,0,359.9219811,0.00799019,97,4.144,4.141,4.133,4.135,0,0,13.218,38,10.9942341,5.5,6,P-GPS,
8600,2022-07-07 08:10:33,32.8256870467228,34.9559652863373,5.6,,,11.0942341,0.8,1.06307,0.36222,1.2518,17,0,16.252,11.0942341,5.6,4.44033,0.637977,0,0.1,-1.1,246.8, -3.4, -1.4,0,0,1024,1024,1024,1024,0,0,0,0,359.9219744,0.00798207,97,4.144,4.141,4.133,4.135,0,0,13.218,38,11.0942341,5.6,6,P-GPS,
8700,2022-07-07 08:10:33,32.8256870020955,34.9559653775264,5.8,,,11.2942341,0.1,0.537522,0.361645,1.26167,17,0,16.252,11.2942341,5.8,4.44033,0.637977,0,0.1,-0.5,246.9, -6.1, -1.9,0,0,1024,1024,1024,1024,0,0,0,0,359.9219705,0.00807698,97,4.144,4.141,4.133,4.135,0,0,13.218,38,11.2942341,5.8,6,P-GPS,
8800,2022-07-07 08:10:34,32.8256869486455,34.9559654980034,5.9,,,11.3942341,0.2,0.340269,0.361829,1.2744,17,0,16.252,11.3942341,5.9,4.44033,0.637977,0,0.1,-0.3,246.8, -6.1, -2.6,0,0,1024,1024,1024,1024,0,0,0,0,359.9219938,0.00765787,97,4.144,4.141,4.133,4.135,0,0,13.218,38,11.3942341,5.9,6,P-GPS,
8900,2022-07-07 08:10:34,32.8256869326165,34.955965629334,5.9,,,11.3942341,0.2,0.212073,0.366536,1.2868,17,0,16.252,11.3942341,5.9,4.44033,0.637977,0,0.1,-0.2,246.8, -4.2, -1.9,0,0,1024,1024,1024,1024,0,0,0,0,359.9218387,0.00789192,97,4.144,4.141,4.133,4.135,0,0,13.218,38,11.3942341,5.9,6,P-GPS,
9000,2022-07-07 08:10:34,32.8256869640359,34.9559658667644,5.9,,,11.3942341,0.2,0.153818,0.381484,1.30926,17,0,16.382,11.3942341,5.9,4.44033,0.637977,0,0.1,-0.1,246.9, -5, -1.2,0,0,1024,1024,1024,1024,0,0,0,0,359.9218295,0.00789051,97,4.133,4.133,4.127,4.13,0,0,13.904,38,11.3942341,5.9,6,P-GPS,
9100,2022-07-07 08:10:34,32.8256869736991,34.9559659791088,6,,,11.4942341,0.2,0.12923,0.388336,1.31981,17,0,16.382,11.4942341,6,4.44033,0.637977,0,0.1,-0.1,246.8, -5.5, -1.5,0,0,1024,1024,1024,1024,0,0,0,0,359.9218269,0.00822575,97,4.133,4.133,4.127,4.13,0,0,13.904,38,11.4942341,6,6,P-GPS,
9200,2022-07-07 08:10:34,32.8256869498911,34.9559660617998,6,,,11.4942341,0.1,0.116974,0.390711,1.32798,17,0,16.382,11.4942341,6,4.44033,0.637977,0,0.1,-0.1,246.8, -5.5, -2,0,0,1024,1024,1024,1024,0,0,0,0,359.9218239,0.00822025,97,4.133,4.133,4.127,4.13,0,0,13.904,38,11.4942341,6,6,P-GPS,
9300,2022-07-07 08:10:34,32.8256869117889,34.9559661494626,6,,,11.4942341,0.1,0.105525,0.392265,1.3372,17,0,16.382,11.4942341,6,4.44033,0.637977,0,0.1,0,246.8, -5.6, -2,0,0,1024,1024,1024,1024,0,0,0,0,359.9217822,0.00916386,97,4.133,4.133,4.127,4.13,0,0,13.904,38,11.4942341,6,6,P-GPS,
9400,2022-07-07 08:10:34,32.825686850124,34.955966232244,6,,,11.4942341,0.1,0.149036,0.391709,1.34754,17,0,16.382,11.4942341,6,4.44033,0.637977,-0.1,0.1,0.1,246.9, -5.5, -1.6,0,0,1024,1024,1024,1024,0,0,0,0,359.9217796,0.00917078,97,4.133,4.133,4.127,4.13,0,0,13.904,38,11.4942341,6,6,P-GPS,
9500,2022-07-07 08:10:34,32.8256867581802,34.9559663265644,5.9,,,11.3942341,0.1,0.155063,0.389589,1.36104,17,0,16.382,11.4942341,6,4.44033,0.637977,-0.1,0.1,0.1,246.9, -5.4, -1.4,0,0,1024,1024,1024,1024,0,0,0,0,359.9217832,0.00850181,97,4.133,4.133,4.127,4.13,0,0,13.904,38,11.3942341,5.9,6,P-GPS,
9600,2022-07-07 08:10:34,32.8256866247639,34.9559664304862,5.9,,,11.3942341,0.1,0.168178,0.385196,1.37877,17,0,16.382,11.4942341,6,4.44033,0.637977,-0.1,0.1,0,246.9, -4.8, -0.7,0,0,1024,1024,1024,1024,0,0,0,0,359.9217836,0.00844963,97,4.133,4.133,4.127,4.13,0,0,13.904,38,11.3942341,5.9,6,P-GPS,
9700,2022-07-07 08:10:34,32.8256865361533,34.9559665300566,5.9,,,11.3942341,0.1,0.138783,0.384744,1.39233,17,0,16.382,11.4942341,6,4.44033,0.637977,-0.1,0.1,0,247.1, -4.9, 0.2,0,0,1024,1024,1024,1024,0,0,0,0,359.921769,0.00861502,97,4.133,4.133,4.127,4.13,0,0,13.904,38,11.3942341,5.9,6,P-GPS,
9800,2022-07-07 08:10:35,32.8256864940145,34.9559665896449,5.9,,,11.3942341,0.1,0.0875798,0.385529,1.3996,17,0,16.382,11.4942341,6,4.44033,0.637977,0,0.1,0,247, -6.5, 1.4,0,0,1024,1024,1024,1024,0,0,0,0,359.9218004,0.0081899,97,4.133,4.133,4.127,4.13,0,0,13.904,38,11.3942341,5.9,6,P-GPS,
9900,2022-07-07 08:10:35,32.8256865425213,34.9559666234518,5.9,,,11.3942341,0.1,0.068988,0.391529,1.40586,17,0,16.382,11.4942341,6,4.44033,0.637977,0.1,0,0,246.9, -7.2, 1.3,0,0,1024,1024,1024,1024,0,0,0,0,359.9218395,0.00760179,97,4.133,4.133,4.127,4.13,0,0,13.904,38,11.3942341,5.9,6,P-GPS,
10000,2022-07-07 08:10:35,32.8256866306464,34.9559666223308,5.9,,,11.3942341,0.1,0.078752,0.398256,1.41566,17,0,16.344,11.4942341,6,4.44033,0.637977,0.1,0,0,247, -6.7, -0.3,0,0,1024,1024,1024,1024,0,0,0,0,359.921841,0.00754235,97,4.133,4.133,4.127,4.13,0,0,13.012,38,11.3942341,5.9,6,P-GPS,
10100,2022-07-07 08:10:35,32.8256866899704,34.9559666393991,5.9,,,11.3942341,0.1,0.0550058,0.404033,1.42244,17,0,16.344,11.4942341,6,4.44033,0.637977,0.1,0,0,246.9, -6.4, -2.3,0,0,1024,1024,1024,1024,0,0,0,0,359.9217296,0.00835988,97,4.133,4.133,4.127,4.13,0,0,13.012,38,11.3942341,5.9,6,P-GPS,
10200,2022-07-07 08:10:35,32.8256866968492,34.955966692157,5.9,,,11.3942341,0.1,0.0543623,0.408071,1.42743,17,0,16.344,11.4942341,6,4.44033,0.637977,0,0,0,246.7, -5.9, -3.5,0,0,1024,1024,1024,1024,0,0,0,0,359.9216522,0.00913954,97,4.133,4.133,4.127,4.13,0,0,13.012,38,11.3942341,5.9,6,P-GPS,
10300,2022-07-07 08:10:35,32.8256866591344,34.9559668202996,5.9,,,11.3942341,0.1,0.054452,0.413815,1.44012,17,0,16.344,11.4942341,6,4.44033,0.637977,0,0,0,246.7, -5.8, -2.7,0,0,1024,1024,1024,1024,0,0,0,0,359.9222242,0.00351704,97,4.133,4.133,4.127,4.13,0,0,13.012,38,11.3942341,5.9,6,P-GPS,
10400,2022-07-07 08:10:35,32.8256866405569,34.955966815654,5.9,,,11.3942341,0.1,0.0457411,0.41209,1.44223,17,0,16.344,11.4942341,6,4.44033,0.637977,0,0,0,246.7, -6.4, -1.4,0,0,1024,1024,1024,1024,0,0,0,0,359.9221829,0.00392255,97,4.133,4.133,4.127,4.13,0,0,13.012,38,11.3942341,5.9,6,P-GPS,
10500,2022-07-07 08:10:35,32.8256866290711,34.9559668070797,5.9,,,11.3942341,0.1,0.0436571,0.410634,1.44374,17,0,16.344,11.4942341,6,4.44033,0.637977,0,0,0,246.7, -6.2, -1.2,0,0,1024,1024,1024,1024,0,0,0,0,359.922441,-0.000743132,97,4.133,4.133,4.127,4.13,0,0,13.012,38,11.3942341,5.9,6,P-GPS,
10600,2022-07-07 08:10:35,32.8256866299895,34.9559667974403,5.9,,,11.3942341,0.1,0.0275988,0.410043,1.44465,17,0,16.344,11.4942341,6,4.44033,0.637977,0,0,0,246.7, -6.1, -1.5,0,0,1024,1024,1024,1024,0,0,0,0,359.9224543,-0.000870486,97,4.133,4.133,4.127,4.13,0,0,13.012,38,11.3942341,5.9,6,P-GPS,
10700,2022-07-07 08:10:35,32.825686671257,34.9559667146019,5.9,,,11.3942341,0.1,0.0344564,0.407583,1.45365,17,0,16.344,11.4942341,6,4.44033,0.637977,0,0,0,246.7, -6.1, -1,0,0,1024,1024,1024,1024,0,0,0,0,359.9217995,0.010251,97,4.133,4.133,4.127,4.13,0,0,13.012,38,11.3942341,5.9,6,P-GPS,
10800,2022-07-07 08:10:36,32.8256866802466,34.955966685737,5.9,,,11.3942341,0.1,0.0534244,0.406349,1.45652,17,0,16.344,11.4942341,6,4.44033,0.637977,0,0,0,246.8, -5.4, -1.1,0,0,1024,1024,1024,1024,0,0,0,0,359.9217957,0.0102865,97,4.133,4.133,4.127,4.13,0,0,13.012,38,11.3942341,5.9,6,P-GPS,
10900,2022-07-07 08:10:36,32.8256866565057,34.9559666584216,5.9,,,11.3942341,0.1,0.0504207,0.402678,1.46019,17,0,16.344,11.4942341,6,4.44033,0.637977,0,0,0,246.7, -5.4, -1.4,0,0,1024,1024,1024,1024,0,0,0,0,359.9218866,0.00727167,97,4.133,4.133,4.127,4.13,0,0,13.012,38,11.3942341,5.9,6,P-GPS,
11000,2022-07-07 08:10:36,32.8256865945458,34.9559666258615,5.9,,,11.3942341,0.1,0.0597065,0.395691,1.46773,17,0,16.319,11.4942341,6,4.44033,0.637977,0,0,-0.1,246.8, -5.7, -0.9,0,0,1024,1024,1024,1024,0,0,0,0,359.9218891,0.00724653,97,4.114,4.127,4.124,4.132,0,0,13.012,38,11.3942341,5.9,6,P-GPS,
11100,2022-07-07 08:10:36,32.8256863504586,34.9559666511399,5.9,,,11.3942341,0.1,0.0358384,0.379115,1.49497,17,0,16.319,11.4942341,6,4.44033,0.637977,0,0,0,246.7, -5.5, -0.5,0,0,1024,1024,1024,1024,0,0,0,0,359.9215659,0.010094,97,4.114,4.127,4.124,4.132,0,0,13.012,38,11.3942341,5.9,6,P-GPS,
11200,2022-07-07 08:10:36,32.8256862995398,34.9559666334001,5.9,,,11.3942341,0.1,0.0291113,0.374172,1.50087,17,0,16.319,11.4942341,6,4.44033,0.637977,0,0,0,246.7, -5.6, -1.2,0,0,1024,1024,1024,1024,0,0,0,0,359.9215645,0.0100502,97,4.114,4.127,4.124,4.132,0,0,13.012,38,11.3942341,5.9,6,P-GPS,
11300,2022-07-07 08:10:36,32.8256862629936,34.9559666169757,5.9,,,11.3942341,0.1,0.048179,0.370377,1.50522,17,0,16.319,11.4942341,6,4.44033,0.637977,0,0,0,246.7, -5.5, -1.4,0,0,1024,1024,1024,1024,0,0,0,0,359.921701,0.0086727,97,4.114,4.127,4.124,4.132,0,0,13.012,38,11.3942341,5.9,6,P-GPS,
11400,2022-07-07 08:10:36,32.8256862322787,34.9559666042412,5.9,,,11.3942341,0.1,0.0411435,0.367274,1.50883,17,0,16.319,11.4942341,6,4.44033,0.637977,0,0,0,246.6, -5.5, -0.9,0,0,1024,1024,1024,1024,0,0,0,0,359.9216762,0.00884737,97,4.114,4.127,4.124,4.132,0,0,13.012,38,11.3942341,5.9,6,P-GPS,
11500,2022-07-07 08:10:36,32.8256861617989,34.9559666651889,5.9,,,11.3942341,0.1,0.0293797,0.366773,1.51852,17,0,16.319,11.4942341,6,4.44033,0.637977,0,0,0,246.8, -5.8, -0.9,0,0,1024,1024,1024,1024,0,0,0,0,359.9214596,0.0107939,97,4.114,4.127,4.124,4.132,0,0,13.012,38,11.3942341,5.9,6,P-GPS,
11600,2022-07-07 08:10:37,32.8256861204596,34.9559666854924,5.9,,,11.3942341,0.1,0.0566964,0.365451,1.5235,17,0,16.319,11.4942341,6,4.44033,0.637977,-0.1,0,0,246.7, -6, -1.1,0,0,1024,1024,1024,1024,0,0,0,0,359.9214331,0.0110054,97,4.114,4.127,4.124,4.132,0,0,13.012,38,11.3942341,5.9,6,P-GPS,
11700,2022-07-07 08:10:37,32.8256860433625,34.9559667179239,5.9,,,11.3942341,0.1,0.129538,0.362744,1.53259,17,0,16.319,11.4942341,6,4.44033,0.637977,-0.1,0,-0.1,246.8, -5.7, -0.8,0,0,1024,1024,1024,1024,0,0,0,0,359.9213779,0.0121515,97,4.114,4.127,4.124,4.132,0,0,13.012,38,11.3942341,5.9,6,P-GPS,
11800,2022-07-07 08:10:37,32.8256859143592,34.9559667659831,5.9,,,11.3942341,0.1,0.165234,0.358204,1.54762,17,0,16.319,11.4942341,6,4.44033,0.637977,-0.2,0,0,246.9, -6.1, -1.8,0,0,1024,1024,1024,1024,0,0,0,0,359.9213886,0.0120439,97,4.114,4.127,4.124,4.132,0,0,13.012,38,11.3942341,5.9,6,P-GPS,
11900,2022-07-07 08:10:37,32.8256857642537,34.955966807583,5.9,,,11.3942341,0.1,0.167506,0.352507,1.56476,17,0,16.319,11.4942341,6,4.44033,0.637977,-0.2,0,0,246.9, -5.9, -0.8,0,0,1024,1024,1024,1024,0,0,0,0,359.9214791,0.0117206,97,4.114,4.127,4.124,4.132,0,0,13.012,38,11.3942341,5.9,6,P-GPS,
12000,2022-07-07 08:10:37,32.8256855347449,34.955966798071,5.9,,,11.3942341,0.1,0.124081,0.339193,1.5903,17,0,16.377,11.4942341,6,4.44033,0.637977,-0.1,0,0,247.1, -5.4, 1.5,0,0,1024,1024,1024,1024,0,0,0,0,359.9214906,0.0116084,97,4.11,4.109,4.101,4.104,0,0,15.32,38,11.3942341,5.9,6,P-GPS,
12100,2022-07-07 08:10:37,32.8256854673921,34.9559667807125,5.9,,,11.3942341,0.1,0.0468501,0.334337,1.59796,17,0,16.377,11.4942341,6,4.44033,0.637977,0,0,0,247, -6.4, 3,0,0,1024,1024,1024,1024,0,0,0,0,359.9220166,0.00988401,97,4.11,4.109,4.101,4.104,0,0,15.32,38,11.3942341,5.9,6,P-GPS,
12200,2022-07-07 08:10:37,32.8256854999654,34.9559667314395,5.9,,,11.3942341,0.1,0.0638847,0.331884,1.60382,17,0,16.377,11.4942341,6,4.44033,0.637977,0,0,0,246.8, -5.6, 3.1,0,0,1024,1024,1024,1024,0,0,0,0,359.9220824,0.00922453,97,4.11,4.109,4.101,4.104,0,0,15.32,38,11.3942341,5.9,6,P-GPS,
12300,2022-07-07 08:10:37,32.8256855550015,34.955966636087,5.9,,,11.3942341,0.1,0.12044,0.326947,1.61463,17,0,16.377,11.4942341,6,4.44033,0.637977,0.1,-0.1,0,246.7, -6.1, 1.4,0,0,1024,1024,1024,1024,0,0,0,0,359.921143,0.0139981,97,4.11,4.109,4.101,4.104,0,0,15.32,38,11.3942341,5.9,6,P-GPS,
12400,2022-07-07 08:10:37,32.8256855982681,34.9559664584033,5.9,,,11.3942341,0.1,0.136353,0.315036,1.63192,17,0,16.377,11.4942341,6,4.44033,0.637977,0.1,-0.1,0,246.6, -6.6, 0,0,0,1024,1024,1024,1024,0,0,0,0,359.9211221,0.0141068,97,4.11,4.109,4.101,4.104,0,0,15.32,38,11.3942341,5.9,6,P-GPS,
12500,2022-07-07 08:10:37,32.8256856592684,34.9559663228849,5.9,,,11.3942341,0.1,0.157816,0.308014,1.64629,17,0,16.377,11.4942341,6,4.44033,0.637977,0.1,-0.1,0,246.7, -5.9, -1.8,0,0,1024,1024,1024,1024,0,0,0,0,359.9199152,0.0125961,97,4.11,4.109,4.101,4.104,0,0,15.32,38,11.3942341,5.9,6,P-GPS,
12600,2022-07-07 08:10:37,32.8256857477723,34.9559662071328,5.9,,,11.3942341,0.1,0.158453,0.304813,1.66091,17,0,16.377,11.4942341,6,4.44033,0.637977,0.1,-0.1,0,246.8, -5.9, -2.8,0,0,1024,1024,1024,1024,0,0,0,0,359.9198303,0.0132278,97,4.11,4.109,4.101,4.104,0,0,15.32,38,11.3942341,5.9,6,P-GPS,
12700,2022-07-07 08:10:37,32.8256858707129,34.9559661197554,5.9,,,11.3942341,0.1,0.19986,0.306761,1.67684,17,0,16.377,11.4942341,6,4.44033,0.637977,0.2,-0.1,0,246.9, -4.7, -2.1,0,0,1024,1024,1024,1024,0,0,0,0,359.9203919,0.0119484,97,4.11,4.109,4.101,4.104,0,0,15.32,38,11.3942341,5.9,6,P-GPS,
12800,2022-07-07 08:10:38,32.8256860590412,34.9559661548485,5.9,,,11.3942341,0.1,0.265885,0.322886,1.69803,17,0,16.377,11.4942341,6,4.44033,0.637977,0.2,-0.1,0,247, -4.6, -1.7,0,0,1024,1024,1024,1024,0,0,0,0,359.9203596,0.0121973,97,4.11,4.109,4.101,4.104,0,0,15.32,38,11.3942341,5.9,6,P-GPS,
12900,2022-07-07 08:10:38,32.8256862799044,34.95596604441,5.9,,,11.3942341,0.1,0.284396,0.332544,1.72468,17,0,16.377,11.4942341,6,4.44033,0.637977,0.3,-0.1,0,247.2, -6.2, -2.6,0,0,1024,1024,1024,1024,0,0,0,0,359.9203294,0.00965756,97,4.11,4.109,4.101,4.104,0,0,15.32,38,11.3942341,5.9,6,P-GPS,
13000,2022-07-07 08:10:38,32.8256865196944,34.9559658824899,5.9,,,11.3942341,0.1,0.281048,0.342581,1.75534,17,0,16.403,11.4942341,6,4.44033,0.637977,0.3,-0.1,0,247.2, -6.6, -5.1,0,0,1024,1024,1024,1024,0,0,0,0,359.9203268,0.00965745,97,4.121,4.116,4.104,4.113,0,0,14.196,38,11.3942341,5.9,6,P-GPS,
13100,2022-07-07 08:10:38,32.8256867218539,34.9559657498027,5.9,,,11.3942341,0.1,0.243239,0.3531,1.78101,17,0,16.403,11.4942341,6,4.44033,0.637977,0.2,-0.1,0,247.1, -6, -6.2,0,0,1024,1024,1024,1024,0,0,0,0,359.9199101,0.014253,97,4.121,4.116,4.104,4.113,0,0,14.196,38,11.3942341,5.9,6,P-GPS,
13200,2022-07-07 08:10:38,32.8256869023038,34.9559654851472,5.9,,,11.3942341,0.1,0.153485,0.356759,1.81286,17,0,16.403,11.4942341,6,4.44033,0.637977,0.1,0,0,247, -6.3, -6,0,0,1024,1024,1024,1024,0,0,0,0,359.9198571,0.0146609,97,4.121,4.116,4.104,4.113,0,0,14.196,38,11.3942341,5.9,6,P-GPS,
13300,2022-07-07 08:10:38,32.8256870286186,34.9559654133523,5.9,,,11.3942341,0.1,0.0909964,0.365815,1.82843,17,0,16.403,11.4942341,6,4.44033,0.637977,0.1,0,0,246.9, -6.4, -6.1,0,0,1024,1024,1024,1024,0,0,0,0,359.9193993,0.0131822,97,4.121,4.116,4.104,4.113,0,0,14.196,38,11.3942341,5.9,6,P-GPS,
13400,2022-07-07 08:10:38,32.8256871336483,34.9559653473415,6,,,11.4942341,0.1,0.0660321,0.37341,1.84163,17,0,16.403,11.4942341,6,4.44033,0.637977,0.1,0,0,246.8, -6.8, -5.6,0,0,1024,1024,1024,1024,0,0,0,0,359.9194465,0.0127002,97,4.121,4.116,4.104,4.113,0,0,14.196,38,11.4942341,6,6,P-GPS,
13500,2022-07-07 08:10:38,32.8256872074952,34.9559652876666,6,,,11.4942341,0.1,0.0809566,0.378411,1.85156,17,0,16.403,11.4942341,6,4.44033,0.637977,0.1,0,-0.1,246.8, -6.4, -4.1,0,0,1024,1024,1024,1024,0,0,0,0,359.9181541,0.0140135,97,4.121,4.116,4.104,4.113,0,0,14.196,38,11.4942341,6,6,P-GPS,
13600,2022-07-07 08:10:38,32.8256872644435,34.9559652465266,6,,,11.4942341,0.1,0.0614502,0.382584,1.85897,17,0,16.403,11.4942341,6,4.44033,0.637977,0,0,0,246.7, -5.7, -3.2,0,0,1024,1024,1024,1024,0,0,0,0,359.9183101,0.012567,97,4.121,4.116,4.104,4.113,0,0,14.196,38,11.4942341,6,6,P-GPS,
13700,2022-07-07 08:10:38,32.8256873677457,34.9559652244338,6,,,11.4942341,0.1,0.0847326,0.392294,1.87064,17,0,16.403,11.4942341,6,4.44033,0.637977,0.1,0,0,246.8, -5.6, -4.2,0,0,1024,1024,1024,1024,0,0,0,0,359.9199913,0.00913104,97,4.121,4.116,4.104,4.113,0,0,14.196,38,11.4942341,6,6,P-GPS,
13800,2022-07-07 08:10:39,32.8256874352775,34.955965195793,6,,,11.4942341,0.1,0.121357,0.398194,1.87861,17,0,16.403,11.4942341,6,4.44033,0.637977,0.1,0,0,246.9, -6, -3.9,0,0,1024,1024,1024,1024,0,0,0,0,359.9200551,0.00853276,97,4.121,4.116,4.104,4.113,0,0,14.196,38,11.4942341,6,6,P-GPS,
13900,2022-07-07 08:10:39,32.8256875167569,34.9559651901337,6,,,11.4942341,0.1,0.130098,0.406398,1.88769,17,0,16.403,11.4942341,6,4.44033,0.637977,0.1,0,0,247, -6.1, -4.2,0,0,1024,1024,1024,1024,0,0,0,0,359.9200663,0.00884872,97,4.121,4.116,4.104,4.113,0,0,14.196,38,11.4942341,6,6,P-GPS,
14000,2022-07-07 08:10:39,32.8256876065749,34.9559652026922,6,,,11.4942341,0.1,0.121881,0.41612,1.89775,17,0,16.382,11.4942341,6,4.44033,0.637977,0.1,0,0,247, -6.6, -4.9,0,0,1024,1024,1024,1024,0,0,0,0,359.9200699,0.00883222,97,4.103,4.102,4.098,4.105,0,0,15.384,38,11.4942341,6,6,P-GPS,
14100,2022-07-07 08:10:39,32.8256876660783,34.9559652499747,6,,,11.4942341,0.1,0.119929,0.423895,1.9057,17,0,16.382,11.4942341,6,4.44033,0.637977,0.1,0,0,247, -6.9, -5.2,0,0,1024,1024,1024,1024,0,0,0,0,359.9188893,0.0112768,97,4.103,4.102,4.098,4.105,0,0,15.384,38,11.4942341,6,6,P-GPS,
14200,2022-07-07 08:10:39,32.8256878011424,34.9559652984596,6,,,11.4942341,0.1,0.104001,0.439531,1.92139,17,0,16.382,11.4942341,6,4.44033,0.637977,0.1,0,0,247.1, -7.4, -4.4,0,0,1024,1024,1024,1024,0,0,0,0,359.9188707,0.0115796,97,4.103,4.102,4.098,4.105,0,0,15.384,38,11.4942341,6,6,P-GPS,
14300,2022-07-07 08:10:39,32.8256879129304,34.9559653204639,6,,,11.4942341,0.1,0.0885176,0.451862,1.93399,17,0,16.382,11.4942341,6,4.44033,0.637977,0.1,0,0,247.2, -8, -4.9,0,0,1024,1024,1024,1024,0,0,0,0,359.9182313,0.0146221,97,4.103,4.102,4.098,4.105,0,0,15.384,38,11.4942341,6,6,P-GPS,
14400,2022-07-07 08:10:39,32.8256880049254,34.9559653087643,6,,,11.4942341,0.1,0.0521739,0.461039,1.94428,17,0,16.382,11.4942341,6,4.44033,0.637977,0,0,0,247.2, -8, -5,0,0,1024,1024,1024,1024,0,0,0,0,359.9182847,0.0141613,97,4.103,4.102,4.098,4.105,0,0,15.384,38,11.4942341,6,6,P-GPS,
14500,2022-07-07 08:10:39,32.825688029682,34.9559654640268,6,,,11.4942341,0.1,0.0245851,0.468868,1.95905,17,0,16.382,11.4942341,6,4.44033,0.637977,0,0,0,246.9, -7.3, -4.7,0,0,1024,1024,1024,1024,0,0,0,0,359.9182758,0.014484,97,4.103,4.102,4.098,4.105,0,0,15.384,38,11.4942341,6,6,P-GPS,
14600,2022-07-07 08:10:39,32.8256879756248,34.9559654607653,6,,,11.4942341,0.1,0.0628041,0.463185,1.96507,17,0,16.382,11.4942341,6,4.44033,0.637977,-0.1,0,0,246.8, -6.6, -6,0,0,1024,1024,1024,1024,0,0,0,0,359.9182845,0.0142633,97,4.103,4.102,4.098,4.105,0,0,15.384,38,11.4942341,6,6,P-GPS,
14700,2022-07-07 08:10:39,32.8256879023704,34.9559654680822,6,,,11.4942341,0.1,0.0964294,0.455922,1.97324,17,0,16.382,11.4942341,6,4.44033,0.637977,-0.1,0,0,246.7, -6.6, -5.1,0,0,1024,1024,1024,1024,0,0,0,0,359.9182612,0.00950227,97,4.103,4.102,4.098,4.105,0,0,15.384,38,11.4942341,6,6,P-GPS,
14800,2022-07-07 08:10:40,32.8256878327516,34.9559654717899,6,,,11.4942341,0.1,0.0831714,0.448928,1.98099,17,0,16.382,11.4942341,6,4.44033,0.637977,-0.1,0,0,246.8, -5.9, -3.2,0,0,1024,1024,1024,1024,0,0,0,0,359.9182543,0.00940545,97,4.103,4.102,4.098,4.105,0,0,15.384,38,11.4942341,6,6,P-GPS,
14900,2022-07-07 08:10:40,32.8256877668287,34.9559653700966,6,,,11.4942341,0.1,0.0878418,0.438488,1.993,17,0,16.382,11.4942341,6,4.44033,0.637977,-0.1,-0.1,0,247, -5.8, -2.9,0,0,1024,1024,1024,1024,0,0,0,0,359.9186803,0.010744,97,4.103,4.102,4.098,4.105,0,0,15.384,38,11.4942341,6,6,P-GPS,
15000,2022-07-07 08:10:40,32.8256877183939,34.9559652419208,6.1,,,11.5942341,0.1,0.0893573,0.429038,2.00613,17,0,16.326,11.5942341,6.1,4.44033,0.637977,0,-0.1,0,247.2, -6.7, -2.6,0,0,1024,1024,1024,1024,0,0,0,0,359.9187087,0.0105114,97,4.103,4.102,4.098,4.105,0,0,15.384,38,11.5942341,6.1,6,P-GPS,
15100,2022-07-07 08:10:40,32.8256876832303,34.9559651207125,6,,,11.4942341,0.1,0.097203,0.421395,2.01811,17,0,16.326,11.5942341,6.1,4.44033,0.637977,0,-0.1,0,247.1, -6.4, -2.8,0,0,1024,1024,1024,1024,0,0,0,0,359.9185203,0.0142634,97,4.103,4.102,4.098,4.105,0,0,15.384,38,11.4942341,6,6,P-GPS,
15200,2022-07-07 08:10:40,32.8256876530477,34.9559650094139,6.1,,,11.5942341,0.1,0.101985,0.414779,2.02904,16,0,16.326,11.5942341,6.1,4.44033,0.637977,0,-0.1,0,247, -5.5, -3.9,0,0,1024,1024,1024,1024,0,0,0,0,359.9185177,0.0142416,97,4.103,4.102,4.098,4.105,0,0,15.384,38,11.5942341,6.1,6,P-GPS,
15300,2022-07-07 08:10:40,32.8256876051637,34.9559649190095,6.1,,,11.5942341,0.1,0.0920174,0.407068,2.03903,16,0,16.326,11.5942341,6.1,4.44033,0.637977,0,-0.1,0,247, -4.7, -3.9,0,0,1024,1024,1024,1024,0,0,0,0,359.9180221,0.014604,97,4.103,4.102,4.098,4.105,0,0,15.384,38,11.5942341,6.1,6,P-GPS,
15400,2022-07-07 08:10:40,32.8256874515556,34.9559649398111,6.1,,,11.5942341,0.1,0.0624605,0.391472,2.05622,17,0,16.326,11.5942341,6.1,4.44033,0.637977,0,0,0,246.9, -4.5, -4.6,0,0,1024,1024,1024,1024,0,0,0,0,359.917974,0.0148758,97,4.103,4.102,4.098,4.105,0,0,15.384,38,11.5942341,6.1,6,P-GPS,
15500,2022-07-07 08:10:40,32.8256874025142,34.9559649059959,6.1,,,11.5942341,0.1,0.0533754,0.385291,2.06252,17,0,16.326,11.5942341,6.1,4.44033,0.637977,0,0,0,246.8, -4.3, -4,0,0,1024,1024,1024,1024,0,0,0,0,359.9183219,0.0150159,97,4.103,4.102,4.098,4.105,0,0,15.384,38,11.5942341,6.1,6,P-GPS,
15600,2022-07-07 08:10:40,32.8256873683594,34.9559648904656,6.1,,,11.5942341,0.1,0.0907732,0.381227,2.06659,17,0,16.326,11.5942341,6.1,4.44033,0.637977,-0.1,0,0.1,246.7, -4.8, -4.1,0,0,1024,1024,1024,1024,0,0,0,0,359.918314,0.0150333,97,4.103,4.102,4.098,4.105,0,0,15.384,38,11.5942341,6.1,6,P-GPS,
15700,2022-07-07 08:10:40,32.8256873240749,34.9559648768342,6.1,,,11.5942341,0.1,0.0850929,0.376155,2.07168,17,0,16.326,11.5942341,6.1,4.44033,0.637977,0,0,0.1,246.9, -6.4, -3.6,0,0,1024,1024,1024,1024,0,0,0,0,359.9189423,0.0119312,97,4.103,4.102,4.098,4.105,0,0,15.384,38,11.5942341,6.1,6,P-GPS,
15800,2022-07-07 08:10:41,32.8256871899245,34.9559648332004,6.1,,,11.5942341,0.1,0.0842181,0.360719,2.08714,17,0,16.326,11.5942341,6.1,4.44033,0.637977,0,0,0.1,246.9, -6.2, -3.7,0,0,1024,1024,1024,1024,0,0,0,0,359.9189406,0.0119829,97,4.103,4.102,4.098,4.105,0,0,15.384,38,11.5942341,6.1,6,P-GPS,
15900,2022-07-07 08:10:41,32.8256871590905,34.9559647983165,6.1,,,11.5942341,0.1,0.0481355,0.356424,2.09187,17,0,16.326,11.5942341,6.1,4.44033,0.637977,0,0,0,246.9, -6.2, -3.6,0,0,1024,1024,1024,1024,0,0,0,0,359.9178018,0.0165424,97,4.103,4.102,4.098,4.105,0,0,15.384,38,11.5942341,6.1,6,P-GPS,
16000,2022-07-07 08:10:41,32.8256871594987,34.9559647670614,6.2,,,11.6942341,0.1,0.0626575,0.355546,2.09479,17,0,16.36,11.6942341,6.2,4.44033,0.637977,0,0,0,246.7, -5.8, -4.2,0,0,1024,1024,1024,1024,0,0,0,0,359.917811,0.0165214,97,4.113,4.115,4.105,4.105,0,0,14.262,38,11.6942341,6.2,6,P-GPS,
16100,2022-07-07 08:10:41,32.8256871284194,34.9559647544545,6.2,,,11.6942341,0.1,0.0541198,0.351894,2.09845,17,0,16.36,11.6942341,6.2,4.44033,0.637977,0,0,0,246.7, -5.8, -3.4,0,0,1024,1024,1024,1024,0,0,0,0,359.9178423,0.015333,97,4.113,4.115,4.105,4.105,0,0,14.262,38,11.6942341,6.2,6,P-GPS,
16200,2022-07-07 08:10:41,32.8256870324922,34.9559647491822,6.2,,,11.6942341,0.1,0.0886448,0.341616,2.10912,17,0,16.36,11.6942341,6.2,4.44033,0.637977,0,0,0.1,246.8, -6.2, -2.8,0,0,1024,1024,1024,1024,0,0,0,0,359.9178325,0.0154176,97,4.113,4.115,4.105,4.105,0,0,14.262,38,11.6942341,6.2,6,P-GPS,
16300,2022-07-07 08:10:41,32.8256869634232,34.955964726613,6.2,,,11.6942341,0.1,0.0821914,0.333664,2.11709,17,0,16.36,11.6942341,6.2,4.44033,0.637977,0,0,0.1,246.8, -6.8, -3.4,0,0,1024,1024,1024,1024,0,0,0,0,359.9180573,0.0142622,97,4.113,4.115,4.105,4.105,0,0,14.262,38,11.6942341,6.2,6,P-GPS,
16400,2022-07-07 08:10:41,32.8256869009706,34.9559646760114,6.2,,,11.6942341,0.1,0.106529,0.325577,2.12549,17,0,16.36,11.6942341,6.2,4.44033,0.637977,0,0,0.1,246.9, -6.5, -3.3,0,0,1024,1024,1024,1024,0,0,0,0,359.9180847,0.0141307,97,4.113,4.115,4.105,4.105,0,0,14.262,38,11.6942341,6.2,6,P-GPS,
16500,2022-07-07 08:10:41,32.8256868483118,34.9559646355845,6.2,,,11.6942341,0.1,0.0934032,0.318835,2.13246,17,0,16.36,11.6942341,6.2,4.44033,0.637977,0,0,0.1,246.7, -6.4, -3,0,0,1024,1024,1024,1024,0,0,0,0,359.917437,0.0189857,97,4.113,4.115,4.105,4.105,0,0,14.262,38,11.6942341,6.2,6,P-GPS,
16600,2022-07-07 08:10:41,32.8256867252916,34.9559645920669,6.2,,,11.6942341,0.1,0.081452,0.304568,2.14673,17,0,16.36,11.6942341,6.2,4.44033,0.637977,-0.1,0,0,246.7, -5.9, -3.1,0,0,1024,1024,1024,1024,0,0,0,0,359.9174202,0.0190685,97,4.113,4.115,4.105,4.105,0,0,14.262,38,11.6942341,6.2,6,P-GPS,
16700,2022-07-07 08:10:41,32.8256866515628,34.955964569019,6.2,,,11.6942341,0.1,0.10045,0.296106,2.15521,17,0,16.36,11.6942341,6.2,4.44033,0.637977,-0.1,0,0,246.6, -5.2, -3.5,0,0,1024,1024,1024,1024,0,0,0,0,359.9178297,0.0152268,97,4.113,4.115,4.105,4.105,0,0,14.262,38,11.6942341,6.2,6,P-GPS,
16800,2022-07-07 08:10:42,32.8256865581104,34.9559645422038,6.2,,,11.6942341,0.1,0.105265,0.285451,2.1659,17,0,16.36,11.6942341,6.2,4.44033,0.637977,-0.1,0,0,246.6, -5.2, -3.5,0,0,1024,1024,1024,1024,0,0,0,0,359.9178059,0.015362,97,4.113,4.115,4.105,4.105,0,0,14.262,38,11.6942341,6.2,6,P-GPS,
16900,2022-07-07 08:10:42,32.8256864798034,34.9559645362252,6.2,,,11.6942341,0.1,0.105533,0.277018,2.17463,17,0,16.36,11.6942341,6.2,4.44033,0.637977,-0.1,0,0,246.6, -5.8, -2.7,0,0,1024,1024,1024,1024,0,0,0,0,359.9178364,0.0176099,97,4.113,4.115,4.105,4.105,0,0,14.262,38,11.6942341,6.2,6,P-GPS,
17000,2022-07-07 08:10:42,32.8256864319677,34.9559645395829,6.3,,,11.7942341,0.1,0.107929,0.27209,2.17996,17,0,16.383,11.7942341,6.3,4.44033,0.637977,-0.1,0,0.1,246.7, -6, -1.4,0,0,1024,1024,1024,1024,0,0,0,0,359.9178371,0.0175446,96,4.118,4.114,4.104,4.105,0,0,13.342,38,11.7942341,6.3,6,P-GPS,
17100,2022-07-07 08:10:42,32.8256864831497,34.9559645042098,6.3,,,11.7942341,0.1,0.103864,0.276422,2.18654,17,0,16.383,11.7942341,6.3,4.44033,0.637977,-0.1,0,0.1,246.8, -5.8, -1.2,0,0,1024,1024,1024,1024,0,0,0,0,359.9174337,0.0186257,96,4.118,4.114,4.104,4.105,0,0,13.342,38,11.7942341,6.3,6,P-GPS,
17200,2022-07-07 08:10:42,32.8256864392045,34.9559644278317,6.3,,,11.7942341,0.1,0.113173,0.269604,2.19519,17,0,16.383,11.7942341,6.3,4.44033,0.637977,-0.1,0,0.1,246.9, -5.2, -1.8,0,0,1024,1024,1024,1024,0,0,0,0,359.9174805,0.0182431,96,4.118,4.114,4.104,4.105,0,0,13.342,38,11.7942341,6.3,6,P-GPS,
17300,2022-07-07 08:10:42,32.8256864004428,34.9559643486472,6.3,,,11.7942341,0.1,0.13183,0.263376,2.20375,17,0,16.383,11.7942341,6.3,4.44033,0.637977,0,-0.1,0.1,246.8, -5, -2.4,0,0,1024,1024,1024,1024,0,0,0,0,359.9170009,0.0190614,96,4.118,4.114,4.104,4.105,0,0,13.342,38,11.7942341,6.3,6,P-GPS,
17400,2022-07-07 08:10:42,32.8256863622477,34.9559642349186,6.3,,,11.7942341,0.1,0.152317,0.256557,2.2152,17,0,16.383,11.7942341,6.3,4.44033,0.637977,0,-0.1,0.1,246.9, -5.7, -2.2,0,0,1024,1024,1024,1024,0,0,0,0,359.9169752,0.0192003,96,4.118,4.114,4.104,4.105,0,0,13.342,38,11.7942341,6.3,6,P-GPS,
17500,2022-07-07 08:10:42,32.8256862821964,34.9559640374906,6.3,,,11.7942341,0.1,0.127103,0.244031,2.23568,17,0,16.383,11.7942341,6.3,4.44033,0.637977,0,-0.1,0.1,247.1, -6.1, -1.4,0,0,1024,1024,1024,1024,0,0,0,0,359.9175675,0.0188416,96,4.118,4.114,4.104,4.105,0,0,13.342,38,11.7942341,6.3,6,P-GPS,
17600,2022-07-07 08:10:43,32.8256862448831,34.9559639262922,6.3,,,11.7942341,0.1,0.130219,0.238321,2.24687,17,0,16.383,11.7942341,6.3,4.44033,0.637977,0,-0.1,0.1,247.1, -5.2, -3,0,0,1024,1024,1024,1024,0,0,0,0,359.9175212,0.0191634,96,4.118,4.114,4.104,4.105,0,0,13.342,38,11.7942341,6.3,6,P-GPS,
17700,2022-07-07 08:10:43,32.8256862217911,34.9559638110156,6.3,,,11.7942341,0.1,0.130891,0.234547,2.25794,17,0,16.383,11.7942341,6.3,4.44033,0.637977,0,-0.1,0.1,247.1, -4.8, -3.9,0,0,1024,1024,1024,1024,0,0,0,0,359.9177891,0.0167042,96,4.118,4.114,4.104,4.105,0,0,13.342,38,11.7942341,6.3,6,P-GPS,
17800,2022-07-07 08:10:43,32.825686223453,34.9559636877795,6.3,,,11.7942341,0.1,0.13233,0.23396,2.26946,17,0,16.383,11.7942341,6.3,4.44033,0.637977,0,-0.1,0.1,247.2, -4.5, -3,0,0,1024,1024,1024,1024,0,0,0,0,359.9177676,0.0168738,96,4.118,4.114,4.104,4.105,0,0,13.342,38,11.7942341,6.3,6,P-GPS,
17900,2022-07-07 08:10:43,32.8256862324106,34.9559635752197,6.3,,,11.7942341,0.1,0.107701,0.234746,2.28003,17,0,16.383,11.7942341,6.3,4.44033,0.637977,0,-0.1,0.1,247.1, -4.1, -3.1,0,0,1024,1024,1024,1024,0,0,0,0,359.9178497,0.0193212,96,4.118,4.114,4.104,4.105,0,0,13.342,38,11.7942341,6.3,6,P-GPS,
18000,2022-07-07 08:10:43,32.8256862490212,34.9559634745391,6.3,,,11.7942341,0.1,0.102459,0.236803,2.28962,17,0,16.342,11.7942341,6.3,4.44033,0.637977,0,-0.1,0.1,247, -3.9, -4,0,0,1024,1024,1024,1024,0,0,0,0,359.9178186,0.0193148,96,4.118,4.117,4.108,4.108,0,0,12.976,38,11.7942341,6.3,6,P-GPS,
18100,2022-07-07 08:10:43,32.8256862368526,34.9559634045502,6.3,,,11.7942341,0.1,0.0960526,0.23582,2.2963,17,0,16.342,11.7942341,6.3,4.44033,0.637977,0,0,0.1,247, -3.4, -3.2,0,0,1024,1024,1024,1024,0,0,0,0,359.9177413,0.0212636,96,4.118,4.117,4.108,4.108,0,0,12.976,38,11.7942341,6.3,6,P-GPS,
18200,2022-07-07 08:10:43,32.8256861883995,34.9559633552733,6.3,,,11.7942341,0.1,0.116263,0.230821,2.30338,17,0,16.342,11.7942341,6.3,4.44033,0.637977,-0.1,0,0.1,246.9, -3.5, -3,0,0,1024,1024,1024,1024,0,0,0,0,359.9177332,0.0213682,96,4.118,4.117,4.108,4.108,0,0,12.976,38,11.7942341,6.3,6,P-GPS,
18300,2022-07-07 08:10:43,32.8256860790169,34.9559632793977,6.3,,,11.7942341,0.1,0.14085,0.21951,2.31746,17,0,16.342,11.7942341,6.3,4.44033,0.637977,-0.1,0,0.1,246.9, -4.5, -2.9,0,0,1024,1024,1024,1024,0,0,0,0,359.9181078,0.018571,96,4.118,4.117,4.108,4.108,0,0,12.976,38,11.7942341,6.3,6,P-GPS,
18400,2022-07-07 08:10:43,32.8256860375897,34.9559632326609,6.3,,,11.7942341,0.1,0.158553,0.215559,2.32381,17,0,16.342,11.7942341,6.3,4.44033,0.637977,0,0,0.2,246.9, -5.7, -2.6,0,0,1024,1024,1024,1024,0,0,0,0,359.9181697,0.0182417,96,4.118,4.117,4.108,4.108,0,0,12.976,38,11.7942341,6.3,6,P-GPS,
18500,2022-07-07 08:10:43,32.8256860073515,34.9559632064296,6.3,,,11.7942341,0.1,0.14355,0.212626,2.32797,17,0,16.342,11.7942341,6.3,4.44033,0.637977,0,0,0.1,246.8, -5.2, -2.6,0,0,1024,1024,1024,1024,0,0,0,0,359.9175591,0.0200192,96,4.118,4.117,4.108,4.108,0,0,12.976,38,11.7942341,6.3,6,P-GPS,
18600,2022-07-07 08:10:43,32.8256859935627,34.9559631940556,6.3,,,11.7942341,0.1,0.113081,0.211309,2.32989,17,0,16.342,11.7942341,6.3,4.44033,0.637977,0,0,0.1,246.7, -4.9, -2.2,0,0,1024,1024,1024,1024,0,0,0,0,359.9175769,0.0199733,96,4.118,4.117,4.108,4.108,0,0,12.976,38,11.7942341,6.3,6,P-GPS,
18700,2022-07-07 08:10:43,32.8256859825678,34.955963194892,6.3,,,11.7942341,0.1,0.119846,0.210091,2.33112,17,0,16.342,11.7942341,6.3,4.44033,0.637977,0,0,0.1,246.8, -5, -1.9,0,0,1024,1024,1024,1024,0,0,0,0,359.917371,0.0218835,96,4.118,4.117,4.108,4.108,0,0,12.976,38,11.7942341,6.3,6,P-GPS,
18800,2022-07-07 08:10:44,32.8256859620014,34.9559632630002,6.3,,,11.7942341,0.1,0.117537,0.206827,2.33788,17,0,16.342,11.7942341,6.3,4.44033,0.637977,0,0,0.1,246.8, -5.2, -2.5,0,0,1024,1024,1024,1024,0,0,0,0,359.9173851,0.0218477,96,4.118,4.117,4.108,4.108,0,0,12.976,38,11.7942341,6.3,6,P-GPS,
18900,2022-07-07 08:10:44,32.8256859505823,34.9559632878529,6.3,,,11.7942341,0.1,0.0974984,0.205247,2.34053,17,0,16.342,11.7942341,6.3,4.44033,0.637977,0,0,0.1,246.8, -5.4, -2.3,0,0,1024,1024,1024,1024,0,0,0,0,359.917843,0.0210033,96,4.118,4.117,4.108,4.108,0,0,12.976,38,11.7942341,6.3,6,P-GPS,
19000,2022-07-07 08:10:44,32.8256859360253,34.9559633298159,6.3,,,11.7942341,0.1,0.121878,0.203151,2.34477,17,0,16.427,11.7942341,6.3,4.44033,0.637977,0,0,0.1,246.8, -5.3, -2.6,0,0,1024,1024,1024,1024,0,0,0,0,359.9178345,0.0210977,96,4.118,4.117,4.108,4.108,0,0,12.976,38,11.7942341,6.3,6,P-GPS,
19100,2022-07-07 08:10:44,32.8256859208661,34.955963392998,6.3,,,11.7942341,0.1,0.121108,0.200873,2.35091,17,0,16.427,11.7942341,6.3,4.44033,0.637977,0,0,0.1,246.8, -5.7, -2.6,0,0,1024,1024,1024,1024,0,0,0,0,359.9181503,0.0182767,96,4.118,4.117,4.108,4.108,0,0,12.976,38,11.7942341,6.3,6,P-GPS,
19200,2022-07-07 08:10:44,32.825685845463,34.9559635841383,6.3,,,11.7942341,0.1,0.102539,0.191715,2.37064,17,0,16.427,11.7942341,6.3,4.44033,0.637977,0,0,0.1,246.8, -5.7, -2.6,0,0,1024,1024,1024,1024,0,0,0,0,359.918132,0.0184203,96,4.118,4.117,4.108,4.108,0,0,12.976,38,11.7942341,6.3,6,P-GPS,
19300,2022-07-07 08:10:44,32.8256858485758,34.9559636322543,6.3,,,11.7942341,0.1,0.107925,0.192119,2.37515,17,0,16.427,11.7942341,6.3,4.44033,0.637977,0,0,0.1,246.8, -6, -2.5,0,0,1024,1024,1024,1024,0,0,0,0,359.9180057,0.0196204,96,4.118,4.117,4.108,4.108,0,0,12.976,38,11.7942341,6.3,6,P-GPS,
19400,2022-07-07 08:10:44,32.825685875687,34.9559636479788,6.3,,,11.7942341,0.1,0.101105,0.195174,2.37851,17,0,16.427,11.7942341,6.3,4.44033,0.637977,0,0,0.1,246.9, -6, -2.4,0,0,1024,1024,1024,1024,0,0,0,0,359.9179979,0.0196406,96,4.118,4.117,4.108,4.108,0,0,12.976,38,11.7942341,6.3,6,P-GPS,
19500,2022-07-07 08:10:44,32.8256859061523,34.9559636435354,6.3,,,11.7942341,0.1,0.0904431,0.198548,2.38192,17,0,16.427,11.7942341,6.3,4.44033,0.637977,0,0,0.1,246.9, -5.8, -2.3,0,0,1024,1024,1024,1024,0,0,0,0,359.9179952,0.0197472,96,4.118,4.117,4.108,4.108,0,0,12.976,38,11.7942341,6.3,6,P-GPS,
19600,2022-07-07 08:10:44,32.8256859760944,34.9559635548073,6.3,,,11.7942341,0.1,0.073286,0.206256,2.39329,17,0,16.427,11.7942341,6.3,4.44033,0.637977,0,0,0.1,246.9, -5.7, -2.5,0,0,1024,1024,1024,1024,0,0,0,0,359.9179697,0.0199728,96,4.118,4.117,4.108,4.108,0,0,12.976,38,11.7942341,6.3,6,P-GPS,
19700,2022-07-07 08:10:44,32.8256859957069,34.9559635184875,6.3,,,11.7942341,0.1,0.0883798,0.208506,2.39732,17,0,16.427,11.7942341,6.3,4.44033,0.637977,0,0,0.1,246.9, -5.5, -3,0,0,1024,1024,1024,1024,0,0,0,0,359.917705,0.0222984,96,4.118,4.117,4.108,4.108,0,0,12.976,38,11.7942341,6.3,6,P-GPS,
19800,2022-07-07 08:10:45,32.825686009085,34.9559634700414,6.3,,,11.7942341,0.1,0.0887874,0.210168,2.40209,17,0,16.427,11.7942341,6.3,4.44033,0.637977,0,0,0.1,246.8, -5.7, -3.1,0,0,1024,1024,1024,1024,0,0,0,0,359.9176551,0.0225661,96,4.118,4.117,4.108,4.108,0,0,12.976,38,11.7942341,6.3,6,P-GPS,
19900,2022-07-07 08:10:45,32.8256860100258,34.9559634489454,6.3,,,11.7942341,0.1,0.103938,0.21038,2.40406,17,0,16.427,11.7942341,6.3,4.44033,0.637977,0,0,0.1,246.8, -5.6, -3.2,0,0,1024,1024,1024,1024,0,0,0,0,359.9182164,0.0205512,96,4.118,4.117,4.108,4.108,0,0,12.976,38,11.7942341,6.3,6,P-GPS,
20000,2022-07-07 08:10:45,32.8256859556028,34.9559634593974,6.2,,,11.6942341,0.1,0.0993901,0.204281,2.41019,17,0,16.383,11.7942341,6.3,4.44033,0.637977,0,0,0.1,246.9, -5.8, -3.2,0,0,1024,1024,1024,1024,0,0,0,0,359.9181922,0.0205214,96,4.109,4.109,4.103,4.108,0,0,12.894,38,11.6942341,6.2,6,P-GPS,
