time,distance(meters),speed(m/s), compass_heading(degrees), pitch(degrees), roll(degrees),height_above_takeoff(meters),North,East,Down
0.0,45.2973,1.55544,263.4,-15.3,-7.4,5.0,0.0,0.0,0.0
0.10000000000002274,45.4502,1.61165,263.9,-14.6,-4.8,5.0,-0.07980506935239279,-0.13299711537050496,2.3182823855050216e-09
0.19999999999998863,45.6077,1.90984,264.0,-18.4,-5.4,5.0,-0.1566888020808453,-0.27215723303821776,8.189970257532764e-09
0.30000000000001137,45.757,2.33164,264.2,-21.5,-6.8,4.9,-0.2282124016415804,-0.40451666961818744,0.1000000160072424
0.39999999999997726,45.9327,2.57256,263.9,-20.7,-5.6,4.8,-0.31145169079562873,-0.560707133777953,0.20000003222317034
0.5,46.1034,2.48203,263.4,-17.8,-2.9,4.6,-0.3853793866593728,-0.715232738979459,0.40000005193487576
0.6000000000000227,46.2967,2.3078,263.0,-15.5,-1.1,4.4,-0.4577886202281667,-0.8947081742525262,0.600000078674432
0.6999999999999886,46.494,2.23406,262.9,-14.6,-1.1,4.2,-0.5202606713587066,-1.082519311811745,0.8000001124375005
0.8000000000000114,46.7109,2.30639,262.9,-14.9,-3.3,4.1,-0.5802766050335566,-1.2925195549871942,0.9000001571167429
0.8999999999999773,46.9401,2.52036,263.4,-16.9,-5.5,4.0,-0.6409267882061742,-1.5153612911590826,1.0000002123870824
1.0,47.2024,2.75885,263.3,-17.9,-6.0,4.0,-0.7084801123286781,-1.7712633086965206,1.0000002858288497
1.1000000000000227,47.464,2.80935,263.2,-16.6,-6.6,4.1,-0.7774103065718361,-2.0257067167987746,0.9000003692328385
1.1999999999999886,47.7595,2.79533,263.3,-16.9,-7.7,4.1,-0.859230760397214,-2.3116333300516123,0.900000476240074
1.3000000000000114,48.0309,2.82532,263.4,-16.2,-7.0,4.2,-0.9371691179045974,-2.5731218279398793,0.800000588178566
1.3999999999999773,48.3156,2.93832,263.5,-17.4,-6.4,4.2,-1.0230782802624292,-2.8457258335331543,0.8000007165522992
1.5,48.5788,3.2075,263.9,-20.2,-6.5,4.2,-1.09989546488272,-3.0987869485742414,0.8000008466983951
1.6000000000000227,48.85,3.30728,263.8,-18.8,-5.4,4.1,-1.1995010694757604,-3.351420346515287,0.9000009921990368
1.6999999999999886,49.1192,3.19127,263.0,-12.9,-3.3,3.9,-1.2743850844464126,-3.6116677010065237,1.1000011489907786
1.8000000000000114,49.4192,3.02996,262.4,-9.1,-1.1,3.7,-1.354753455867281,-3.9029706129415587,1.300001338069532
1.8999999999999773,49.7087,2.99095,262.0,-10.4,-1.0,3.5,-1.4267941228603847,-4.186132543277823,1.5000015327025662
2.0,50.0196,3.09032,261.9,-12.5,-2.1,3.5,-1.499379495106026,-4.492102289100206,1.5000017574016153
2.1000000000000227,50.3556,3.30973,261.7,-13.9,-4.0,3.4,-1.5926410021436752,-4.817023011912236,1.600002016889448
2.1999999999999886,50.6851,3.55117,261.7,-13.0,-5.3,3.4,-1.6706124654045138,-5.140809712641732,1.6000022887013003
2.3000000000000114,51.0062,3.78664,261.6,-11.6,-5.5,3.5,-1.7509793901344672,-5.454603589960275,1.5000025722525727
2.3999999999999773,51.3501,3.73002,261.5,-9.9,-4.6,3.7,-1.8390888800502976,-5.789857346273432,1.300002891347117
2.5,51.6969,3.35581,262.1,-11.9,-5.2,3.9,-1.9304794397091967,-6.126894350161401,1.1000032328905627
2.6000000000000227,52.0257,3.09966,262.7,-16.3,-6.4,4.1,-2.0081908761459224,-6.4499710636091585,0.900003575015297
2.6999999999999886,52.3256,3.06629,262.8,-14.8,-6.0,4.2,-2.075794638281394,-6.7458220408039615,0.8000039036914313
2.8000000000000114,52.6205,3.19321,262.8,-12.0,-5.3,4.2,-2.139231639138764,-7.037846814468992,0.8000042393406082
2.8999999999999773,52.8954,3.43629,262.6,-11.7,-4.6,4.2,-2.1921968987886,-7.312402109395462,0.8000045659922392
3.0,53.2176,3.31152,262.5,-11.6,-4.5,4.1,-2.2609217004776383,-7.6316218865715495,0.900004962629706
3.1000000000000227,53.5164,3.08935,262.0,-6.4,-2.0,3.9,-2.32166408738997,-7.928774616078788,1.1000053484639374
3.1999999999999886,53.8125,2.90866,261.6,-3.8,-0.8,3.7,-2.377921872719422,-8.224686320025794,1.3000057424595235
3.3000000000000114,54.1365,2.88734,261.7,-6.8,-2.3,3.6,-2.45361478839771,-8.54305456220629,1.40000618897301
3.3999999999999773,54.4337,3.01421,261.7,-10.2,-4.1,3.6,-2.5099809886046147,-8.839947869407306,1.4000066153974917
3.5,54.7229,3.19836,261.9,-12.3,-6.2,3.6,-2.5686862769791614,-9.12740957102768,1.4000070437740273
3.6000000000000227,55.0312,3.47153,262.0,-12.7,-7.3,3.7,-2.6347483796382107,-9.432497466341143,1.3000075145755376
3.6999999999999886,55.3286,3.65233,261.8,-11.4,-6.4,3.8,-2.7027768266762386,-9.725152451091937,1.2000079818141884
3.8000000000000114,55.6457,3.37759,262.0,-10.6,-5.6,4.0,-2.767768372004199,-10.03997762032607,1.000008497021412
3.8999999999999773,55.9371,3.09735,262.3,-13.5,-7.7,4.3,-2.8343217879962643,-10.32668378699632,0.7000089843322208
4.0,56.2334,2.88796,262.4,-13.8,-8.2,4.4,-2.9022938820950603,-10.618074925592492,0.6000094916254035
4.100000000000023,56.5089,2.88695,262.4,-10.9,-6.7,4.5,-2.9654086485179945,-10.888964717368728,0.5000099784286811
4.199999999999989,56.7897,2.96381,262.3,-9.1,-6.0,4.5,-3.0374968565575897,-11.162210363538023,0.5000104846369422
4.300000000000011,57.0548,2.85593,262.0,-7.1,-5.8,4.4,-3.1001275298209263,-11.422190465199563,0.6000109734759917
4.399999999999977,57.3293,2.73615,261.7,-3.2,-4.6,4.3,-3.1633909864506973,-11.691953472179954,0.7000114933144055
4.5,57.5873,2.61551,261.8,-6.7,-5.4,4.2,-3.228804293322917,-11.943242745659346,0.8000119908668981
4.600000000000023,57.8465,2.6759,262.0,-9.9,-3.2,4.1,-3.2893457938377186,-12.19764786761692,0.9000125031503252
4.699999999999989,58.1034,2.81958,262.2,-8.8,-2.3,4.1,-3.3499451341562647,-12.449475724483953,0.9000130214182767
4.800000000000011,58.3792,2.97073,262.6,-7.6,-5.7,4.1,-3.41278963309733,-12.720754848037203,0.9000135886956822
4.899999999999977,58.637,3.20928,263.1,-9.4,-8.2,4.2,-3.4767250101485487,-12.972315622164004,0.8000141304449935
5.0,58.8773,3.36863,263.3,-9.9,-8.5,4.4,-3.5547585837970144,-13.20001504475255,0.6000146402963882
5.100000000000023,59.1315,3.23422,263.2,-9.1,-7.9,4.6,-3.6315091708801024,-13.443026528018983,0.40001518999116814
5.199999999999989,59.4154,2.87262,263.7,-11.7,-10.1,4.8,-3.713979585487791,-13.715673159616207,0.20001581801802204
5.300000000000011,59.6742,2.61457,264.0,-13.8,-11.4,5.0,-3.7900886862618455,-13.963740324567867,1.6402165244233657e-05
5.399999999999977,59.9315,2.5301,263.6,-10.9,-9.8,5.1,-3.8697793392624504,-14.209069461907113,-0.09998301076588811
5.5,60.199,2.59183,262.9,-7.6,-7.7,5.1,-3.9574132799739,-14.462241525447677,-0.09998238750645494
5.600000000000023,60.4477,2.72383,262.6,-5.2,-7.0,5.1,-4.028180920686788,-14.701529623905017,-0.0999817970854664
5.699999999999989,60.6774,2.52298,262.6,-4.5,-7.1,5.0,-4.098416847100397,-14.920823999269679,1.875854235255936e-05
5.800000000000011,60.9006,2.24663,261.9,-1.2,-5.0,4.9,-4.172875866302878,-15.131622292314422,0.1000193014196733
5.899999999999977,61.0845,2.12747,261.5,-1.1,-3.5,4.7,-4.224393262026725,-15.308871265220322,0.3000197585916764
6.0,61.3074,2.23193,261.6,-5.8,-4.6,4.7,-4.292785718442595,-15.521552285103944,0.300020318289802
6.100000000000023,61.5249,2.51402,262.2,-11.3,-6.5,4.7,-4.361513357004515,-15.728299416484779,0.3000208707460543
6.199999999999989,61.7631,2.81973,262.9,-14.2,-8.7,4.8,-4.442638660883176,-15.952699584730516,0.20002148408714104
6.300000000000011,62.02,2.90507,262.7,-12.6,-8.9,4.9,-4.51802238561516,-16.199048298041127,0.10002215794438207
6.399999999999977,62.2629,2.64288,263.0,-11.9,-10.5,5.1,-4.607910305828112,-16.425121245976417,-0.09997720112853825
6.5,62.4887,2.33764,263.5,-15.0,-12.9,5.3,-4.693199543385376,-16.634702255417047,-0.299976595927395
6.600000000000023,62.7196,2.22395,263.6,-14.3,-11.4,5.4,-4.785046532664472,-16.847303427015753,-0.3999759704622603
6.699999999999989,62.9213,2.35382,263.2,-10.9,-10.1,5.4,-4.888255221344413,-17.024659917640985,-0.39997542046640033
6.800000000000011,63.1419,2.64084,262.9,-7.8,-10.4,5.4,-4.978455113381321,-17.226802059488957,-0.39997480873074753
6.899999999999977,63.35,2.87659,262.9,-7.8,-11.4,5.3,-5.0670425694439185,-17.416346806805915,-0.2999742237636749
7.0,63.5647,2.62702,262.4,-8.0,-10.1,5.1,-5.165158214463505,-17.609331727456784,-0.09997361623688583
7.100000000000023,63.7627,2.28566,261.5,-3.6,-5.2,4.9,-5.258956903132393,-17.786107251275347,0.1000269513890033
7.199999999999989,63.9568,2.01607,261.0,-2.2,-4.1,4.8,-5.348008132077696,-17.96043921017103,0.20002751466423074
7.300000000000011,64.1477,2.02311,260.9,-5.2,-4.9,4.6,-5.440662546671769,-18.129993993895226,0.40002807112531036
7.399999999999977,64.3589,2.24706,261.0,-9.6,-5.3,4.6,-5.542495757332326,-18.3177901752642,0.4000286950020846
7.5,64.5715,2.52273,261.7,-13.8,-6.0,4.7,-5.63816708149824,-18.50938601209087,0.30002933197550075
7.600000000000023,64.8269,2.63065,262.2,-14.9,-9.3,4.8,-5.731941322431485,-18.747456407146643,0.2000301111789704
7.699999999999989,65.0512,2.47208,262.4,-13.4,-12.2,5.0,-5.833985616995475,-18.949167691290622,3.0799345848375737e-05
7.800000000000011,65.2808,2.26654,262.8,-14.8,-13.0,5.1,-5.94973495667164,-19.151401850359548,-0.09996849073581959
7.899999999999977,65.4938,2.22215,263.0,-15.1,-12.6,5.2,-6.058630319073726,-19.33845378205317,-0.1999678232384925
8.0,65.7007,2.37469,262.7,-13.8,-12.9,5.2,-6.187304579883532,-19.511663514631522,-0.19996717277636655
8.100000000000023,65.8995,2.73498,262.3,-12.6,-12.5,5.2,-6.288477537663304,-19.686312751963296,-0.19996653690173716
8.199999999999989,66.0978,2.64611,262.1,-11.2,-10.9,5.1,-6.387019451600482,-19.861523002101567,-0.0999658970920394
8.300000000000011,66.2877,2.3525,261.0,-5.5,-6.3,4.9,-6.486913586972722,-20.027083664287623,0.10003472269688096
8.399999999999977,66.4759,2.03634,260.7,-2.5,-3.6,4.7,-6.585511754017274,-20.1914376842464,0.3000353416838073
8.5,66.6624,1.91286,260.7,-4.9,-4.3,4.6,-6.687740742129695,-20.35241267643825,0.4000359573711081
8.600000000000023,66.854,2.05841,261.2,-9.4,-6.4,4.5,-6.790640088794725,-20.518672432208295,0.5000366001147425
8.699999999999989,67.0505,2.35094,262.0,-13.0,-8.2,4.5,-6.897722160968923,-20.688586792906136,0.500037264404563
8.800000000000011,67.2808,2.67826,262.5,-14.4,-10.0,4.6,-7.028232751167466,-20.885834120882564,0.4000380485533288
8.899999999999977,67.5237,2.96137,262.6,-13.1,-9.7,4.7,-7.167583915102193,-21.09307058043681,0.30003888565614334
9.0,67.7682,2.88879,262.5,-10.8,-8.2,4.9,-7.308245592358272,-21.30149875107956,0.10003973825038504
9.100000000000023,67.9962,2.58558,263.1,-11.5,-8.9,5.1,-7.440095624289567,-21.495664950594886,-0.09995945846402376
9.199999999999989,68.2241,2.27414,263.4,-14.2,-11.4,5.3,-7.574294866301729,-21.688635990190555,-0.2999586453624157
9.300000000000011,68.4376,2.15989,263.2,-12.8,-11.1,5.4,-7.705448434824137,-21.867291267095233,-0.399957878886382
9.399999999999977,68.6466,2.31683,262.5,-10.3,-9.5,5.4,-7.8269536704897185,-22.04481973658934,-0.39995711928566235
9.5,68.8416,2.62215,261.8,-8.4,-8.3,5.4,-7.941905438314702,-22.209808346527076,-0.3999564060561305
9.600000000000023,69.0474,2.62362,261.7,-7.7,-8.4,5.3,-8.066811559025254,-22.382555762392705,-0.29995564511859785
9.699999999999989,69.2348,2.30078,261.2,-5.8,-6.3,5.0,-8.192928173995448,-22.534957669254247,4.5052731254102696e-05
9.800000000000011,69.4337,2.09855,260.8,-4.2,-3.2,4.9,-8.323500712578209,-22.697906904463387,0.1000457985554628
9.899999999999977,69.626,2.09727,260.9,-7.8,-4.8,4.7,-8.447614959774661,-22.85629650846112,0.30004652833206036
10.0,69.8388,2.28801,261.3,-12.4,-6.4,4.7,-8.57778593273085,-23.034168660935855,0.3000473418322329
10.100000000000023,70.0649,2.56749,261.5,-13.4,-7.1,4.7,-8.720656458006463,-23.221434288774887,0.3000482142370089
10.199999999999989,70.3096,2.84001,261.6,-11.7,-7.6,4.8,-8.870690264725024,-23.425784120908098,0.20004916885904667
10.300000000000011,70.5401,3.14258,261.9,-10.4,-6.9,4.8,-9.013982644126997,-23.617471544454126,0.20005007706511702
10.399999999999977,70.7649,3.24014,262.0,-8.6,-6.8,5.0,-9.161618331652704,-23.801263138572644,5.0970657502702466e-05
10.5,70.9788,2.91564,262.6,-8.7,-7.1,5.2,-9.30257049855005,-23.975852225688023,-0.19994817162760814
10.600000000000023,71.1789,2.47796,263.1,-13.3,-9.6,5.4,-9.439887661062752,-24.136954490972798,-0.3999473622277012
10.699999999999989,71.3946,2.25791,263.2,-12.9,-9.8,5.7,-9.580747527568708,-24.313346304122156,-0.6999464816610876
10.800000000000011,71.6257,2.21092,262.7,-10.3,-6.6,5.8,-9.73255268450853,-24.501994682919545,-0.799945529407065
10.899999999999977,71.8395,2.39329,262.4,-8.3,-3.9,5.8,-9.877168535119843,-24.674635646728408,-0.7999446412455642
11.0,72.0835,2.54628,262.5,-7.1,-3.3,5.7,-10.073128629143817,-24.85928926465484,-0.6999436182986987
11.100000000000023,72.2881,2.45276,262.6,-8.7,-3.5,5.6,-10.216839897065174,-25.02229966500605,-0.599942751671489
11.199999999999989,72.495,2.19672,262.2,-5.4,-1.5,5.4,-10.355245766302804,-25.189746718874026,-0.3999418693450263
11.300000000000011,72.6882,2.00377,261.8,-4.0,0.6,5.3,-10.476522543487597,-25.349343344991155,-0.2999410377452483
11.399999999999977,72.8909,2.05126,261.4,-6.8,-0.5,5.3,-10.58669779994396,-25.523679640465495,-0.29994016189409756
11.5,73.0895,2.28423,261.4,-11.2,-2.7,5.2,-10.694760629542516,-25.694517807528737,-0.1999392959003652
11.600000000000023,73.3057,2.62177,261.8,-13.6,-5.1,5.3,-10.816647370330589,-25.878545810728653,-0.2999383450625839
11.699999999999989,73.5204,2.93789,262.0,-13.5,-6.6,5.4,-10.933818352264938,-26.06302439132499,-0.3999373948458649
11.800000000000011,73.7517,2.81227,262.2,-12.2,-7.0,5.6,-11.056384274411208,-26.263159125962375,-0.5999363626007206
11.899999999999977,73.9693,2.51688,262.7,-13.9,-8.4,5.8,-11.167553829977177,-26.453083270169586,-0.7999353836710066
12.0,74.1924,2.25615,263.2,-16.7,-9.2,6.0,-11.281820976647678,-26.647620144421005,-0.9999343722709657
12.100000000000023,74.4003,2.12383,263.1,-13.6,-7.1,6.1,-11.385491991245129,-26.830128411604022,-1.0999334248175856
12.199999999999989,74.6142,2.16206,262.8,-11.0,-5.2,6.2,-11.487255890480672,-27.019876498453854,-1.1999324392281805
12.300000000000011,74.822,2.32392,262.3,-10.0,-5.0,6.2,-11.574089285755516,-27.20923464382812,-1.1999314794835563
12.399999999999977,75.0383,2.14305,262.0,-9.7,-4.7,6.1,-11.677014401496827,-27.40105150234633,-1.0999304712000342
12.5,75.2352,1.95183,261.5,-6.3,-1.0,5.9,-11.765272004751385,-27.577975851281817,-0.8999295456961027
12.600000000000023,75.4312,1.95955,261.4,-8.1,-1.6,5.9,-11.84653724704999,-27.75669572674527,-0.8999286200482413
12.699999999999989,75.6187,1.88121,261.6,-13.6,-6.5,5.8,-11.925773865236565,-27.927197823709548,-0.7999277266931575
12.800000000000011,75.8031,1.69008,261.1,-5.1,-4.7,5.7,-12.004184070656848,-28.09459930543848,-0.6999268449489966
12.899999999999977,75.9618,1.51156,261.2,5.3,-1.8,5.7,-12.07318037548754,-28.237944848770248,-0.6999260828261189
13.0,76.1116,1.3005,261.1,5.0,-3.6,5.8,-12.137637401440807,-28.373661519098306,-0.7999253584540247
13.100000000000023,76.2368,1.06397,261.1,4.2,-2.2,5.8,-12.195514792918658,-28.485374835834513,-0.7999247499216446
13.199999999999989,76.3537,0.865819,261.1,5.1,-0.1,5.8,-12.25555648944994,-28.587251780794986,-0.7999241782138098
13.300000000000011,76.4447,0.688477,261.2,2.7,-1.5,5.8,-12.300927990179312,-28.66707319757012,-0.7999237330653068
13.399999999999977,76.5162,0.548306,261.2,1.2,-2.4,5.8,-12.332643527763903,-28.73152142359833,-0.7999233820955549
13.5,76.5727,0.430409,261.3,-0.1,-2.1,5.8,-12.362226608537513,-28.780459014837653,-0.7999231049755924
13.600000000000023,76.6121,0.354559,261.4,-2.6,-2.9,5.8,-12.389425865461694,-28.811892738036295,-0.7999229094322402
13.699999999999989,76.6453,0.295112,261.7,-4.3,-3.1,5.8,-12.41220990189953,-28.838515175636818,-0.7999227444143377
13.800000000000011,76.6828,0.243384,262.0,-5.1,-3.4,5.8,-12.433014584355497,-28.870475823698193,-0.7999225587177214
13.899999999999977,76.7124,0.212699,262.2,-6.0,-4.0,5.8,-12.449912603466416,-28.895586127924417,-0.7999224131853468
