time,distance(meters),speed(m/s), compass_heading(degrees), pitch(degrees), roll(degrees),height_above_takeoff(meters),North,East,Down
0.0,114.716,6.29172,242.2,-7.9,8.9,10.2,0.0,0.0,0.0
0.09999999999999432,114.713,6.2907,242.5,-7.7,2.6,10.1,0.591234406176474,-0.25996192441084676,0.10000003381003134
0.20000000000000284,114.713,6.18215,242.9,-7.0,-4.7,10.1,1.1187946179034798,-0.49128524059632256,0.10000011847424034
0.29999999999999716,114.714,5.94376,243.3,-6.4,-11.3,10.1,1.6495593490970173,-0.7225016170633188,0.10000025436794524
0.3999999999999915,114.712,5.55763,243.5,-5.8,-18.0,10.1,2.1982335329248768,-0.9534735918673463,0.10000045186764428
0.5,114.708,5.12804,243.8,-5.3,-23.1,10.1,2.7407038639787586,-1.177717374160565,0.1000007005175434
0.5999999999999943,114.704,4.6333,244.1,-5.6,-24.8,10.1,3.2108660031978498,-1.3676254197372364,0.10000095860888236
0.7000000000000028,114.696,4.15436,244.6,-6.4,-25.5,10.1,3.657041963618494,-1.5427406605602472,0.10000123919963566
0.7999999999999972,114.689,3.67164,244.7,-7.0,-24.7,10.0,4.107861380331065,-1.7169012447908831,0.20000155859089075
0.8999999999999915,114.678,3.21375,244.6,-7.6,-23.1,10.0,4.4657585855096125,-1.8482872962335681,0.2000018363389422
1.0,114.666,2.79169,244.4,-8.1,-23.1,10.0,4.752928188497002,-1.949263007874685,0.20000207516425794
1.0999999999999943,114.651,2.36757,244.2,-8.2,-23.9,10.0,5.015033811674796,-2.03617145928495,0.20000230424042353
1.2000000000000028,114.648,1.97784,244.1,-8.3,-23.6,10.0,5.188421471952365,-2.1008487504237214,0.20000246468046834
1.2999999999999972,114.629,1.59853,244.0,-8.3,-22.8,10.1,5.363522720308285,-2.148992082833153,0.10000262619926037
1.3999999999999915,114.604,1.21621,243.7,-8.4,-22.4,10.1,5.488441006448413,-2.1710552073455323,0.1000027398072012
1.5,114.575,0.872966,243.6,-8.4,-21.9,10.1,5.586954556085733,-2.1780429985673155,0.1000028285119785
1.5999999999999943,114.535,0.593559,243.6,-8.7,-21.4,10.1,5.6084701622930115,-2.1426380939591345,0.10000283547073519
1.7000000000000028,114.499,0.385401,243.6,-8.7,-21.6,10.1,5.6462684029323045,-2.1193453856689453,0.10000286170503125
1.7999999999999972,114.466,0.360378,243.6,-8.5,-22.2,10.1,5.657820831104324,-2.088453915108369,0.10000286103323175
1.8999999999999915,114.429,0.587864,243.6,-8.5,-22.4,10.1,5.6425668682333665,-2.042853692479629,0.10000283234617235
2.0,114.388,0.852718,243.6,-8.5,-22.5,10.1,5.595946796037268,-1.9805972812355686,0.10000277187963835
2.0999999999999943,114.335,1.12088,243.7,-8.2,-22.3,10.1,5.507295279958299,-1.889106627293633,0.10000266737510621
2.200000000000003,114.288,1.39626,243.9,-8.5,-22.2,10.1,5.414555053642116,-1.8029618395278195,0.10000256188888956
2.299999999999997,114.236,1.65939,244.0,-8.5,-22.2,10.1,5.293924854722223,-1.6998248420334003,0.10000243263046293
2.3999999999999915,114.185,1.9254,244.1,-8.6,-22.3,10.1,5.154515438183469,-1.590303355334068,0.10000228997301486
2.5,114.129,2.19631,244.2,-9.1,-22.1,10.1,4.985314727251451,-1.463491814753784,0.10000212388066254
2.5999999999999943,114.069,2.43983,244.0,-9.0,-20.8,10.1,4.799866064374838,-1.3253470395688995,0.10000195196305972
2.700000000000003,114.004,2.6349,243.9,-8.9,-19.5,10.1,4.584542310699994,-1.1693928863942484,0.1000017616578317
2.799999999999997,113.942,2.82657,243.7,-8.8,-18.0,10.1,4.362855756814292,-1.0130721462647636,0.10000157792077347
2.8999999999999915,113.869,2.93282,243.3,-8.9,-13.2,10.1,4.113042299247843,-0.8340925747886089,0.10000138641738121
3.0,113.805,2.95671,242.6,-8.8,-5.9,10.1,3.871839703944641,-0.6660185592451212,0.10000121540012863
3.0999999999999943,113.739,2.83043,242.0,-9.1,2.0,10.1,3.6226359461715374,-0.49222446550388854,0.10000105218603639
3.200000000000003,113.673,2.60997,241.8,-8.2,9.1,10.1,3.403523994533552,-0.3307869391143474,0.10000092046162745
3.299999999999997,113.596,2.31151,241.5,-7.3,12.5,10.1,3.19191911037411,-0.1588867896492453,0.10000080438251646
3.3999999999999915,113.54,1.98465,241.1,-6.8,13.9,10.1,3.0164423076016575,-0.02517902744889955,0.10000071618100503
3.5,113.484,1.66448,241.2,-5.6,15.2,10.1,2.860767624356117,0.10159438086113959,0.10000064583510238
3.5999999999999943,113.436,1.35134,241.0,-5.5,15.4,10.1,2.7418104951234903,0.20324222202982767,0.10000059494395863
3.700000000000003,113.388,1.11414,241.1,-5.0,15.2,10.1,2.6465765988280876,0.2964435989812516,0.1000005581673038
3.799999999999997,113.358,0.87162,241.2,-4.4,14.8,10.1,2.5478925771234824,0.3709573460888677,0.1000005226133196
3.8999999999999915,113.31,0.666327,241.1,-4.4,13.6,10.1,2.5063436845832894,0.4409194724280883,0.10000050963321949
4.0,113.259,0.573344,241.0,-5.1,12.7,10.1,2.5059853862761408,0.49644776343446606,0.10000051443193403
4.099999999999994,113.203,0.602106,241.1,-5.6,12.9,10.0,2.533285846244072,0.5454006162706451,0.20000052844952965
4.200000000000003,113.145,0.724648,241.3,-5.5,12.6,10.0,2.5955643963424504,0.5819205179020779,0.20000055715802656
4.299999999999997,113.086,0.913378,241.4,-5.6,11.7,10.0,2.671152216357457,0.6145455783320888,0.20000059156421957
4.3999999999999915,113.031,1.12336,241.5,-5.8,11.6,10.0,2.7709747349084584,0.6313163191101352,0.2000006362379383
4.5,112.973,1.34986,241.5,-6.0,11.3,10.0,2.898909705910539,0.6400682590422735,0.20000069336882698
4.599999999999994,112.905,1.5567,241.4,-6.3,11.0,10.0,3.0615135321901192,0.6458646989741859,0.2000007703691351
4.700000000000003,112.838,1.76144,241.4,-6.2,11.4,10.1,3.2339043450064815,0.6460785280269152,0.10000085552054827
4.799999999999997,112.774,1.98248,241.5,-5.5,11.0,10.1,3.4206330584563758,0.6374334908401097,0.10000095356655292
4.8999999999999915,112.705,2.18962,241.5,-5.5,10.0,10.1,3.6371819654333093,0.6214875165075322,0.10000107253692514
5.0,112.641,2.3812,241.7,-5.4,10.0,10.1,3.87816782255739,0.5912757216764799,0.10000121136376494
5.099999999999994,112.574,2.5732,241.7,-5.6,11.0,10.1,4.132725911075418,0.5589637681116894,0.10000137011225507
5.200000000000003,112.504,2.77109,241.8,-5.4,11.3,10.1,4.397091151025281,0.5268198190635648,0.10000154508811754
5.299999999999997,112.428,2.96879,241.9,-5.2,11.4,10.1,4.694171903652565,0.48805463587256415,0.10000175382975707
5.3999999999999915,112.356,3.14262,242.0,-5.2,10.2,10.1,4.9939283923533555,0.4447149251446405,0.10000197941066613
5.5,112.273,3.29807,242.3,-5.6,5.9,10.1,5.339487185033713,0.3958384308624494,0.10000225596324919
5.599999999999994,112.198,3.32848,242.6,-6.4,-1.5,10.1,5.664694865027326,0.347397241772079,0.10000253581834873
5.700000000000003,112.118,3.18922,243.0,-6.9,-9.0,10.1,6.003032665382026,0.30068200218298324,0.10000284333454434
5.799999999999997,112.044,2.97311,243.3,-6.0,-16.7,10.1,6.283437808188715,0.27014946751894464,0.10000311327808209
5.8999999999999915,111.975,2.6436,243.4,-5.4,-21.9,10.1,6.509715850061245,0.25702154277387024,0.10000333967613839
6.0,111.878,2.2968,243.6,-5.4,-23.8,10.1,6.76432305861259,0.2624285007398748,0.10000360623556492
6.099999999999994,111.767,1.97739,243.9,-5.8,-24.0,10.1,7.004525854658133,0.2898985978597808,0.10000386883870016
6.200000000000003,111.656,1.69254,244.0,-6.3,-23.7,10.1,7.193832059159649,0.33644580037640814,0.10000408169715325
6.299999999999997,111.514,1.51447,243.7,-6.3,-24.0,10.1,7.423528435258459,0.4019479087930051,0.10000434979010953
6.3999999999999915,111.392,1.36792,243.6,-6.5,-23.8,10.1,7.550634112915047,0.48452622996511496,0.10000450555347129
6.5,111.258,1.33045,243.6,-6.6,-23.8,10.1,7.6517367087200014,0.5899848489353359,0.10000463626173417
6.599999999999994,111.127,1.37942,243.7,-6.5,-24.2,10.1,7.70028120821955,0.7110839430345552,0.10000470667443118
6.700000000000003,110.985,1.51056,243.8,-6.6,-24.3,10.1,7.71943607029962,0.855872857426007,0.10000474679244276
6.799999999999997,110.841,1.69913,243.8,-6.5,-24.2,10.1,7.710767426749764,1.0133391088833814,0.10000475936918196
6.8999999999999915,110.683,1.90933,243.9,-6.5,-23.8,10.1,7.674012330548852,1.1965571489747786,0.10000474743642407
7.0,110.523,2.14919,243.8,-6.7,-23.7,10.1,7.614946992676678,1.3906960355345563,0.10000471486283047
7.099999999999994,110.348,2.37891,243.9,-6.8,-23.2,10.1,7.52802347521161,1.610991479966428,0.10000466310251799
7.200000000000003,110.178,2.62486,243.8,-6.7,-23.1,10.1,7.411340465167717,1.8378852517110476,0.10000458724149608
7.299999999999997,109.998,2.86256,243.8,-6.8,-22.8,10.1,7.271954239060653,2.084963492610198,0.10000450318080434
7.3999999999999915,109.821,3.09678,243.8,-7.0,-22.6,10.1,7.117860189665088,2.334981978824134,0.10000441434284779
7.5,109.63,3.33417,244.0,-7.6,-21.9,10.1,6.934301378078432,2.611317394028688,0.1000043180735033
7.599999999999994,109.428,3.54999,244.0,-8.0,-21.4,10.1,6.729697967134187,2.909433415815601,0.10000422866047876
7.700000000000003,109.225,3.74354,243.9,-7.9,-20.3,10.1,6.502243985137151,3.2178058795349846,0.10000413853168144
7.799999999999997,109.037,3.9292,243.6,-7.3,-19.0,10.1,6.2630381859467805,3.5163954244656628,0.10000405649447863
7.8999999999999915,108.838,4.07613,243.4,-6.9,-17.8,10.1,5.996563692430404,3.838438065267848,0.10000398362423546
8.0,108.646,4.1964,243.1,-6.4,-14.3,10.1,5.7126536441764815,4.16164155145699,0.10000392408606684
8.099999999999994,108.441,4.25895,242.8,-4.8,-9.7,10.1,5.4299485592568075,4.500707011132976,0.10000390780156643
8.200000000000003,108.24,4.27877,242.4,-2.6,-5.7,10.1,5.165213615494824,4.828477415246478,0.10000392553162785
8.299999999999997,108.022,4.2439,242.3,-0.2,-1.0,10.1,4.895890083426327,5.177837506840181,0.10000398713326142
8.399999999999991,107.808,4.09972,242.4,1.6,5.6,10.1,4.650058624969322,5.514894476145358,0.10000408370243452
8.5,107.575,3.92139,242.7,3.2,11.6,10.1,4.421974819319683,5.8661332791695555,0.10000423475472053
8.599999999999994,107.343,3.74728,242.9,3.9,14.1,10.1,4.249263525720179,6.19371277863652,0.10000442505716967
8.700000000000003,107.089,3.59901,243.0,4.7,15.0,10.1,4.1032372698301,6.535054051319507,0.10000467003161106
8.799999999999997,106.838,3.47275,243.4,6.2,15.4,10.1,3.986938748821877,6.860457004138633,0.1000049385819004
8.899999999999991,106.572,3.38027,243.6,6.9,15.6,10.1,3.8919391448644047,7.192626291911483,0.1000052450096307
9.0,106.311,3.35161,243.6,7.2,14.8,10.1,3.8462757611810305,7.498806992843088,0.10000556954297557
9.099999999999994,105.991,3.36666,243.3,6.4,14.7,10.1,3.8330100950535533,7.855582484132484,0.1000059890181999
9.200000000000003,105.682,3.39694,242.9,5.7,14.0,10.1,3.8587649456689883,8.18220726127348,0.10000641565395751
9.299999999999997,105.348,3.44516,243.1,6.8,12.1,10.0,3.9016692679118865,8.52980294373101,0.20000689632584212
9.399999999999991,105.018,3.54944,243.2,6.7,11.4,10.0,4.001674097483421,8.847057103077159,0.20000739076905028
9.5,104.656,3.69028,242.9,4.6,11.4,10.0,4.141563457436419,9.180814666582544,0.2000079516995228
9.599999999999994,104.284,3.82736,242.5,3.3,10.5,10.0,4.30733166745089,9.515343531182511,0.20000855108446025
9.700000000000003,103.865,3.99198,242.5,3.1,9.8,10.0,4.529570455946317,9.875631762336072,0.20000925269250702
9.799999999999997,103.473,4.13121,242.4,3.1,9.9,10.0,4.7488676629476805,10.20731959590319,0.20000993497673036
9.899999999999991,103.052,4.25486,242.3,3.2,9.6,10.0,5.004113824908422,10.55456385124072,0.2000106952234706
10.0,102.641,4.40947,242.3,3.4,9.5,10.0,5.274452127398103,10.885182430510984,0.2000114679025331
10.099999999999994,102.189,4.58196,242.3,3.4,9.4,10.0,5.604624439001423,11.234106686588689,0.20001235575968446
10.200000000000003,101.761,4.74392,242.4,3.3,8.8,10.0,5.921264954456889,11.562586827396242,0.2000132288719212
10.299999999999997,101.303,4.8819,242.4,3.3,8.5,10.0,6.27535411905909,11.908082027327868,0.2000142053709233
10.399999999999991,100.87,5.01361,242.4,3.1,8.0,10.0,6.622485221296211,12.229772831667692,0.20001516531500574
10.5,100.408,5.16901,242.3,2.3,6.0,10.0,7.004383470470903,12.56772263935314,0.2000162302682349
10.599999999999994,99.9464,5.28966,242.2,1.8,2.8,10.0,7.403957100334308,12.898875511784452,0.20001734496556134
10.700000000000003,99.451,5.38511,242.2,1.2,1.7,10.0,7.826710793661352,13.257429696345389,0.20001858630510494
10.799999999999997,98.9911,5.45053,242.2,0.0,1.2,10.0,8.221710289983353,13.589750980272456,0.20001978260201225
10.899999999999991,98.5062,5.42438,242.2,-4.1,-3.0,10.0,8.63896805655189,13.94053833615688,0.20002109223344888
11.0,98.0045,5.33849,242.8,-7.6,-9.8,10.0,9.086644175539108,14.297511548540175,0.20002250640713992
11.099999999999994,97.1204,4.96981,243.5,-9.4,-15.5,10.0,9.814462959333675,14.953799178661761,0.20002509329557316
11.200000000000003,96.721,4.7373,243.9,-10.2,-18.5,10.0,10.108461034091473,15.265279251373371,0.20002629116333548
11.299999999999997,96.3374,4.51655,244.1,-10.3,-19.4,10.0,10.376857679461182,15.570359586702011,0.20002745957378032
11.399999999999991,95.872,4.39119,244.2,-10.4,-19.5,10.0,10.676051305697044,15.951587841704907,0.2000288974379849
11.5,95.4309,4.24235,244.2,-10.5,-19.8,10.0,10.935435549819088,16.3228499314052,0.20003027636184
11.599999999999994,94.9786,4.12689,244.2,-10.5,-19.8,10.0,11.174520742474346,16.714632502744642,0.20003170595356057
11.700000000000003,94.567,4.01778,244.1,-10.5,-19.7,10.0,11.359068475098885,17.084542937799743,0.20003301144430807
11.799999999999997,94.087,3.91677,244.0,-10.6,-19.5,10.0,11.563236409691998,17.52040599400294,0.20003456196808678
11.899999999999991,93.6979,3.85236,244.1,-10.8,-19.2,10.0,11.68525424581349,17.891316949296893,0.2000358128777826
12.0,93.2993,3.80007,244.1,-11.1,-18.7,10.1,11.786117887274063,18.28111439188131,0.10003710449804526
12.099999999999994,92.9376,3.76479,244.1,-11.2,-18.4,10.1,11.844620476954683,18.64826044887983,0.10003827652353703
12.200000000000003,92.5747,3.73492,244.1,-11.2,-18.3,10.1,11.855457035996999,19.036324182674498,0.1000394406802414
12.299999999999997,92.2344,3.70411,244.1,-11.3,-18.2,10.1,11.862551601628427,19.401576363554067,0.10004055282335678
12.399999999999991,91.8857,3.72794,244.1,-11.2,-17.5,10.1,11.847347525976454,19.785310004323083,0.10004170268783508
12.5,91.5677,3.74489,244.1,-10.9,-16.9,10.1,11.806255920689779,20.146827820708552,0.10004275734359602
12.599999999999994,91.2668,3.73356,244.2,-11.1,-16.8,10.1,11.714591363154657,20.511247782672058,0.10004374689569051
12.700000000000003,90.9694,3.73539,244.6,-11.7,-16.1,10.1,11.635981806244018,20.866969249921038,0.10004475612113506
12.799999999999997,90.6667,3.7826,244.5,-11.2,-16.5,10.1,11.535012931661731,21.238346499485257,0.10004579621140586
12.899999999999991,90.3857,3.83855,244.1,-9.9,-17.0,10.1,11.416328191325558,21.594442268865432,0.1000467763100037
13.0,90.1014,3.90192,243.9,-9.6,-17.0,10.1,11.248856295587078,21.975839366739322,0.10004777934767883
13.099999999999994,89.8371,3.96827,243.9,-9.6,-16.3,10.2,11.097409990436912,22.329468849409764,4.874006962918287e-05
13.200000000000003,89.568,4.03948,243.9,-9.5,-15.9,10.2,10.922806676978084,22.699502204616458,4.9741775671741095e-05
13.299999999999997,89.3176,4.07648,243.9,-9.4,-15.7,10.1,10.743048195639012,23.052558301753763,0.10005070180335007
13.399999999999991,89.0619,4.11858,243.8,-9.5,-15.3,10.1,10.540083951886011,23.422843768392603,0.10005170948535014
13.5,88.8302,4.06296,243.5,-9.4,-12.9,10.1,10.33980116009094,23.76702615952228,0.10005265139026776
13.599999999999994,88.6007,3.90609,242.9,-11.3,-2.9,10.1,10.128454290141736,24.115065250974446,0.10005361663150758
13.700000000000003,88.3922,3.63165,242.2,-10.4,6.0,10.1,9.938773216070551,24.431441522343334,0.10005451987225467
13.799999999999997,88.1809,3.27244,241.9,-7.3,12.5,10.1,9.765051155484223,24.744717160587108,0.10005545698416896
13.899999999999991,87.9909,2.87931,241.6,-6.1,18.8,10.1,9.620345914395308,25.021839436592984,0.10005631498449574
14.0,87.7914,2.51342,241.4,-5.5,22.7,10.1,9.524956651102432,25.28707849302039,0.10005721826474545
14.099999999999994,87.6071,2.21037,241.4,-4.8,23.8,10.1,9.47119420471854,25.51638561771604,0.10005804905930216
14.200000000000003,87.4148,2.03703,241.8,-3.5,23.7,10.1,9.457293132088513,25.735940260833747,0.10005891008125989
14.299999999999997,87.246,1.93044,242.1,-2.4,22.7,10.1,9.480514041166643,25.9119336501064,0.10005965571605469
14.399999999999991,87.0545,1.93953,241.7,-2.7,21.3,10.1,9.559933870661261,26.086376596047817,0.10006048611052787
14.5,86.8707,2.01086,241.2,-3.4,19.9,10.1,9.67144213940113,26.237152553695513,0.10006127276888055
14.599999999999994,86.6779,2.13335,240.8,-4.4,19.4,10.1,9.824216091325948,26.378397486615082,0.10006208901324776
14.700000000000003,86.4982,2.30744,240.7,-5.3,19.8,10.1,10.020318807720077,26.484825457036955,0.10006283529610105
14.799999999999997,86.3082,2.53888,240.8,-5.2,19.3,10.1,10.249255505194597,26.58754178367118,0.10006362724475082
14.899999999999991,86.1352,2.77074,241.2,-4.2,18.4,10.1,10.485872581242699,26.668126206198856,0.1000643501444527
15.0,85.9419,3.00987,241.5,-3.8,18.0,10.1,10.778246474166107,26.74581607590474,0.10006516513043096
15.099999999999994,85.7674,3.23729,241.6,-4.0,17.1,10.1,11.065768760519315,26.805681318245618,0.10006590970774898
15.200000000000003,85.5666,3.45267,241.6,-4.5,16.4,10.1,11.42163474772196,26.86413353702254,0.10006678454953377
15.299999999999997,85.3951,3.65777,241.7,-4.5,16.4,10.1,11.749616511255446,26.904058605026997,0.10006755183611293
15.399999999999991,85.2069,3.88638,242.0,-4.2,16.0,10.1,12.134802737688037,26.937828130772452,0.10006841723908622
15.5,85.0354,4.09073,242.0,-4.5,15.3,10.1,12.506133528620854,26.960936509280845,0.10006923420416403
15.599999999999994,84.8405,4.29075,242.1,-4.4,14.5,10.1,12.949235039007501,26.979592359837532,0.10007020056948068
15.700000000000003,84.6584,4.47436,242.2,-4.0,14.0,10.1,13.38142845635599,26.991168788570327,0.10007114656768312
15.799999999999997,84.4671,4.62724,242.3,-3.7,12.8,10.1,13.851116716233797,26.998850279288206,0.10007218401192386
15.899999999999991,84.2859,4.7715,242.4,-3.4,11.6,10.1,14.318429743168771,26.99884900443003,0.10007321993935836
16.0,84.0881,4.86505,242.5,-3.0,9.6,10.1,14.850558321634345,26.992638713389432,0.10007441472330747
16.099999999999994,83.9108,4.9105,242.7,-3.0,6.3,10.1,15.331654500837272,26.988047603490052,0.1000755389721002
16.200000000000003,83.7271,4.82431,242.9,-4.2,0.7,10.1,15.829654579126533,26.986159917354982,0.10007675187162057
16.299999999999997,83.5581,4.59148,243.4,-5.8,-8.2,10.1,16.274218173432317,26.99230644530313,0.1000778999180687
16.39999999999999,83.3899,4.23628,243.7,-5.8,-19.1,10.1,16.67997220981301,27.014750308346162,0.10007904775997023
16.5,83.2573,3.81348,243.7,-5.2,-25.3,10.1,16.95074370229659,27.052560067205604,0.1000799245326407
16.599999999999994,83.0674,3.4233,243.9,-5.2,-26.6,10.0,17.300940151480386,27.1222992356267,0.2000811631366819
16.700000000000003,82.8703,3.05436,244.1,-5.9,-26.8,10.0,17.62863886729284,27.20936710168782,0.20008243468539888
16.799999999999997,82.6502,2.77882,244.3,-6.6,-27.4,10.0,17.959998701737465,27.32067460283088,0.20008383746048608
16.89999999999999,82.3962,2.53456,244.1,-6.9,-28.0,10.0,18.33979906910669,27.451234689908205,0.20008548330933174
17.0,82.1724,2.28003,244.0,-7.4,-27.8,10.0,18.565239572556237,27.607226209359993,0.2000868099830022
17.099999999999994,81.962,2.14228,244.2,-7.9,-27.8,10.0,18.724529551154962,27.773313945283732,0.20008799753558648
17.200000000000003,81.7432,2.11634,244.1,-7.9,-28.5,10.0,18.8337349921016,27.96679551635792,0.20008916544561295
17.299999999999997,81.5362,2.15184,244.0,-7.5,-28.5,10.0,18.90153313887599,28.16273629562208,0.2000902292739415
17.39999999999999,81.315,2.31354,244.2,-7.7,-27.9,10.0,18.921827124220176,28.391111286333167,0.20009130026327782
17.5,81.0998,2.50507,244.4,-8.0,-27.7,10.0,18.9019563435479,28.627879397133043,0.20009229847365617
17.599999999999994,80.8687,2.7426,244.3,-7.8,-27.6,10.0,18.841721494132994,28.89650894439329,0.20009332987890005
17.700000000000003,80.6546,3.0047,244.1,-7.5,-27.4,10.0,18.70814981900534,29.1745779603078,0.20009419888427615
17.799999999999997,80.425,3.27678,244.3,-7.8,-26.5,10.0,18.572697102468876,29.470586167961557,0.20009516251824522
17.89999999999999,80.2029,3.53745,244.4,-7.9,-25.8,10.1,18.41548345974477,29.76752662286829,0.10009608230985734
18.0,79.966,3.81466,244.3,-7.7,-25.6,10.1,18.222676104994832,30.094777752475824,0.10009706051756417
18.099999999999994,79.7357,4.07085,244.2,-7.7,-25.4,10.1,18.007471840761628,30.424762986684826,0.10009801049420552
18.200000000000003,79.4759,4.30202,244.2,-7.7,-24.6,10.1,17.726680692819755,30.813598699849233,0.10009908590206429
18.299999999999997,79.2494,4.4968,244.3,-8.1,-23.5,10.1,17.460348756488123,31.163058329185326,0.10010004577214371
18.39999999999999,79.0172,4.6945,244.1,-8.0,-22.4,10.1,17.159452071726253,31.534543026482588,0.10010104945964127
18.5,78.799,4.87857,244.1,-7.9,-21.1,10.1,16.859699618040317,31.892800555357134,0.10010202612860297
18.599999999999994,78.5748,5.03926,243.8,-7.2,-20.7,10.1,16.530363994677153,32.272304177016494,0.10010306759071153
18.700000000000003,78.3609,5.17412,243.5,-6.5,-19.2,10.1,16.20294702153501,32.64260529951414,0.10010410760559019
18.799999999999997,78.1374,5.19297,242.9,-4.9,-12.9,10.1,15.851835805964726,33.036367214377925,0.10010524601499604
18.89999999999999,77.9212,5.06855,242.4,-2.9,-2.3,10.1,15.523502897680949,33.41532105384681,0.10010640881147026
19.0,77.6904,4.77408,242.1,-1.5,9.4,10.1,15.192124493056003,33.8145128192371,0.1001077097812102
19.099999999999994,77.4686,4.44164,242.2,-0.7,17.9,10.1,14.914763305921506,34.182431153504865,0.10010901175361742
19.200000000000003,77.2346,4.02515,241.8,-1.3,21.1,10.1,14.661475010388553,34.55508431287468,0.10011042869375153
19.299999999999997,77.0148,3.57731,242.3,-0.2,26.0,10.1,14.471019925417647,34.88508494848282,0.10011178717461622
19.39999999999999,76.7886,3.29316,242.7,0.4,27.2,10.1,14.305724181459457,35.2118168993537,0.1001132050903113
19.5,76.5697,2.97444,242.7,0.2,26.0,10.1,14.204980936740297,35.501196333678415,0.10011458133036655
19.599999999999994,76.3365,2.77798,242.9,0.6,26.2,10.1,14.142047495637588,35.78904824648328,0.10011604860020906
19.700000000000003,76.1045,2.66503,243.6,2.0,23.4,10.1,14.129397990845948,36.0522555657432,0.10011750179970225
19.799999999999997,75.8477,2.66195,243.2,2.2,19.3,10.1,14.161761977750416,36.32160282094134,0.10011909919596551
19.89999999999999,75.5992,2.68423,242.3,0.5,18.0,10.0,14.201390036680593,36.57838670396044,0.20012065551044245
20.0,75.3219,2.74383,241.6,-1.9,19.4,10.0,14.32208181861041,36.828366329915106,0.20012236199824862
20.099999999999994,75.0538,2.8191,241.4,-3.0,19.0,10.0,14.480736470734017,37.05002039010453,0.20012400434093802
20.200000000000003,74.7695,2.91893,241.1,-3.6,18.2,10.0,14.690203887891574,37.265495954836524,0.2001257389916251
20.299999999999997,74.4826,3.0549,241.2,-3.4,18.2,10.0,14.959730586532496,37.45547154355715,0.20012747988270885
20.39999999999999,74.2002,3.22795,241.4,-2.9,17.1,10.0,15.232470442266978,37.639383369417416,0.200129210473035
20.5,73.9291,3.4141,241.5,-2.8,15.9,10.0,15.520123224810758,37.80421804826566,0.20013087942839647
20.599999999999994,73.6411,3.63127,241.7,-2.5,15.3,10.0,15.849824782290735,37.96886926117823,0.20013267097073406
20.700000000000003,73.3496,3.8316,241.8,-2.7,14.9,10.0,16.21816250949787,38.12028550414974,0.20013450176387781
20.799999999999997,73.0553,3.99628,241.9,-3.1,14.5,10.0,16.596142681923943,38.271602415430024,0.20013638303752046
20.89999999999999,72.7774,4.1689,241.8,-3.5,13.7,10.0,16.976885200945482,38.40488084875178,0.200138189621633
21.0,72.4879,4.3329,241.9,-3.5,13.6,10.0,17.398093004609876,38.53418790130475,0.20014010832855522
21.099999999999994,72.2004,4.49388,242.1,-3.5,13.4,10.0,17.847944907181134,38.65044329912416,0.20014205898164228
21.200000000000003,71.9037,4.5977,242.2,-3.4,11.6,10.0,18.31281384547276,38.77226595711979,0.2001441196873941
21.299999999999997,71.6305,4.66476,242.3,-3.1,8.4,10.0,18.755950390532064,38.8800138075958,0.2001460681003966
21.39999999999999,71.3502,4.70794,242.5,-2.6,4.5,10.0,19.21866656044306,38.98922023110052,0.20014811633212126
21.5,71.0775,4.62841,242.7,-4.2,-1.9,10.0,19.655385445362008,39.10316928380051,0.20015014977651013
21.599999999999994,70.7972,4.38389,243.1,-5.7,-12.3,10.0,20.07887022710438,39.23285047352881,0.2001522695427731
21.700000000000003,70.5199,4.08755,243.5,-6.0,-20.9,10.0,20.471118989431062,39.373582433309394,0.20015438751231507
21.799999999999997,70.2297,3.76344,243.7,-6.0,-24.1,10.0,20.84555086689533,39.536820510353614,0.2001566129690584
21.89999999999999,69.9512,3.49626,243.9,-6.2,-24.5,10.0,21.160411752545627,39.712086982994585,0.2001587415404007
22.0,69.6523,3.32318,244.0,-6.5,-24.3,10.0,21.47186017488069,39.91150145719672,0.20016102993225715
22.099999999999994,69.3621,3.13878,244.0,-7.1,-24.7,10.0,21.718429530489338,40.12739669697129,0.20016322143407272
22.200000000000003,69.0517,2.98467,243.9,-7.5,-24.6,10.0,21.943194438191192,40.373839773402,0.20016554708192658
22.299999999999997,68.7642,2.87535,243.8,-7.8,-24.5,10.0,22.109717511048707,40.61814472730742,0.20016767353395437
22.39999999999999,68.4607,2.82968,243.9,-8.1,-24.4,10.0,22.260509956773625,40.88581112795935,0.20016990840912996
22.5,68.1824,2.8553,243.9,-8.2,-23.9,10.0,22.34164683917433,41.153149426228175,0.20017191128203926
22.599999999999994,67.8899,2.94277,243.8,-7.8,-23.8,10.0,22.387633866731385,41.449332573274795,0.20017398892053606
22.700000000000003,67.6144,3.06745,243.7,-7.5,-23.9,10.0,22.39682820701386,41.741514127535766,0.20017592537499773
22.799999999999997,67.3398,3.21079,243.8,-7.4,-23.7,10.0,22.34125910529761,42.05802722882875,0.20017780633250482
22.89999999999999,67.0606,3.38777,243.9,-7.6,-23.3,10.0,22.288333969773845,42.37890101606645,0.2001797422716809
23.0,66.7633,3.57401,243.8,-7.5,-23.0,10.0,22.20411367771506,42.73214792886283,0.20018180249117812
23.099999999999994,66.4832,3.76255,243.8,-7.7,-22.4,10.1,22.095017544085675,43.07742265566608,0.10018374238432948
23.200000000000003,66.1922,3.95204,243.8,-7.8,-22.0,10.1,21.95205273146567,43.449006131723365,0.10018576624732312
23.299999999999997,65.9058,4.11893,243.9,-8.1,-21.8,10.1,21.784659680020454,43.82682909752694,0.10018777142327195
23.39999999999999,65.6198,4.30859,243.9,-8.0,-21.7,10.1,21.59157566882832,44.216428343800345,0.1001897999221768
23.5,65.3495,4.49315,243.9,-8.1,-21.3,10.1,21.386517321420293,44.59574071863375,0.1001917441471587
23.599999999999994,65.0681,4.6587,243.9,-8.1,-20.7,10.1,21.149705816129277,45.002634041902354,0.10019380621962704
23.700000000000003,64.7944,4.81135,244.0,-8.6,-20.1,10.1,20.89923251111128,45.4094243621028,0.10019585774583817
23.799999999999997,64.518,4.92878,244.2,-9.1,-20.1,10.1,20.61414825362606,45.83717443057712,0.10019798373397037
23.89999999999999,64.2763,5.06356,244.3,-9.0,-20.2,10.1,20.32867953172311,46.23011918049755,0.10019989796651174
24.0,64.04,5.14777,244.0,-8.5,-19.1,10.1,20.014035065183098,46.63366034521204,0.10020183232902014
24.099999999999994,63.8231,5.10565,243.4,-9.0,-11.6,10.1,19.705322765669944,47.01644048526799,0.10020367492207427
24.200000000000003,63.5924,4.87519,242.4,-9.4,1.0,10.1,19.392264691156864,47.42015733697924,0.10020569743789487
24.299999999999997,63.3828,4.47754,241.8,-7.6,12.9,10.1,19.11749303836163,47.78527694198628,0.10020758685345932
24.39999999999999,63.1723,4.05101,241.6,-6.2,19.7,10.1,18.862352989137328,48.14474895104005,0.1002095264859939
24.5,62.9617,3.60316,241.1,-5.9,23.0,10.1,18.61283025194274,48.504087302312904,0.10021151087745395
24.599999999999994,62.7552,3.15809,241.7,-4.1,26.0,10.1,18.425470319476915,48.82989537696875,0.10021344761397977
24.700000000000003,62.5673,2.74066,242.2,-2.6,27.5,10.1,18.303049961596983,49.10340155889311,0.10021519162465431
24.799999999999997,62.3742,2.48553,242.1,-2.2,26.3,10.1,18.232231162247395,49.35695597569051,0.10021694253286739
24.89999999999999,62.1859,2.25082,242.1,-1.8,24.2,10.1,18.207032487320873,49.58213130219077,0.10021861526586484
25.0,62.0039,2.10947,241.5,-2.5,23.1,10.1,18.20497616649714,49.78850817612461,0.10022021627251831
25.099999999999994,61.8086,2.03738,241.0,-3.9,23.3,10.1,18.265521930809392,49.97727395847242,0.10022186400806454
25.200000000000003,61.6036,2.03685,240.6,-5.6,22.8,10.1,18.375086001911903,50.15168585037792,0.10022354756243956
25.299999999999997,61.4128,2.1304,240.4,-6.4,21.8,10.1,18.51661416618761,50.293354196799015,0.10022507258558377
25.39999999999999,61.2253,2.32154,240.7,-5.6,21.6,10.0,18.709162720924084,50.40501977227808,0.20022651788384493
25.5,61.0349,2.54505,240.9,-4.9,20.3,10.0,18.92391774872176,50.508842877658005,0.20022797454563523
25.599999999999994,60.8296,2.80723,241.0,-4.3,19.0,10.0,19.18608163419009,50.6055557470182,0.20022952525945037
25.700000000000003,60.6326,3.07678,241.5,-3.5,18.7,10.0,19.468706362819198,50.683405262203976,0.20023100349906464
25.799999999999997,60.4024,3.32709,241.7,-3.7,18.5,10.0,19.827655753978526,50.76105582431701,0.20023273036137468
25.89999999999999,60.2041,3.5685,241.6,-4.9,17.9,10.0,20.16916944937007,50.8133327413708,0.20023422100651267
26.0,59.9977,3.80775,241.8,-5.3,17.7,10.0,20.556072182085202,50.854031822342066,0.20023578433380074
26.099999999999994,59.8069,4.04404,241.9,-5.6,18.0,10.0,20.944558319091477,50.87856731078592,0.2002372479989365
26.200000000000003,59.6138,4.24052,241.8,-6.2,17.0,10.0,21.39260957795085,50.87977546197055,0.20023874938768138
26.299999999999997,59.4331,4.42333,241.7,-6.8,15.8,10.0,21.822950766665087,50.87865061737686,0.20024020598572534
26.39999999999999,59.2476,4.62589,241.7,-7.3,15.6,10.0,22.296265322081474,50.86603959718501,0.20024174713622855
26.5,59.0801,4.7981,241.7,-7.6,14.7,10.0,22.757986942555547,50.84243527121801,0.2002431978172421
26.599999999999994,58.9132,4.90049,241.8,-7.4,13.1,10.0,23.254073953240336,50.80663076324231,0.20024470795497962
26.700000000000003,58.7604,4.89313,242.2,-7.6,7.0,10.1,23.73958264224849,50.76406841773053,0.10024616503295825
26.799999999999997,58.608,4.72667,242.8,-7.8,-4.3,10.1,24.230075468662356,50.72308610091225,0.10024769064167138
26.89999999999999,58.4665,4.39137,243.3,-6.7,-15.6,10.1,24.673360259701,50.69355943660724,0.10024916243026283
27.0,58.3175,3.93042,243.3,-5.1,-24.0,10.1,25.100885532556283,50.68173527003664,0.10025074307929494
27.099999999999994,58.1779,3.46936,243.7,-5.0,-26.9,10.1,25.470920322402254,50.68531128145055,0.10025224285415213
27.200000000000003,58.0186,3.06982,244.0,-5.4,-26.4,10.0,25.81471194912531,50.72238986193223,0.20025392448423673
27.299999999999997,57.8642,2.65147,244.3,-6.6,-26.7,10.0,26.1000931963811,50.77827548624266,0.20025553498107307
27.39999999999999,57.6996,2.33978,244.4,-7.5,-27.8,10.0,26.354625703340687,50.85790449765422,0.20025721917911454
27.5,57.5367,2.04224,244.2,-7.8,-27.9,10.0,26.608128074526633,50.93684236690652,0.20025890565627336
27.599999999999994,57.3703,1.79466,244.2,-8.2,-28.4,10.0,26.777209431724245,51.051758259501725,0.2002605333745393
27.700000000000003,57.2128,1.66483,244.1,-8.2,-28.6,10.0,26.884593122642055,51.18006583308513,0.20026201377150699
27.799999999999997,57.0477,1.65214,243.9,-7.9,-27.9,10.0,26.944029153592282,51.33438123093521,0.20026350573910534
27.89999999999999,56.8874,1.77532,244.0,-7.8,-27.9,10.0,26.938873638073865,51.50758691544338,0.2002648785497989
28.0,56.7114,1.99991,244.1,-7.6,-27.7,10.0,26.919289262819213,51.702897784347805,0.20026637349340604
28.099999999999994,56.539,2.27437,244.1,-7.6,-27.3,10.0,26.86401174202303,51.90799939002564,0.20026780338204553
28.200000000000003,56.3538,2.56649,243.9,-7.4,-26.9,10.0,26.76881374065923,52.14211010374666,0.2002693099546402
28.299999999999997,56.1775,2.85886,243.8,-7.4,-26.1,10.0,26.640768776322787,52.379963084496815,0.20027071847075106
28.39999999999999,55.9831,3.15256,244.0,-7.9,-25.0,10.0,26.46405816318777,52.65680671099037,0.2002722577842846
28.5,55.8075,3.42497,244.1,-8.2,-23.7,10.0,26.27279280166825,52.92057217058013,0.2002736448994078
28.599999999999994,55.6248,3.6763,244.1,-8.3,-23.2,10.0,26.042522947104324,53.20915024698835,0.20027509546643074
28.700000000000003,55.4547,3.93794,244.2,-8.6,-23.6,10.1,25.79647362913954,53.49243686310095,0.10027645905792859
28.799999999999997,55.2844,4.17857,244.1,-8.3,-23.5,10.1,25.495196013769906,53.80114632239979,0.1002778377722926
28.89999999999999,55.1202,4.44196,244.0,-8.1,-23.4,10.1,25.198745369972887,54.10431135028779,0.10027921726121569
29.0,54.9498,4.71193,244.0,-8.3,-23.4,10.1,24.863311918381036,54.43416770893808,0.10028069883837354
29.099999999999994,54.7911,4.88637,244.1,-8.7,-21.7,10.1,24.521720818897577,54.75783438173538,0.10028214038167604
29.200000000000003,54.6249,4.86085,243.6,-9.3,-14.5,10.1,24.13731248452074,55.11308386926939,0.1002837248818036
29.299999999999997,54.4813,4.64367,242.6,-10.1,-1.5,10.1,23.792128202339512,55.43020958050252,0.10028516876353422
29.39999999999999,54.3414,4.24957,241.7,-8.6,12.5,10.1,23.45644909474116,55.74272254280386,0.10028664064671489
29.5,54.219,3.74796,241.5,-6.5,22.6,10.1,23.17394764796586,56.013892669867865,0.10028797757776786
29.599999999999994,54.1089,3.20665,240.7,-6.8,25.2,10.1,22.91360896720918,56.26341196962815,0.10028922774087157
29.700000000000003,53.9985,2.67374,240.7,-5.9,26.5,10.2,22.70547608205658,56.489604844081306,0.0002904770046434635
29.799999999999997,53.8841,2.23714,241.8,-3.7,28.6,10.2,22.53046428678479,56.705353144798096,0.0002917673025226719
29.89999999999999,53.7799,1.80273,241.4,-4.3,27.4,10.1,22.416591962026956,56.879822571060245,0.10029291692699793
30.0,53.6707,1.46962,241.8,-3.4,25.9,10.1,22.350985554614486,57.03601741325181,0.10029407982953842
30.099999999999994,53.5648,1.27909,242.2,-1.6,24.6,10.1,22.291942720085856,57.18527787591685,0.10029520720267016
30.200000000000003,53.4439,1.19139,241.4,-2.7,23.9,10.1,22.312558962410286,57.310878657191616,0.1002964058510063
30.299999999999997,53.3288,1.25968,240.3,-5.1,23.8,10.1,22.38024441650759,57.405568646611734,0.10029749369967256
30.39999999999999,53.2102,1.47498,239.9,-6.4,22.5,10.1,22.498248418166366,57.478397616454984,0.10029856584923635
30.5,53.0993,1.72809,240.2,-6.4,21.4,10.1,22.647336653094072,57.52693712742799,0.1002995326676075
30.599999999999994,52.9831,2.00251,240.5,-6.4,20.4,10.1,22.834873217918386,57.562054486914064,0.10030052085821062
30.700000000000003,52.8727,2.29765,240.8,-6.1,20.1,10.0,23.046830362837028,57.578918536817035,0.20030143682871326
30.799999999999997,52.7575,2.61027,241.0,-6.2,20.4,10.0,23.30426934933505,57.57937143179838,0.20030238043204385
30.89999999999999,52.6465,2.95857,241.3,-6.1,21.5,10.0,23.610921601759696,57.55199123350894,0.20030326556558187
31.0,52.5355,3.27186,241.5,-6.0,21.3,10.0,23.93727911044794,57.51691288687907,0.20030417075241758
31.099999999999994,52.4337,3.56597,241.6,-6.3,19.7,10.0,24.272501702697113,57.46942828370473,0.20030501578027327
31.200000000000003,52.3314,3.85579,241.5,-6.7,18.7,10.0,24.64817507058515,57.40591353119898,0.20030588977842
31.299999999999997,52.2416,4.09711,241.6,-7.0,18.7,10.0,25.040694408829722,57.32364618777114,0.2003066844135475
31.39999999999999,52.151,4.33986,241.6,-7.3,18.8,10.1,25.469779942187966,57.2291986221374,0.10030754425300259
31.5,52.0684,4.5692,241.7,-7.4,17.7,10.1,25.90569738898954,57.12701391657535,0.10030839144330272
31.599999999999994,51.9869,4.72459,241.7,-7.7,14.5,10.0,26.383908720100557,57.009531296981436,0.2003093087141501
31.700000000000003,51.9195,4.73302,242.0,-8.3,7.6,10.1,26.8356511429781,56.89279904905271,0.10031015836902668
31.799999999999997,51.8507,4.53279,242.7,-8.0,-2.1,10.1,27.31450724014853,56.77097957130702,0.1003111152508609
31.89999999999999,51.7947,4.21552,243.3,-6.7,-12.4,10.1,27.72914745298421,56.66573643275028,0.10031197530681268
32.0,51.736,3.76918,243.4,-5.2,-20.7,10.1,28.128652250781073,56.57294540755546,0.10031290906327328
32.099999999999994,51.6731,3.27524,243.5,-4.4,-24.9,10.1,28.4733048146525,56.50884283898455,0.10031387617012655
32.2,51.595,2.81384,243.9,-4.4,-26.6,10.1,28.805883515357408,56.467830613877226,0.10031501215516236
32.3,51.5187,2.28152,244.4,-5.3,-27.7,10.0,29.066408001862598,56.45337916606424,0.20031607120666095
32.39999999999999,51.4341,1.8665,244.6,-6.2,-28.3,10.0,29.291505705192577,56.461927429949,0.20031718007795796
32.5,51.3519,1.47687,244.5,-6.5,-27.0,10.0,29.45781844640586,56.48965617587157,0.20031819468381684
32.599999999999994,51.2802,1.17246,244.3,-7.0,-25.7,10.0,29.594927914266137,56.51708725762983,0.2003190730458293
32.7,51.1936,0.974049,243.8,-6.8,-25.4,10.0,29.682043965427148,56.57819748387633,0.2003200219010992
32.8,51.0962,0.975018,243.5,-6.6,-25.5,10.0,29.736326158354046,56.66252036029408,0.20032102361005855
32.89999999999999,50.9973,1.13709,243.4,-6.6,-25.7,10.0,29.74549674341197,56.76435879378976,0.2003219700924781
33.0,50.8802,1.43394,243.4,-6.7,-25.6,10.0,29.71049347034207,56.90114789466624,0.20032302410809422
33.099999999999994,50.7668,1.72777,243.4,-6.9,-25.4,10.0,29.645915669244026,57.044692040159646,0.20032400515482074
33.2,50.6418,2.02793,243.5,-7.1,-24.7,10.0,29.543263818133617,57.21452271757832,0.20032504437730658
33.3,50.5218,2.33961,243.5,-7.3,-24.4,10.0,29.413744938622838,57.38947030599722,0.20032601474025036
33.39999999999999,50.3946,2.65254,243.7,-7.5,-24.4,10.0,29.245275003306237,57.5869967149917,0.20032701529972563
33.5,50.2681,2.95081,243.9,-7.9,-23.9,10.0,29.03353122125968,57.80131698744442,0.20032798100516125
33.599999999999994,50.1324,3.25697,244.0,-7.8,-23.7,10.0,28.8033984310067,58.034019486804766,0.20032904486832237
33.7,50.0024,3.54548,243.9,-7.6,-23.1,10.0,28.556887675321548,58.268906249970286,0.20033007198723496
33.8,49.8657,3.80815,243.8,-7.5,-22.8,10.0,28.271184614455706,58.52874693804392,0.20033117128943445
33.89999999999999,49.7213,4.06419,243.9,-7.8,-22.7,10.0,27.956161404747213,58.8117468052488,0.2003323780558688
34.0,49.5857,4.27857,243.9,-7.9,-22.2,10.1,27.627440698466614,59.09446131966338,0.10033355177136016
34.099999999999994,49.4618,4.50372,244.0,-8.1,-21.8,10.1,27.294698710732355,59.369797683234324,0.10033466722966544
34.2,49.336,4.7279,243.9,-7.9,-22.1,10.1,26.924360882144754,59.667541052750515,0.1003358625928712
34.3,49.2181,4.92106,243.9,-8.3,-22.1,10.1,26.543268149146463,59.96608255991147,0.10033705701193085
34.39999999999999,49.1001,5.00641,243.8,-9.2,-19.4,10.1,26.136040961311302,60.28176536394543,0.10033834120360474
34.5,48.9956,4.85574,242.7,-11.3,-4.3,10.1,25.751766839587624,60.57740872346692,0.10033957158102069
34.599999999999994,48.8948,4.42205,241.7,-9.0,13.1,10.1,25.3724295018852,60.871501784900474,0.10034084259821441
34.7,48.8051,3.85546,241.7,-6.1,23.8,10.1,25.06590288162954,61.12215171554266,0.10034201957184763
34.8,48.7222,3.25433,241.0,-5.7,27.4,10.1,24.784612085881527,61.35577113098965,0.1003431574692577
34.89999999999999,48.6483,2.72105,241.4,-4.4,27.8,10.1,24.557461188370567,61.55447414798357,0.10034418933832967
35.0,48.5726,2.29467,241.9,-2.9,29.1,10.1,24.363635429808326,61.73980469662581,0.10034523113909444
35.099999999999994,48.5002,1.76245,242.5,-1.6,30.6,10.1,24.223920707604126,61.894522262840425,0.10034619539010592
35.2,48.4373,1.42106,242.5,-1.3,30.4,10.1,24.068759862802736,62.04749870288022,0.10034709105084616
35.3,48.3549,1.0841,242.5,-0.8,28.2,10.1,24.032537136600325,62.16018955365116,0.1003480510099859
35.39999999999999,48.2622,0.979306,241.6,-1.8,25.7,10.1,24.054395747719838,62.253680798363966,0.10034904422941437
35.5,48.1713,1.12357,240.3,-4.7,27.1,10.1,24.118181631547323,62.322767930785545,0.10034995931305879
35.599999999999994,48.0821,1.41009,240.0,-5.6,27.5,10.0,24.223751365731808,62.36779749079709,0.2003508010301669
35.7,47.9897,1.82122,240.5,-4.8,26.1,10.0,24.378682134168145,62.390478208338976,0.20035161532982393
35.8,47.8907,2.24396,240.9,-4.3,24.8,10.0,24.59089960833728,62.39102673475466,0.2003524380339119
35.89999999999999,47.7932,2.65074,241.0,-4.5,23.0,10.0,24.83338794445453,62.37515565088769,0.20035322716955584
36.0,47.6721,3.0273,241.4,-4.0,21.4,10.0,25.154545734554024,62.34683586884492,0.20035421284219446
36.099999999999994,47.5662,3.36103,241.3,-4.8,20.2,10.0,25.47121596559258,62.305838806236366,0.2003550734413473
36.2,47.4534,3.66549,241.1,-6.0,19.5,10.0,25.837670233935455,62.25025489257803,0.2003560113969165
36.3,47.3524,3.94711,241.4,-5.9,18.6,10.1,26.20989236260682,62.181731134298644,0.10035686857270676
36.39999999999999,47.2502,4.21818,241.5,-6.1,17.6,10.1,26.64720113034527,62.08691202886803,0.10035776417032238
36.5,47.1589,4.46888,241.7,-5.9,16.8,10.1,27.06834428026175,61.992058668782725,0.10035862327954348
36.599999999999994,47.0651,4.72426,241.8,-5.6,17.7,10.1,27.537696655538024,61.882523004724625,0.1003595775072963
36.7,46.9788,4.99566,241.8,-5.9,19.1,10.1,28.012452457218526,61.76765674318139,0.10036053974101655
36.8,46.8939,5.23496,241.7,-6.3,18.7,10.1,28.537275447537162,61.63557653834057,0.100361597339921
36.89999999999999,46.8115,5.38812,242.0,-6.6,14.9,10.1,29.085142602229823,61.49807016011502,0.10036275745138923
37.0,46.7479,5.29439,242.5,-6.6,4.1,10.1,29.6149283414585,61.35458418920355,0.10036382302067892
37.099999999999994,46.696,5.05963,243.1,-7.1,-8.3,10.1,30.086520019178323,61.22763255109791,0.10036482019529913
37.2,46.6494,4.62278,243.4,-6.0,-18.4,10.1,30.516947214669045,61.115603739772325,0.10036579912021537
37.3,46.6174,4.05329,242.9,-3.8,-25.2,10.1,30.822453441323617,61.03776244190753,0.10036652856857664
37.39999999999999,46.5502,3.58151,243.1,-3.4,-27.2,10.1,31.23500463628724,60.961535688561824,0.10036781554995322
37.5,46.478,3.05458,243.8,-4.4,-27.7,10.1,31.595204508788175,60.91263801910826,0.10036912980065438
37.599999999999994,46.3941,2.60059,244.3,-5.4,-28.4,10.0,31.931630228101398,60.886894724655605,0.2003705655639667
37.7,46.3009,2.15432,244.6,-6.2,-29.0,10.0,32.36587347799404,60.84142941124726,0.20037232899372448
37.8,46.2085,1.70428,244.5,-6.4,-28.6,10.0,32.589000622503704,60.86657644650604,0.20037370928719156
37.89999999999999,46.1141,1.35704,244.4,-6.6,-27.9,10.0,32.744649608907686,60.91611625162609,0.2003749811956368
38.0,46.0072,1.15647,244.1,-6.5,-27.2,10.0,32.85347356423874,60.99397407733505,0.2003762865584484
38.099999999999994,45.8914,1.14277,243.8,-6.6,-26.0,10.0,32.86553528568989,61.11171254539174,0.20037747510521697
38.2,45.7682,1.26873,243.8,-7.2,-25.6,10.0,32.87820530857995,61.23721393832162,0.2003787439503828
38.3,45.6447,1.51041,243.6,-7.2,-26.0,10.0,32.84999256071328,61.37598857670572,0.20037992892039647
38.39999999999999,45.5084,1.82513,243.5,-6.9,-25.8,10.0,32.78132913316426,61.54127506898048,0.20038116580807497
38.5,45.3734,2.1409,243.5,-6.9,-25.2,10.0,32.681129180224055,61.715733708667486,0.2003823339199755
38.599999999999994,45.2248,2.46358,243.7,-7.1,-24.7,10.0,32.496844924725984,61.93289476722214,0.2003834922030432
38.7,45.0818,2.7697,243.8,-7.1,-24.0,10.0,32.33529560725059,62.13777932233833,0.20038465878846168
38.8,44.9285,3.05213,243.9,-7.2,-23.9,10.0,32.13677317935117,62.367388687290585,0.20038589057430478
38.89999999999999,44.7793,3.34241,244.0,-7.3,-24.0,10.0,31.91994544621931,62.60071354042634,0.20038708008376815
39.0,44.6146,3.65983,243.9,-7.2,-23.9,10.0,31.643851795784457,62.87366298687762,0.200388381711619
39.099999999999994,44.4625,3.93863,243.9,-7.2,-23.8,10.0,31.372127068194008,63.13440097990323,0.20038960852775034
39.2,44.3045,4.19266,244.0,-7.5,-23.7,10.1,31.059511490406933,63.419887708731295,0.10039090084140412
39.3,44.1549,4.41246,244.1,-7.6,-22.9,10.1,30.73988823564391,63.70275786724628,0.1003921637387748
39.39999999999999,43.9971,4.61067,244.0,-7.8,-22.5,10.1,30.368365948400964,64.01915831938794,0.10039354222907093
39.5,43.8549,4.76203,244.0,-8.5,-20.3,10.1,30.014019041543897,64.31687494277736,0.10039485074288201
39.599999999999994,43.7108,4.82945,243.6,-8.8,-13.6,10.1,29.63383531898816,64.63235906262949,0.10039625204091251
39.7,43.5798,4.79698,242.8,-5.9,-5.7,10.1,29.269119288803548,64.93246997292619,0.10039760646771256
39.8,43.4374,4.64523,242.3,-1.9,-0.9,10.1,28.88948755839641,65.2569848196949,0.10039917812291499
39.89999999999999,43.3053,4.43377,242.2,1.0,5.1,10.1,28.55312672331829,65.55598822738835,0.10040072014698964
40.0,43.161,4.07622,242.5,3.4,14.5,10.1,28.23394147760213,65.86504938476654,0.10040247577366124
40.099999999999994,43.0218,3.7121,242.6,3.3,20.9,10.1,27.9736147998575,66.14450177449619,0.10040421516312215
40.2,42.8706,3.35419,242.7,3.7,22.5,10.1,27.748719839236955,66.42302223523012,0.10040611924262777
40.3,42.73,2.96821,243.8,5.8,24.5,10.1,27.57420400531761,66.66711889897165,0.10040790409987643
40.39999999999999,42.5455,2.69384,244.0,6.0,25.1,10.1,27.454792125741058,66.9344085566774,0.10041018309986427
40.5,42.3559,2.51478,243.8,5.7,23.5,10.1,27.38439416922533,67.18355635581814,0.10041249634429938
40.599999999999994,42.1415,2.47688,243.8,6.1,21.1,10.1,27.352927241182257,67.44129544951548,0.10041507737371802
40.7,41.9234,2.48659,243.2,5.1,20.2,10.1,27.340970552071212,67.69358545163522,0.10041769713468796
40.8,41.6764,2.50672,242.6,3.3,20.2,10.1,27.404160991436456,67.9395477399948,0.10042058204887816
40.89999999999999,41.4311,2.59571,241.9,1.1,20.3,10.0,27.509089000914404,68.16170053094805,0.20042340231613132
41.0,41.163,2.7575,241.7,0.8,20.1,10.0,27.665304117275532,68.38292614260087,0.20042644576174773
41.099999999999994,40.8954,2.94737,242.0,1.7,19.4,10.0,27.863078085477,68.58184778445698,0.20042944415998143
41.2,40.6005,3.15146,242.0,1.9,18.8,10.0,28.10474443793666,68.78904374485488,0.2004327380557509
41.3,40.3122,3.37621,242.2,1.8,17.8,10.0,28.365273669968758,68.97961013047842,0.20043595214152887
41.39999999999999,40.0011,3.6508,242.4,1.8,17.8,10.0,28.670871310005282,69.17349827012359,0.20043941986529745
41.5,39.6797,3.91585,242.5,1.7,18.5,10.0,29.015489422052966,69.36047086917904,0.20044301439296142
41.599999999999994,39.3452,4.15709,242.3,1.0,17.6,10.0,29.392145477906123,69.54769907353372,0.20044678204833133
41.7,39.0239,4.39153,242.3,0.6,16.0,10.0,29.77802341701547,69.71758754228158,0.20045043030120802
41.8,38.6847,4.60922,242.4,0.4,15.5,10.0,30.210300361740728,69.88761695802262,0.2004543310471778
41.89999999999999,38.3534,4.82722,242.4,0.2,15.2,10.0,30.651708224168974,70.04763045944046,0.20045819786823493
42.0,37.9848,4.99033,242.4,-0.2,14.1,10.0,31.172378053152215,70.21620437251939,0.20046258340617307
42.099999999999994,37.6569,5.15525,242.4,-0.8,12.4,10.0,31.649169865670736,70.36423906355769,0.2004665703384827
42.2,37.3201,5.26365,242.3,-1.1,11.0,10.0,32.160221672291655,70.51150217115261,0.2004707604211955
42.3,37.0123,5.2968,242.1,-1.7,8.8,10.0,32.642120670125735,70.64446914049857,0.20047468698071924
42.39999999999999,36.7714,5.22212,242.1,-3.6,2.2,10.0,33.05761166752009,70.7363460639576,0.2004778535299021
42.5,36.4859,5.04069,242.5,-5.6,-7.1,10.0,33.508632869369876,70.86596442818133,0.20048165226789294
42.599999999999994,36.1749,4.75227,243.1,-6.5,-17.4,10.0,33.97060279831353,71.02281217870132,0.2004858474522777
42.7,35.8626,4.39351,243.4,-6.3,-23.9,10.0,34.40649462098099,71.19489576718385,0.20049011095842673
42.8,35.4605,4.02584,243.7,-6.6,-26.2,10.0,34.951941399017734,71.42729883499774,0.20049568334700751
42.89999999999999,35.1468,3.69478,244.1,-7.7,-26.7,10.0,35.317079145585396,71.63326794896038,0.20050000968980441
43.0,34.8277,3.44525,244.3,-8.0,-27.0,10.0,35.63993277416594,71.86144553748022,0.20050437697717527
43.099999999999994,34.5258,3.22892,244.2,-7.8,-26.9,10.0,35.898186143005134,72.09436612126012,0.20050845769872794
43.2,34.1887,3.07198,244.1,-7.8,-25.9,10.1,36.17036797796922,72.36066490117736,0.10051301230813436
43.3,33.8991,2.95711,243.9,-7.7,-25.2,10.1,36.327602722112765,72.61478630977487,0.10051679514938527
43.39999999999999,33.602,2.94573,243.9,-7.8,-25.2,10.1,36.440425923894594,72.89102075794591,0.1005205897365613
43.5,33.3129,2.96552,244.2,-8.4,-25.5,10.1,36.511677893284414,73.1722653302232,0.1005242164907223
43.599999999999994,33.0036,3.0128,244.2,-8.6,-25.8,10.1,36.55034460170732,73.48528739174108,0.10052803272996513
43.7,32.7216,3.13418,244.1,-8.7,-25.3,10.1,36.495173085439525,73.8002327395636,0.10053134790599927
43.8,32.4255,3.28794,244.0,-8.7,-24.3,10.1,36.44462858807352,74.12921664705186,0.10053486957786717
43.89999999999999,32.1443,3.44241,244.0,-8.9,-23.5,10.1,36.36610739444957,74.45270408872645,0.10053818398206715
44.0,31.8504,3.61614,244.2,-9.1,-23.2,10.1,36.25431103928121,74.80217642830615,0.10054163080087264
44.099999999999994,31.5802,3.80391,244.3,-9.1,-23.5,10.1,36.07799818931095,75.15104403292139,0.10054472348445742
44.2,31.2956,3.98272,244.3,-9.1,-23.6,10.1,35.904307019466934,75.5169839913773,0.10054805824242763
44.3,31.033,4.16013,244.3,-9.1,-23.4,10.1,35.70925691113135,75.87036137312084,0.10055114803662235
44.39999999999999,30.7655,4.37962,244.4,-9.5,-23.5,10.1,35.47509329041009,76.2474956524864,0.10055432948117726
44.5,30.5202,4.59778,244.5,-9.3,-23.4,10.1,35.20454005243644,76.61988768293718,0.1005572829686514
44.599999999999994,30.2633,4.80674,244.4,-9.1,-22.7,10.1,34.92193683442717,77.01538918322137,0.10056048286214647
44.7,30.0292,5.00569,244.4,-9.4,-22.5,10.2,34.626500139134755,77.39772595300653,0.0005634875710356368
44.8,29.7953,5.16841,244.5,-9.6,-22.2,10.1,34.29101045127909,77.80488065501751,0.1005666181922571
44.89999999999999,29.5815,5.30309,244.4,-9.8,-19.5,10.2,33.94643053324339,78.20233135384284,0.0005696239905308431
45.0,29.3717,5.37569,243.9,-8.9,-15.6,10.2,33.58266500716242,78.61371649524101,0.0005727427415447295
45.099999999999994,29.1849,5.36434,243.3,-7.1,-10.3,10.2,33.22866023846791,79.00405039652398,0.000575700576481708
45.2,28.998,5.19498,242.5,-4.4,-2.5,10.2,32.861252436810204,79.41136324577468,0.0005788418523717809
45.3,28.8219,4.85245,242.2,-1.9,10.0,10.2,32.538449027750985,79.79162575084621,0.0005819228813148669
45.39999999999999,28.6311,4.39764,242.6,0.2,22.2,10.2,32.235332272684886,80.18608136056088,0.0005853199292769062
45.5,28.454,3.936,243.4,2.3,28.5,10.2,32.01044974796307,80.52600485423207,0.0005884607469486269
45.599999999999994,28.2658,3.51957,242.8,1.6,27.9,10.2,31.829115629120952,80.85743956072446,0.0005917400155421859
45.7,28.076,3.18818,242.9,1.9,26.8,10.1,31.704504159913675,81.15944172231582,0.10059494887191178
45.8,27.8848,2.98238,243.3,2.9,26.3,10.1,31.61337720307399,81.444557720865,0.10059812692484016
45.89999999999999,27.6708,2.74508,242.6,1.8,26.6,10.1,31.58022185886566,81.72115233263094,0.10060149540587382
46.0,27.4362,2.57982,241.5,-0.6,26.7,10.1,31.593302229180967,81.99344889152965,0.10060505073843373
46.099999999999994,27.2043,2.4942,240.9,-2.2,25.5,10.1,31.656530518454826,82.2298228163803,0.1006084060162884
46.2,26.9568,2.51477,241.1,-1.7,24.4,10.1,31.752806598053343,82.46324670439677,0.10061189711286289
46.3,26.7051,2.6294,241.5,-0.7,24.0,10.1,31.91145050375181,82.66011970655154,0.10061523785148019
46.39999999999999,26.4288,2.81221,241.7,-0.4,23.0,10.0,32.124521489057926,82.85056830029538,0.2006187797225234
46.5,26.1607,3.04218,241.9,-0.2,22.4,10.0,32.3640596175566,83.0140481438958,0.20062211921927897
46.599999999999994,25.8723,3.32097,242.0,-0.4,21.9,10.0,32.67075803083816,83.15883029932564,0.20062557319519492
46.7,25.5906,3.58109,242.1,-0.8,21.5,10.0,32.98172713639543,83.29443472131939,0.20062894646064677
46.8,25.2868,3.83105,242.1,-1.3,21.1,10.0,33.34537563910321,83.42500023977064,0.2006325503228883
46.89999999999999,24.9946,4.10158,242.3,-1.2,20.5,10.0,33.721993761483375,83.53670624395741,0.2006359963988409
47.0,24.6856,4.36261,242.4,-1.0,20.2,10.0,34.148793242617614,83.64165312365057,0.20063965141095075
47.099999999999994,24.3829,4.62545,242.4,-1.0,19.6,10.0,34.60588086526016,83.72661581178392,0.20064323807715745
47.2,24.0662,4.87553,242.4,-1.1,18.8,10.0,35.098216010239206,83.81414610990981,0.2006470864986678
47.3,23.7757,5.09793,242.4,-1.2,18.1,10.0,35.58582149679428,83.88178224761975,0.2006506870031899
47.39999999999999,23.4819,5.32655,242.3,-1.5,17.7,10.0,36.119237874612196,83.93761893126364,0.20065443084424928
47.5,23.2046,5.55277,242.2,-1.9,17.0,10.0,36.665095816764264,83.97874679173253,0.20065809662226286
47.599999999999994,22.9262,5.68319,242.2,-2.3,16.0,10.0,37.243051631668116,84.01746683105429,0.20066196830484273
47.7,22.6813,5.70111,242.2,-3.8,9.4,10.0,37.78438805495212,84.04765672784292,0.20066556096670496
47.8,22.4513,5.50876,242.6,-6.8,-4.1,10.0,38.314710947544555,84.07762333665241,0.20066913180349744
47.89999999999999,22.2254,5.13399,243.3,-6.9,-17.7,10.0,38.83201287889806,84.11916953876687,0.20067281879873278
48.0,21.9765,4.68594,243.2,-5.3,-25.8,10.1,39.36805876728208,84.18903079151505,0.10067703810340589
48.099999999999994,21.747,4.24364,243.1,-4.2,-27.1,10.1,39.829068257344574,84.27449359502555,0.1006810390987205
48.2,21.5112,3.84747,243.6,-5.0,-27.4,10.1,40.25942990206095,84.3843279855364,0.1006852013697781
48.3,21.2591,3.4716,244.0,-5.8,-27.9,10.1,40.70037941739275,84.51503207952464,0.10068974044706991
48.39999999999999,21.0135,3.20602,244.2,-6.6,-27.7,10.1,41.036075742630985,84.67524613280742,0.10069402300197083
48.5,20.7815,2.92532,244.3,-7.0,-28.0,10.1,41.301412609250555,84.84389194003396,0.10069797978534822
48.599999999999994,20.537,2.67773,244.1,-6.9,-28.3,10.1,41.52488693213781,85.0384788196705,0.1007020260771796
48.7,20.3007,2.55637,243.9,-6.9,-28.6,10.1,41.67969290976788,85.24329211370741,0.10070577121328128
48.8,20.0532,2.50826,244.1,-7.3,-28.7,10.1,41.743937338758585,85.48275109229247,0.1007093938274295
48.89999999999999,19.8072,2.56516,244.2,-7.8,-28.8,10.1,41.80078523813751,85.7225442373763,0.10071298231807546
49.0,19.5434,2.70607,244.1,-7.8,-28.9,10.1,41.81560736652665,85.99138860168007,0.10071669449095566
49.099999999999994,19.2851,2.90998,244.2,-8.2,-28.0,10.1,41.78702664723117,86.26600876879387,0.1007202122138331
49.2,19.0037,3.16265,244.3,-8.5,-28.4,10.1,41.68712420057159,86.5841256485721,0.1007238627053404
49.3,18.7362,3.41265,244.4,-8.7,-29.0,10.1,41.57626304809431,86.89270793088819,0.10072732764052361
49.39999999999999,18.4574,3.66016,245.0,-9.5,-28.0,10.1,41.418444000770066,87.22893057389658,0.10073088221877669
49.5,18.198,3.91424,245.3,-9.6,-27.5,10.1,41.23440472533778,87.55628698890555,0.10073416701752436
49.599999999999994,17.9286,4.21306,245.0,-8.8,-27.5,10.1,40.985012398824196,87.92030122813543,0.10073755571790599
49.7,17.6851,4.50814,244.8,-8.7,-26.6,10.1,40.73186710459646,88.26532439950749,0.10074068957606741
49.8,17.4389,4.80342,244.4,-7.9,-26.0,10.1,40.4304289799341,88.63936833701433,0.10074394491794436
49.89999999999999,17.2167,5.09253,243.8,-7.3,-24.9,10.1,40.11017871278834,89.00571825536326,0.10074701173111222
50.0,16.9924,5.31055,243.3,-6.4,-22.9,10.1,39.7342926353014,89.41117166436028,0.10075031644354837
50.099999999999994,16.8002,5.49974,243.9,-7.7,-21.9,10.1,39.3676514798359,89.79346127975498,0.10075339997332833
50.2,16.6184,5.60511,244.0,-7.9,-20.6,10.2,38.96552457199387,90.1990309559744,0.0007566379440682169
50.3,16.4702,5.57967,243.5,-5.8,-13.8,10.1,38.57168492318975,90.58186836634727,0.10075965505969364
50.39999999999999,16.3321,5.4492,242.7,-0.4,-2.9,10.2,38.163779584693685,90.98149855324357,0.0007628740418894608
50.5,16.2039,5.1926,243.3,7.2,9.4,10.2,37.796075154839485,91.36560397857954,0.0007661629238562284
50.599999999999994,16.0659,4.86461,243.8,11.1,17.1,10.2,37.4543436217965,91.76366280518678,0.0007698474361248486
50.7,15.9294,4.52955,242.6,9.5,19.9,10.2,37.17333364473973,92.13464724333792,0.0007735387969241003
50.8,15.7752,4.13904,242.7,9.1,24.1,10.2,36.9315805134469,92.51321670700156,0.0007776048995005169
50.89999999999999,15.6255,3.79196,242.9,9.3,26.9,10.2,36.74445406163836,92.85563151205324,0.0007814905789444992
51.0,15.4493,3.52412,243.3,10.0,25.7,10.2,36.61300064444343,93.19612893670865,0.0007856928933520635
51.099999999999994,15.2578,3.37561,243.5,10.4,22.9,10.2,36.53494384103796,93.51838697880999,0.0007899563333424453
51.2,15.0281,3.32113,244.6,11.5,18.9,10.1,36.49885453448771,93.86061849421493,0.10079477054982178
51.3,14.82,3.32253,245.5,12.6,17.4,10.1,36.47333331058051,94.16902360933966,0.10079916679003631
51.39999999999999,14.5377,3.41887,245.2,11.8,17.6,10.1,36.52733290706075,94.50840811417319,0.10080449145628734
51.5,14.24,3.55981,244.7,9.9,17.2,10.1,36.61912270686882,94.83562853590908,0.10080987152170096
51.599999999999994,13.898,3.67033,244.8,9.7,18.6,10.1,36.75787660367724,95.18096519968327,0.100815811663157
51.7,13.5313,3.79585,244.3,8.1,19.2,10.1,36.954588245051475,95.50410361071303,0.1008217788734811
51.8,13.143,3.91595,244.1,7.5,19.2,10.1,37.18031535240874,95.82913091594352,0.10082796459291288
51.89999999999999,12.7506,4.07552,243.8,6.5,19.2,10.1,37.4298594483015,96.1357262547445,0.1008340393363838
52.0,12.3175,4.1987,243.6,5.6,18.2,10.1,37.723941801208454,96.45457554735451,0.10084058850053879
52.099999999999994,11.8978,4.33116,243.3,4.3,17.0,10.0,38.025999905900065,96.74576515160243,0.20084679413731976
52.2,11.4373,4.43276,242.7,2.3,15.5,10.0,38.3773761396551,97.04414974305507,0.20085343600985794
52.3,10.9961,4.49611,242.5,1.2,14.5,10.0,38.724165718652465,97.31959303372419,0.2008597328393371
52.39999999999999,10.521,4.58023,242.4,0.8,14.0,10.0,39.111073935719375,97.60270815534042,0.2008664228523287
52.5,10.0683,4.64361,241.9,-0.6,14.2,10.0,39.49210094043377,97.86035703570693,0.20087272467624118
52.599999999999994,9.57743,4.64199,241.9,-1.5,11.8,10.0,39.91795660113701,98.12850383521932,0.20087950090508855
52.7,9.1405,4.45403,241.8,-4.9,5.2,10.0,40.305089723912616,98.3610304809828,0.20088552217502453
52.8,8.71573,4.02877,242.8,-20.1,-6.8,10.0,40.68721262974444,98.58373416109578,0.20089139431722103
52.89999999999999,8.36687,3.51589,244.7,-25.9,-13.8,10.0,41.00116771065072,98.76843574918394,0.20089626588793053
53.0,8.09208,2.97299,244.4,-22.9,-12.8,10.0,41.25306342191156,98.91114536478749,0.20090010607068365
53.099999999999994,7.8403,2.48208,244.8,-23.3,-11.8,10.0,41.482151447096754,99.04466369057901,0.20090366788723202
53.2,7.61519,2.1296,245.1,-24.3,-11.6,10.0,41.69205555708785,99.1607533116965,0.20090684344143028
53.3,7.45563,1.62912,245.4,-24.9,-12.6,10.0,41.844449237819575,99.24073995168106,0.2009090878582782
53.39999999999999,7.38212,1.28446,245.6,-24.9,-13.9,10.1,41.9280438581163,99.26671861687815,0.10091004212265631
53.5,7.29065,0.934264,245.2,-22.0,-13.7,10.1,42.02039911436928,99.30913220627596,0.10091131332039893
53.599999999999994,7.1913,0.648731,244.2,-17.7,-9.7,10.1,42.12217216621839,99.35443817697137,0.10091269050700902
53.7,7.12495,0.465866,243.6,-15.8,-6.4,10.1,42.19578345008355,99.38044163512113,0.10091358423130004
53.8,7.08065,0.297102,243.2,-12.9,-6.4,10.1,42.25085087557466,99.39330547771922,0.10091415002785808
53.89999999999999,6.97891,0.195133,242.7,-10.9,-6.4,10.1,42.346645176501646,99.44747224566333,0.1009156320283644
54.0,6.97721,0.138498,242.5,-9.7,-4.9,10.1,42.35695432233375,99.44160269721435,0.10091560950927558
