time,distance(meters),speed(m/s), compass_heading(degrees), pitch(degrees), roll(degrees),height_above_takeoff(meters),North,East,Down
0.0,105.364,0.721271,243.5,-6.5,-24.2,17.0,0.0,0.0,0.0
0.0999999999999659,105.357,1.17929,243.5,-5.4,-28.6,17.0,-0.08202005704825024,0.04926605377191494,9.744747370143969e-11
0.19999999999998863,105.347,1.6579,243.7,-5.2,-28.2,17.0,-0.19530223007419018,0.11742595675225527,4.026696406866925e-09
0.2999999999999545,105.328,2.10342,244.1,-5.8,-28.2,17.0,-0.35579686006267874,0.2205096969480954,1.386113041013104e-08
0.39999999999997726,105.302,2.54973,244.3,-6.4,-29.2,17.0,-0.5391449990657518,0.3431898854859192,3.250824318068446e-08
0.5,105.268,2.88776,244.3,-6.6,-29.5,17.0,-0.7654839522337382,0.49790714376449685,6.50073466723633e-08
0.5999999999999659,105.23,3.25966,244.3,-6.8,-29.5,17.0,-1.0023148735644494,0.6632856182619746,1.1294304219644502e-07
0.6999999999999886,105.194,3.66008,244.5,-7.3,-28.4,17.0,-1.297347245492563,0.8573103565388269,1.8989656291878987e-07
0.7999999999999545,105.154,3.99777,244.8,-7.8,-26.5,17.0,-1.6062379285329902,1.0638597267741918,2.909404330786458e-07
0.8999999999999773,105.108,4.28863,244.6,-7.4,-25.8,17.0,-1.9578391257550622,1.3021865273244388,4.3373075042651976e-07
1.0,105.055,4.61131,244.4,-6.7,-26.0,17.0,-2.3185713230830336,1.5558178339951154,6.1255966099516e-07
1.099999999999966,105.008,4.88794,244.3,-6.5,-25.7,17.0,-2.725738678579209,1.8295649196884476,8.46622699723909e-07
1.1999999999999886,104.959,5.15006,244.5,-7.3,-24.9,17.0,-3.133969384206906,2.109055043030282,1.121291666850155e-06
1.2999999999999545,104.904,5.37798,244.5,-7.8,-23.7,17.0,-3.583613192405955,2.4202767767428406,1.4683503468670978e-06
1.3999999999999773,104.849,5.57581,244.4,-7.9,-23.1,17.1,-4.044272046459762,2.741915413953683,-0.09999812351180704
1.5,104.798,5.80887,244.3,-7.9,-23.3,17.0,-4.533155937911136,3.077896230848063,2.3582918324827062e-06
1.599999999999966,104.747,6.02443,244.2,-7.7,-22.8,17.0,-5.018664886072152,3.4149157490005635,2.894882930704057e-06
1.6999999999999886,104.695,6.23129,244.1,-7.5,-22.1,17.0,-5.546465359384077,3.783468352697051,3.540485243203051e-06
1.7999999999999545,104.646,6.42168,244.0,-7.1,-21.4,17.1,-6.056414229770497,4.141466774437347,-0.09999577084875932
1.8999999999999773,104.583,6.56146,243.8,-7.1,-19.8,17.1,-6.6069612580838095,4.544851685855821,-0.0999949479660942
2.0,104.54,6.62222,243.5,-7.0,-16.3,17.1,-7.133068413955929,4.915313662399581,-0.09999410369851836
2.099999999999966,104.496,6.47285,242.8,-6.4,-7.9,17.1,-7.681690961682618,5.30489101323234,-0.09999315289889354
2.1999999999999886,104.45,6.13635,242.1,-4.2,6.9,17.1,-8.178035655285733,5.669816254564765,-0.09999222027769372
2.2999999999999545,104.399,5.62224,242.3,-2.9,21.1,17.1,-8.652650882720392,6.031068125483021,-0.09999125968564515
2.3999999999999773,104.348,5.09717,241.6,-2.9,24.6,17.1,-9.055969199659916,6.349919529382508,-0.09999038868470045
2.5,104.287,4.57308,242.7,-0.2,26.7,17.1,-9.415724556094837,6.655161846575672,-0.0999895560948243
2.599999999999966,104.221,4.04191,243.4,1.1,29.2,17.1,-9.737297318864847,6.944343602501189,-0.09998876256984701
2.6999999999999886,104.146,3.5506,243.0,0.6,29.4,17.1,-10.064227302136826,7.250387821546362,-0.09998791330912393
2.7999999999999545,104.06,3.016,243.3,0.6,31.9,17.1,-10.29351919669159,7.506073796478495,-0.09998725003398778
2.8999999999999773,103.959,2.49991,242.9,0.0,31.9,17.0,-10.467221645225935,7.744209859555545,1.3316867773838226e-05
3.0,103.853,2.10583,243.1,-0.3,30.8,17.0,-10.58242231988026,7.949491742937269,1.3760325695777453e-05
3.099999999999966,103.748,1.80534,243.4,0.0,29.7,17.0,-10.681453038191892,8.143241797061822,1.4170458824125376e-05
3.1999999999999886,103.612,1.66533,243.4,-0.1,27.7,17.0,-10.685509842067761,8.310040893918796,1.4391551277803671e-05
3.2999999999999545,103.452,1.67489,242.7,-0.9,25.0,17.0,-10.631440328318327,8.466888973424583,1.4507009067799004e-05
3.3999999999999773,103.292,1.77934,241.6,-2.7,23.7,17.0,-10.527104119018574,8.589065151268642,1.4497671267932333e-05
3.5,103.122,1.97109,240.2,-5.8,23.6,17.0,-10.364375778412972,8.684305688547237,1.4359194855373403e-05
3.599999999999966,102.967,2.21316,239.3,-8.2,23.1,17.0,-10.144388031208797,8.722436886224596,1.4055176282390391e-05
3.6999999999999886,102.785,2.48211,239.7,-7.9,21.7,17.0,-9.908837110142368,8.783807383103124,1.3769001257379898e-05
3.7999999999999545,102.607,2.7924,240.3,-7.1,21.0,17.0,-9.649383811685942,8.824596213627007,1.3425136561551199e-05
3.8999999999999773,102.413,3.09587,240.8,-6.7,21.4,17.0,-9.340495971999903,8.85063036631483,1.3000163204601733e-05
4.0,102.215,3.41131,240.9,-6.8,21.8,17.0,-8.99434444163423,8.859527126673711,1.2513022864091283e-05
4.099999999999966,102.02,3.72668,241.0,-7.1,21.6,17.0,-8.616951046222827,8.843786997792757,1.1967395968426331e-05
4.199999999999989,101.838,4.03606,241.2,-7.4,21.8,17.0,-8.235772347224646,8.81165792728584,1.1418324968648363e-05
4.2999999999999545,101.651,4.3017,241.3,-7.6,21.5,17.0,-7.811874466587802,8.759634510544496,1.0811361182305745e-05
4.399999999999977,101.485,4.53541,241.3,-8.2,20.1,17.0,-7.3854395661588335,8.681889787137528,1.0193977753036876e-05
4.5,101.307,4.67463,241.6,-8.8,16.0,17.0,-6.9203886510882455,8.595973481291253,9.555607539457611e-06
4.599999999999966,101.139,4.64003,242.4,-9.3,6.2,17.0,-6.472201186010828,8.511164562258541,8.969012450510405e-06
4.699999999999989,100.965,4.35582,243.4,-8.7,-8.7,17.0,-6.014478175298882,8.42979226532014,8.411413827680292e-06
4.7999999999999545,100.808,3.8843,243.8,-7.2,-21.7,17.0,-5.6060914348527495,8.360799551668357,7.947613749337279e-06
4.899999999999977,100.65,3.38321,243.9,-6.0,-26.5,17.0,-5.2287789669269715,8.314030452142013,7.564420812400385e-06
5.0,100.501,2.92067,244.4,-6.3,-25.7,17.0,-4.909893318575478,8.29308198182308,7.2836566324951946e-06
5.099999999999966,100.348,2.52306,245.1,-8.1,-25.5,17.0,-4.61503719906213,8.293020634727656,7.061271135366809e-06
5.199999999999989,100.209,2.08771,245.3,-9.4,-27.1,17.0,-4.378284263272475,8.312777271387302,6.9197814318577855e-06
5.2999999999999545,100.067,1.7816,245.0,-9.7,-27.1,17.0,-4.14682498233677,8.33871221774659,6.797875959696498e-06
5.399999999999977,99.9456,1.40819,244.7,-9.5,-26.1,17.0,-3.990066502200862,8.386634050750256,6.759979972459362e-06
5.5,99.826,1.16907,244.4,-9.5,-25.6,17.0,-3.863394076197219,8.4503033325514,6.766403658708953e-06
5.599999999999966,99.7194,1.04838,244.3,-9.8,-25.2,17.0,-3.7902824537700632,8.530819806420512,6.830167796012532e-06
5.699999999999989,99.6045,1.09123,244.1,-9.5,-24.8,17.0,-3.758815082436344,8.646053962258346,6.9669660403004485e-06
5.7999999999999545,99.5092,1.24232,244.0,-9.4,-24.8,17.0,-3.766645675089748,8.761960205743174,7.129228642321905e-06
5.899999999999977,99.4151,1.50129,243.9,-9.3,-24.9,17.0,-3.8115666032965563,8.898799411480168,7.344106722317889e-06
6.0,99.3242,1.77285,244.0,-9.3,-24.8,17.0,-3.883897838629056,9.04856802320554,7.5986462924060305e-06
6.099999999999966,99.219,2.06939,244.0,-9.4,-24.3,17.0,-4.008738051363143,9.247113992679107,7.96096555077952e-06
6.199999999999989,99.1331,2.35059,244.1,-9.5,-23.8,17.0,-4.1386581223883026,9.426674473037876,8.306860640905356e-06
6.2999999999999545,99.0489,2.61894,244.2,-9.7,-23.8,17.0,-4.304795872635102,9.626915899005262,8.715385015900523e-06
6.399999999999977,98.9747,2.85203,244.2,-9.9,-22.7,17.0,-4.488114917167977,9.826676221684123,9.146865990405928e-06
6.5,98.9025,3.021,244.1,-10.1,-19.1,17.0,-4.713141794254922,10.05070687182376,9.657865793766263e-06
6.599999999999966,98.8387,3.13317,243.8,-10.4,-14.2,16.9,-4.932112079434901,10.262228012739405,0.10001016011158992
6.699999999999989,98.7767,3.20278,243.4,-10.3,-11.8,16.9,-5.173297336852046,10.486793290992459,0.10001071814052853
6.7999999999999545,98.717,3.21802,243.1,-10.3,-10.7,17.0,-5.409974978095193,10.706891107707197,1.128015154927553e-05
6.899999999999977,98.6549,3.10751,242.4,-11.2,-4.6,16.9,-5.657366905077366,10.937955306789084,0.10001188719527754
7.0,98.5928,2.81486,241.4,-11.1,6.8,16.9,-5.890409376892095,11.161008477558772,0.10001248499709581
7.099999999999966,98.5441,2.40798,241.0,-9.1,18.9,16.9,-6.088337999980888,11.346762680736642,0.1000129985392677
7.199999999999989,98.4972,1.89913,240.8,-7.9,26.0,16.9,-6.242565001206513,11.502679188992092,0.10001342716608042
7.2999999999999545,98.4456,1.35847,240.4,-7.3,26.9,16.9,-6.363671935450165,11.643123184567866,0.10001380240165947
7.399999999999977,98.4006,0.893817,240.5,-6.2,27.0,16.9,-6.45224825815236,11.754859771383915,0.10001409655412097
7.5,98.347,0.628155,240.3,-6.0,27.9,16.9,-6.470677765062083,11.830985083956886,0.10001425464810731
7.599999999999966,98.2902,0.732994,240.2,-5.9,28.3,16.9,-6.439349129456115,11.87842589603537,0.10001431235562297
7.699999999999989,98.224,1.08964,240.0,-6.4,27.2,16.9,-6.355419051056604,11.902650260414386,0.10001427353416448
7.7999999999999545,98.1776,1.4723,239.9,-7.4,25.8,16.9,-6.2608727719687085,11.896288555356946,0.10001416751136816
7.899999999999977,98.0986,1.87098,240.0,-7.8,24.1,16.9,-6.092128471665337,11.880640200392124,0.10001397329041684
8.0,98.0191,2.27734,240.2,-8.2,23.4,16.9,-5.892385038335886,11.845662649434978,0.10001372083147508
8.099999999999966,97.9312,2.66386,240.4,-8.2,23.5,16.9,-5.642473154733529,11.788782211977622,0.10001338788651148
8.199999999999989,97.8373,3.06262,240.6,-8.2,23.8,16.9,-5.349998126289421,11.712450382590205,0.10001299498558591
8.299999999999955,97.7428,3.43919,240.5,-8.5,23.7,16.9,-5.022958240989966,11.615895815008551,0.10001255124688235
8.399999999999977,97.6514,3.8014,240.7,-8.5,23.3,16.9,-4.6802974260635795,11.507068638145412,0.10001209224475671
8.5,97.5539,4.15971,241.1,-8.3,23.2,16.9,-4.286716877535863,11.375063206341858,0.10001157782425785
8.599999999999966,97.4607,4.50248,241.2,-8.3,22.8,16.9,-3.880913524931936,11.232419483202179,0.10001106576603958
8.699999999999989,97.3641,4.84071,241.3,-8.4,22.7,16.9,-3.4081996291818073,11.05480603436816,0.10001048517576505
8.799999999999955,97.271,5.15644,241.2,-8.5,22.7,16.9,-2.945408456566745,10.88211845342871,0.10000995587169248
8.899999999999977,97.1729,5.44034,241.2,-8.4,22.5,16.9,-2.4304145926912453,10.686909414040631,0.10000940827652949
9.0,97.0828,5.70411,241.2,-8.2,21.6,16.9,-1.919304285289099,10.488233224450795,0.10000890351158553
9.099999999999966,96.998,5.89491,241.2,-8.5,19.6,17.0,-1.352341794261937,10.25437366524884,8.378925669738635e-06
9.199999999999989,96.9106,6.08761,241.2,-8.4,17.7,17.0,-0.8047566119095483,10.039148179623423,7.94362539835447e-06
9.299999999999955,96.8177,6.23295,241.4,-7.7,16.6,17.0,-0.21125060834508114,9.808190525759624,7.537112101940746e-06
9.399999999999977,96.731,6.27232,241.8,-7.8,14.2,17.0,0.37400571991344694,9.579493443646882,7.197292560934265e-06
9.5,96.6392,6.17135,242.4,-8.6,5.0,16.9,1.0343095643131905,9.32008794990121,0.10000688700987681
9.599999999999966,96.5635,5.8743,243.3,-8.9,-8.7,16.9,1.591511193549139,9.103770469841558,0.100006689074985
9.699999999999989,96.4909,5.41622,243.7,-7.6,-21.0,16.9,2.128407939314264,8.898893205156353,0.10000655792920232
9.799999999999955,96.4234,4.88486,243.7,-6.3,-26.5,16.9,2.599671323849444,8.726427285577474,0.10000649477757917
9.899999999999977,96.3498,4.30982,243.8,-5.3,-26.9,16.9,3.0411145096906327,8.57918628863724,0.10000649140341089
10.0,96.2797,3.74416,244.0,-4.8,-27.6,16.9,3.4287455199962253,8.458140126518211,0.10000652710959113
10.099999999999966,96.204,3.27438,244.2,-5.0,-28.7,16.9,3.7878132751871627,8.359791044692598,0.1000066006697875
10.199999999999989,96.1293,2.70242,244.4,-5.8,-29.1,16.9,4.0882750748095935,8.291401818395414,0.10000669764867398
10.299999999999955,96.0502,2.1408,245.0,-7.4,-28.6,16.9,4.357130928015513,8.244869591536084,0.10000681660209132
10.399999999999977,95.9845,1.63289,245.3,-8.4,-28.0,16.9,4.607987735160126,8.193083161732066,0.10000692719355886
10.5,95.9182,1.19374,245.1,-8.5,-27.9,16.9,4.762362283246297,8.190394819611331,0.10000703679088341
10.599999999999966,95.8548,0.808249,244.7,-8.4,-28.3,16.9,4.852663838163271,8.216520787574044,0.10000713980393838
10.699999999999989,95.787,0.673421,244.5,-8.5,-28.7,16.9,4.890525740921088,8.27352302119694,0.10000724289233442
10.799999999999955,95.7172,0.893932,244.3,-8.4,-28.5,16.9,4.860266378379239,8.36648775068918,0.10000733997641476
10.899999999999977,95.6386,1.24594,244.1,-8.5,-27.4,16.9,4.824126784760853,8.472282589697091,0.10000745198091643
11.0,95.5647,1.60641,244.0,-9.0,-26.7,16.9,4.750564563600773,8.591495588199184,0.10000755671751804
11.099999999999966,95.4885,1.96016,244.0,-9.4,-26.0,16.9,4.63497664763343,8.734581765163876,0.1000076645548309
11.199999999999989,95.3958,2.31257,243.8,-9.0,-25.3,16.9,4.479359749232416,8.916578291684708,0.10000780354017325
11.299999999999955,95.3181,2.65267,243.9,-9.1,-25.1,16.9,4.289989942366452,9.099392009189001,0.10000793128078578
11.399999999999977,95.244,2.98373,244.0,-9.1,-25.4,17.0,4.08034708359152,9.289277731087388,8.067976704939639e-06
11.5,95.1662,3.31467,244.0,-8.9,-25.0,17.0,3.830946784660008,9.504731895094803,8.229498048573092e-06
11.599999999999966,95.0914,3.63488,244.1,-8.9,-24.5,17.0,3.556470918578071,9.73096947524332,8.410742527553694e-06
11.699999999999989,95.0161,3.92815,244.2,-8.9,-24.3,17.0,3.252082392430582,9.974993594237613,8.622693338677934e-06
11.799999999999955,94.9452,4.21377,244.4,-9.2,-24.2,17.0,2.9366557665383386,10.221537920017331,8.86086494777949e-06
11.899999999999977,94.872,4.45599,244.4,-9.2,-23.5,17.0,2.579995198204687,10.494674219228612,9.149547792075552e-06
12.0,94.8018,4.65068,244.0,-8.9,-20.8,17.0,2.22549603176324,10.765618720629792,9.466290409543276e-06
12.099999999999966,94.7199,4.69823,243.2,-7.9,-14.1,17.0,1.8433900807178845,11.067286772325705,9.859426538749716e-06
12.199999999999989,94.6421,4.63122,242.4,-4.3,-4.4,17.0,1.4843803539493279,11.354421685994481,1.026992488750711e-05
12.299999999999955,94.5501,4.40711,242.2,0.6,5.0,17.0,1.1260496956581523,11.659763127863421,1.0745711635840038e-05
12.399999999999977,94.4507,4.06867,242.5,2.9,14.0,17.0,0.8153562641473432,11.949395312305437,1.1233849545155827e-05
12.5,94.3299,3.68897,242.4,2.8,21.0,17.0,0.5099160735032267,12.262572254250063,1.1796323829443844e-05
12.599999999999966,94.2092,3.28736,242.8,3.4,25.7,17.0,0.28861683463818255,12.529262923017445,1.2300163862888347e-05
12.699999999999989,94.07,2.93309,243.5,4.5,27.9,17.0,0.11316330199920072,12.792035778593595,1.2815840011191904e-05
12.799999999999955,93.9212,2.61738,244.1,5.4,28.7,17.0,-0.008356678822205539,13.035280856325889,1.3306517304870202e-05
12.899999999999977,93.7695,2.46039,244.6,6.3,28.8,17.0,-0.11502434386738938,13.273882652781332,1.3799400395496375e-05
13.0,93.5776,2.37473,244.8,6.6,28.2,17.0,-0.13393906252232318,13.507848687885298,1.4290682397007093e-05
13.099999999999966,93.3492,2.45916,244.5,6.6,25.9,17.0,-0.09457429922306708,13.750131302881199,1.4806709171442944e-05
13.199999999999989,93.1087,2.60443,243.7,5.9,22.3,17.0,-0.002570505723832278,13.975375774239659,1.529479848394054e-05
13.299999999999955,92.8361,2.74673,242.2,2.7,21.8,17.0,0.14312704520872313,14.20613405447543,1.580729685740634e-05
13.399999999999977,92.5623,2.95569,241.5,0.3,23.6,17.0,0.3300267515366788,14.413996652852783,1.6278237749994817e-05
13.5,92.2597,3.22913,241.8,0.8,22.5,17.0,0.5709264862204928,14.623478189153547,1.6773040044659737e-05
13.599999999999966,91.9566,3.51737,242.3,1.6,21.2,17.0,0.8473244019836477,14.812752265713817,1.7239607839392157e-05
13.699999999999989,91.6223,3.82949,242.4,1.7,20.7,17.0,1.1840880519685824,15.00327870330612,1.773815642691634e-05
13.799999999999955,91.2708,4.13392,242.5,1.6,20.0,17.0,1.5735225200821852,15.183586794184343,1.82492877225382e-05
13.899999999999977,90.9052,4.42704,242.6,1.3,20.0,17.0,1.9800198468082997,15.3710735833934,1.8811510180238855e-05
14.0,90.552,4.72464,242.7,1.2,20.4,17.0,2.3969253203716647,15.539193004273475,1.9362502372777257e-05
14.099999999999966,90.1737,5.01338,242.9,1.3,19.8,17.0,2.8669552835656713,15.706999221814907,1.996811368165652e-05
14.199999999999989,89.7858,5.29132,242.8,1.3,18.8,17.0,3.372182934034938,15.867420419604287,2.0611606648568426e-05
14.299999999999955,89.3753,5.51295,242.6,0.8,17.7,17.0,3.9154227130173602,16.03422603789522,2.1340024523031076e-05
14.399999999999977,88.988,5.71445,242.4,0.7,16.3,17.0,4.44039758949015,16.18658253829207,2.2069686774095487e-05
14.5,88.5834,5.93177,242.5,1.2,15.4,17.0,5.0012492068774606,16.34099330803766,2.2880376140399505e-05
14.599999999999966,88.1664,6.14621,242.6,1.6,14.3,17.0,5.593698120594184,16.494869413933507,2.376971898376823e-05
14.699999999999989,87.7178,6.34837,242.7,2.5,13.1,17.0,6.2247226531438375,16.666577744471994,2.4803127384842583e-05
14.799999999999955,87.2901,6.53515,242.8,3.3,12.3,17.0,6.834540706609632,16.828823894227206,2.5855058649604246e-05
14.899999999999977,86.8385,6.65274,242.6,2.8,10.0,17.0,7.4837434401416605,17.0003183089586,2.7040399528832637e-05
15.0,86.4079,6.68634,242.5,1.2,4.5,17.0,8.116761752787621,17.159822708027395,2.824483413155221e-05
15.099999999999966,85.9448,6.58576,242.5,-1.4,-1.5,17.0,8.773566945362239,17.34698810046091,2.962305893472461e-05
15.199999999999989,85.5096,6.39027,242.9,-5.8,-7.3,17.0,9.381625316558964,17.530403813394038,3.099235237780107e-05
15.299999999999955,85.0614,6.03278,243.7,-8.5,-16.1,17.0,9.988946881625854,17.731460869087577,3.247351071244964e-05
15.399999999999977,84.649,5.58186,244.0,-8.9,-24.0,17.0,10.51750204039316,17.9334955779513,3.3890113675383304e-05
15.5,84.2391,5.2062,244.1,-8.6,-26.3,16.9,11.015499986477437,18.1493681925698,0.10003534360643851
15.599999999999966,83.8376,4.8257,244.6,-9.4,-26.4,16.9,11.452456271366259,18.38657883277384,0.10003679594754011
15.699999999999989,83.415,4.5172,245.0,-10.2,-26.9,16.9,11.872130182818665,18.65636109918266,0.10003834821679636
15.799999999999955,83.0166,4.20656,245.1,-10.6,-27.0,16.9,12.2307708948743,18.92886984642915,0.1000398300188694
15.899999999999977,82.5558,3.91199,245.1,-11.1,-26.7,16.9,12.640354575649498,19.24716964592792,0.10004158442762634
16.0,82.1841,3.6871,245.2,-11.4,-26.8,16.9,12.896751275415621,19.538557111255216,0.10004298472097162
16.099999999999966,81.8098,3.5202,245.1,-11.4,-27.2,16.9,13.107675078217929,19.85396285226072,0.10004438929974935
16.19999999999999,81.468,3.41462,245.0,-11.4,-27.2,16.9,13.255857944396615,20.16245728192377,0.1000456640808105
16.299999999999955,81.124,3.38052,245.0,-11.5,-27.0,16.9,13.343406418257633,20.50136216069204,0.10004692608753807
16.399999999999977,80.8049,3.38357,244.9,-11.3,-26.5,16.9,13.39543935108568,20.829262267808687,0.10004809555441962
16.5,80.4795,3.46877,244.7,-11.0,-26.0,16.9,13.404530643950922,21.184166724014915,0.10004928425105142
16.599999999999966,80.1787,3.60073,244.6,-10.9,-25.6,16.9,13.373055458026236,21.53116702549647,0.1000503774695165
16.69999999999999,79.8874,3.76084,244.6,-10.7,-25.1,16.9,13.265593661148106,21.903789476958003,0.10005141999968181
16.799999999999955,79.6006,3.93744,244.6,-10.8,-24.6,16.9,13.1633879843492,22.269889964076192,0.10005247398308015
16.899999999999977,79.3056,4.11723,244.6,-10.7,-24.5,16.9,13.022554787951822,22.6644534698959,0.10005357238153234
17.0,79.0326,4.32156,244.7,-10.8,-24.4,16.9,12.857408845440364,23.047584524134464,0.1000546080455278
17.099999999999966,78.7536,4.52278,244.7,-10.8,-24.3,16.9,12.652251297814184,23.458384371685923,0.1000556928381986
17.19999999999999,78.4994,4.73391,244.8,-10.8,-23.8,17.0,12.417155244995492,23.858309657330693,5.671033480059151e-05
17.299999999999955,78.2453,4.94096,244.9,-11.1,-23.5,17.0,12.156763864521684,24.272897605862973,5.7769617646030724e-05
17.399999999999977,78.0109,5.10364,244.8,-11.2,-23.1,17.0,11.880130281302499,24.676205844724116,5.879254384222321e-05
17.5,77.7725,5.21849,244.5,-11.5,-20.4,17.0,11.563846281948067,25.107205788306885,5.988944542512087e-05
17.599999999999966,77.5626,5.18495,243.5,-11.4,-11.2,17.0,11.247926318384687,25.509139525771914,6.091526337925757e-05
17.69999999999999,77.335,4.95775,242.0,-8.9,3.7,17.0,10.932413850981831,25.934098696315182,6.207799992186125e-05
17.799999999999955,77.1185,4.54642,241.8,-4.9,19.3,17.1,10.660259285924464,26.326425483007185,-0.0999367788473382
17.899999999999977,76.8915,4.03376,242.0,-3.4,27.6,17.1,10.418346655311744,26.716750924325275,-0.09993555782111319
18.0,76.6704,3.58972,241.1,-4.3,28.0,17.1,10.222507935809201,27.077192851020556,-0.09993435829681463
18.099999999999966,76.452,3.195,241.3,-3.8,28.1,17.1,10.08858654974766,27.401641642907023,-0.09993318776433213
18.19999999999999,76.2456,2.83239,242.0,-2.5,28.8,17.1,10.005053147712191,27.685270778128356,-0.09993209741110043
18.299999999999955,76.0279,2.59695,241.4,-3.2,28.5,17.1,9.964137803091727,27.958330243392325,-0.09993097023058084
18.399999999999977,75.85,2.34307,240.5,-4.7,27.5,17.0,9.954082581641503,28.168582869357444,6.993676417810235e-05
18.5,75.6307,2.21623,239.6,-6.8,27.2,17.0,10.020233813370783,28.383402608826202,7.099219587658467e-05
18.599999999999966,75.4217,2.18634,239.4,-7.9,26.1,17.0,10.123793156120298,28.565154215965148,7.196696050559837e-05
18.69999999999999,75.202,2.2329,239.5,-8.3,23.8,17.0,10.270704479822049,28.73460255974665,7.296298719428052e-05
18.799999999999955,74.9916,2.36923,239.9,-8.1,22.0,17.0,10.448129441903056,28.87619119244473,7.389076365971192e-05
18.899999999999977,74.7514,2.55041,240.4,-7.6,20.6,17.0,10.671298996008945,29.026355992664968,7.494321019230199e-05
19.0,74.543,2.75607,240.8,-7.3,20.7,17.0,10.913464363577912,29.129530544746387,7.582467058497855e-05
19.099999999999966,74.3279,3.02014,241.1,-7.2,21.4,17.0,11.19997570920626,29.216155680901654,7.671963999289488e-05
19.19999999999999,74.1247,3.2889,241.4,-6.9,21.9,17.0,11.503916785312887,29.280228829218444,7.755505979822885e-05
19.299999999999955,73.9092,3.59299,241.5,-6.7,21.8,17.0,11.879920445219092,29.319680225211542,7.842818311321054e-05
19.399999999999977,73.7076,3.86388,241.6,-6.7,21.8,17.0,12.247437454129823,29.349402166305833,7.926242864719768e-05
19.5,73.4964,4.15134,241.5,-6.8,21.7,17.0,12.666070665029643,29.364231885375712,8.015192918797709e-05
19.599999999999966,73.2981,4.43274,241.5,-6.9,21.3,17.0,13.088636530024557,29.364337546377293,8.10081039057664e-05
19.69999999999999,73.0942,4.71889,241.4,-7.1,21.3,17.0,13.580811722661199,29.33666740435159,8.191411506874857e-05
19.799999999999955,72.8981,4.96352,241.3,-7.5,20.7,17.0,14.061385352805683,29.309211137080503,8.283338501868798e-05
19.899999999999977,72.6933,5.1168,241.3,-8.1,18.1,17.0,14.594239678533828,29.268214399211637,8.384672554928585e-05
20.0,72.5096,5.2156,241.5,-8.2,13.5,17.0,15.102096441290197,29.21984808327242,8.481153076544956e-05
20.099999999999966,72.3312,5.14656,242.0,-8.7,6.7,17.0,15.651068630835592,29.148967914478092,8.581591147027723e-05
20.19999999999999,72.1607,4.93721,242.8,-9.5,-3.3,17.0,16.14294614036442,29.100998781132912,8.682768607037872e-05
20.299999999999955,71.9827,4.53905,243.6,-9.0,-16.1,17.0,16.633188196452988,29.065363326399485,8.793009863872214e-05
20.399999999999977,71.8196,4.00811,243.6,-7.1,-25.4,17.0,17.049980685612255,29.05059223828472,8.896859326501527e-05
20.5,71.6521,3.53832,243.5,-5.7,-27.1,17.0,17.431419506454596,29.05915977777427,9.004068908424756e-05
20.599999999999966,71.4858,3.06532,244.3,-6.5,-26.5,17.0,17.757948176637235,29.09318143582069,9.11006357604549e-05
20.69999999999999,71.3029,2.64436,245.1,-8.1,-27.7,17.0,18.068627689551896,29.1536651615433,9.225293685943825e-05
20.799999999999955,71.1336,2.2074,245.4,-9.1,-28.8,17.0,18.317875283392063,29.227765740690252,9.330432943066569e-05
20.899999999999977,70.9627,1.82767,245.5,-9.7,-28.1,16.9,18.52579619694651,29.322600302555145,0.10009434307112386
21.0,70.7995,1.57067,245.5,-9.8,-27.4,16.9,18.744980863535673,29.40429973654772,0.10009536021016707
21.099999999999966,70.6447,1.51518,245.3,-9.7,-27.8,16.9,18.834681754247978,29.53415814065311,0.10009622478899871
21.19999999999999,70.4978,1.59418,244.8,-9.6,-27.4,16.9,18.869417547221992,29.679550265019554,0.1000970016809326
21.299999999999955,70.3442,1.75692,244.5,-9.8,-26.4,16.9,18.858247045792954,29.852588290928672,0.10009777549699805
21.399999999999977,70.1971,2.0168,244.3,-9.9,-25.4,16.9,18.78109358115215,30.047911123898277,0.10009846341465334
21.5,70.0458,2.29697,244.0,-9.6,-25.3,16.9,18.69015409105342,30.254399218542332,0.10009917022535575
21.599999999999966,69.9033,2.6109,243.9,-9.6,-26.0,16.9,18.566631976940247,30.466218021375507,0.1000998170883669
21.69999999999999,69.7551,2.94158,244.1,-9.7,-26.4,16.9,18.399203139690908,30.7050412036634,0.100100472712505
21.799999999999955,69.61,3.2709,244.2,-9.8,-26.0,16.9,18.195354387333285,30.95818379864729,0.10010110866689637
21.899999999999977,69.4612,3.57749,244.5,-10.2,-25.7,16.9,17.96620473744074,31.228532522738977,0.10010177302189582
22.0,69.3233,3.88777,244.7,-10.4,-25.9,16.9,17.717215390896946,31.497751056496277,0.10010239623658279
22.099999999999966,69.1827,4.19622,244.7,-10.1,-26.3,16.9,17.423065269718247,31.793462330172833,0.10010304843405748
22.19999999999999,69.0549,4.53072,244.5,-9.4,-26.3,16.9,17.109254601947846,32.087107889388506,0.10010366495309064
22.299999999999955,68.9281,4.83947,244.4,-9.1,-25.6,16.9,16.73278400743276,32.413141976897236,0.10010430938847215
22.399999999999977,68.8055,5.09229,244.6,-9.6,-24.7,17.0,16.35637437433445,32.738321262651674,0.00010498914064616116
22.5,68.6796,5.31928,244.6,-10.0,-24.0,17.0,15.933671000337437,33.094804078996525,0.0001057528073795666
22.599999999999966,68.5698,5.57576,244.6,-10.2,-24.3,17.0,15.523542919486962,33.43131244665296,0.00010649148275021503
22.69999999999999,68.4619,5.80578,244.6,-10.4,-24.8,17.0,15.091020843039317,33.7820294603075,0.00010729497555406198
22.799999999999955,68.3688,6.06319,244.7,-10.4,-25.1,17.0,14.641736446898765,34.130073632778426,0.00010809500931596716
22.899999999999977,68.2794,6.31752,244.6,-10.1,-25.4,17.0,14.13932477678786,34.508520730444765,0.00010899196445102177
23.0,68.1979,6.54901,244.5,-10.2,-25.1,17.0,13.639083178205464,34.883328846689196,0.00010993513636581298
23.099999999999966,68.1091,6.58075,244.1,-10.9,-21.5,17.0,13.09770600261939,35.2970016082009,0.00011106992273379745
23.19999999999999,68.0437,6.31071,242.1,-12.8,-1.3,17.0,12.580216680877317,35.67697626072972,0.0001121358159821284
23.299999999999955,67.9904,5.75558,241.3,-10.9,20.6,17.0,12.064021868237809,36.04916126986727,0.0001132256214502192
23.399999999999977,67.955,5.23375,240.6,-9.9,24.8,17.0,11.62649213250374,36.35857025225628,0.00011416523857210592
23.5,67.9251,4.6657,240.0,-8.4,23.7,17.0,11.226130680492956,36.642983375854456,0.00011507068107707852
23.599999999999966,67.8975,4.09851,241.3,-5.2,29.0,17.1,10.870308922379273,36.90068285622749,-0.09988406330282285
23.69999999999999,67.868,3.57311,241.2,-4.6,30.1,17.1,10.52791187306553,37.15527350003236,-0.09988316214441895
23.799999999999955,67.8431,3.08926,241.0,-4.7,28.7,17.1,10.238471584714496,37.37296218870921,-0.09988236565841735
23.899999999999977,67.8144,2.50702,242.3,-2.4,30.2,17.0,9.982249432144675,37.57555955564592,0.00011841624955177821
24.0,67.7956,2.00775,242.9,-1.4,30.9,17.0,9.715685723454381,37.77497293798449,0.00011917991405940853
24.099999999999966,67.7468,1.53892,242.2,-2.5,30.3,17.0,9.58977961732912,37.917960150932636,0.00011983664760784052
24.19999999999999,67.6844,1.12695,241.7,-2.7,29.1,17.0,9.533427923226874,38.03102167433346,0.00012042367368714224
24.299999999999955,67.6045,0.872098,240.8,-3.9,28.5,17.0,9.538092022694618,38.12436053967895,0.00012098635054513807
24.399999999999977,67.5309,0.938258,239.5,-6.7,29.2,17.0,9.61256760696433,38.16293833848601,0.00012132976103895743
24.5,67.4392,1.28095,239.0,-8.1,29.1,16.9,9.729915352724946,38.19463446942134,0.10012169697679152
24.599999999999966,67.3475,1.69759,239.2,-8.8,28.1,16.9,9.88253308592909,38.202690865969956,0.10012198087128787
24.69999999999999,67.248,2.1168,239.6,-8.6,26.7,16.9,10.080279842918298,38.19045951947283,0.10012221924011566
24.799999999999955,67.1402,2.528,240.0,-8.3,25.8,16.9,10.327703751693026,38.15577533145838,0.10012240958870411
24.899999999999977,67.039,2.90916,240.5,-7.9,25.7,17.0,10.599180422451013,38.0983907975803,0.00012251326286971675
25.0,66.9378,3.30572,241.0,-7.5,25.7,17.0,10.896665769568258,38.025319267438555,0.00012258135007314763
25.099999999999966,66.8273,3.68152,241.0,-7.6,25.3,17.0,11.247801415462874,37.9302683833848,0.0001226274206889144
25.19999999999999,66.7163,4.06674,241.1,-7.6,25.1,17.0,11.641615734883016,37.810962367119444,0.00012262975093424444
25.299999999999955,66.6049,4.43769,241.1,-7.6,25.2,17.0,12.066562075360684,37.675527001116585,0.0001226196957722081
25.399999999999977,66.4999,4.76692,241.0,-7.7,25.0,17.0,12.501731623564808,37.52959843697201,0.0001226025159324351
25.5,66.3915,5.09352,241.0,-7.8,24.0,17.0,12.98938986925358,37.359429987251886,0.00012258241811125004
25.599999999999966,66.2933,5.38439,241.0,-7.9,23.6,17.0,13.476993206048245,37.181781170450044,0.00012256143842570566
25.69999999999999,66.2121,5.45795,241.5,-8.6,18.4,17.0,14.012268278746589,36.961330881230126,0.00012243839557424252
25.799999999999955,66.1262,5.25835,242.8,-9.8,-1.6,17.0,14.502610896546848,36.7777901784821,0.0001224787331235433
25.899999999999977,66.043,4.8051,243.2,-7.7,-19.4,17.0,14.983886103615102,36.600752386193975,0.00012257893123557295
26.0,65.9695,4.32192,243.5,-6.5,-25.0,17.0,15.400813899604422,36.4526512600806,0.00012272860305806432
26.099999999999966,65.8954,3.70891,243.5,-4.8,-25.7,17.0,15.773947664941044,36.3325053739969,0.00012295893559421955
26.19999999999999,65.8198,3.18128,243.2,-3.2,-27.4,17.0,16.11290963651852,36.23491535051029,0.00012325353080289148
26.299999999999955,65.736,2.83489,243.6,-3.0,-27.9,17.0,16.430783690352666,36.159911696034044,0.00012364445789003753
26.399999999999977,65.6547,2.26751,244.0,-3.9,-28.6,17.0,16.689323712683347,36.115043666720595,0.00012406279178200919
26.5,65.5679,1.75955,244.5,-5.4,-29.1,17.0,16.96848359642319,36.066719837393855,0.0001245294067047098
26.599999999999966,65.4854,1.27888,245.0,-6.7,-29.2,17.0,17.133107441322647,36.07410417588051,0.00012501337244419375
26.69999999999999,65.3981,0.915036,245.0,-7.4,-28.7,17.0,17.255156660807906,36.10926042593974,0.00012554206942727575
26.799999999999955,65.319,0.792933,244.7,-7.5,-28.1,17.0,17.318302347740218,36.1656743479999,0.00012603373437514165
26.899999999999977,65.2461,0.941854,244.4,-7.5,-27.8,17.0,17.341153212479774,36.236079304926605,0.00012649409598441963
27.0,65.17,1.25606,244.1,-7.8,-28.0,17.0,17.30879633930571,36.33864748489409,0.0001269896381490554
27.099999999999966,65.0896,1.6728,243.9,-7.7,-28.6,17.0,17.227594501940274,36.471519262143474,0.0001275264904272433
27.19999999999999,65.0106,2.10285,243.8,-7.6,-29.2,17.0,17.108002100759794,36.623227719399466,0.0001280716562686024
27.299999999999955,64.9258,2.53736,243.8,-7.5,-29.2,17.0,16.940284252873045,36.807626324612386,0.00012868292951218052
27.399999999999977,64.8425,2.95702,244.0,-7.8,-29.0,17.0,16.697582557770087,37.031210407088146,0.00012933297824346823
27.5,64.7601,3.37285,244.2,-8.0,-29.0,17.0,16.45290732268719,37.256761019694835,0.00013000709148780487
27.599999999999966,64.681,3.76099,244.2,-8.0,-28.8,17.0,16.18491628369931,37.493179120522726,0.0001307032352597659
27.69999999999999,64.5988,4.11422,244.3,-8.1,-28.2,17.0,15.87008278067362,37.76127167047138,0.0001314889823138543
27.799999999999955,64.5141,4.47112,244.3,-7.9,-27.7,17.0,15.522883456618136,38.053634582005245,0.00013236634891899968
27.899999999999977,64.4416,4.79753,244.3,-7.9,-27.3,17.0,15.150152034981547,38.35005666170849,0.00013324099377953758
28.0,64.3774,5.11536,244.4,-8.1,-26.7,17.0,14.771164726801167,38.64450845636725,0.00013412540529600392
28.099999999999966,64.3154,5.40764,244.3,-7.9,-26.3,17.0,14.34698198241153,38.967610468402896,0.00013511532081977862
28.19999999999999,64.2718,5.68518,244.1,-8.1,-26.2,17.0,13.907363206632043,39.28354911903466,0.0001360753667309922
28.299999999999955,64.2245,5.81712,243.8,-9.1,-22.2,17.0,13.425499270020588,39.63538927839582,0.0001372127801593237
28.399999999999977,64.1863,5.70349,242.9,-10.5,-9.4,17.0,12.965046886565618,39.96954219978045,0.00013834074727370194
28.5,64.1509,5.35873,241.6,-8.9,8.5,17.0,12.502464929084079,40.30762055507981,0.00013953793063592457
28.599999999999966,64.1118,4.81647,241.7,-5.7,22.9,17.0,12.09447238890141,40.620428040297945,0.00014073168884820575
28.69999999999999,64.075,4.27138,240.8,-5.5,26.2,17.0,11.72086259835088,40.91234452032063,0.00014189623499039072
28.799999999999955,64.0369,3.73687,240.9,-3.9,26.5,17.0,11.397138000527953,41.17612245047506,0.0001430020644610508
28.899999999999977,63.9895,3.16314,242.6,-0.4,29.6,17.0,11.100962439261231,41.43567704869603,0.00014415731888828276
29.0,63.9369,2.66802,242.4,-0.3,29.8,17.0,10.880389046079072,41.65191071625803,0.0001451823035614197
29.099999999999966,63.8838,2.2638,242.3,-0.4,29.8,17.0,10.66918069220915,41.86393639148491,0.00014621226738054105
29.19999999999999,63.804,1.84899,243.2,1.0,30.8,17.0,10.560721927165446,42.03783795981177,0.00014717360545635216
29.299999999999955,63.7004,1.54603,243.2,0.8,30.4,17.0,10.503731917120387,42.205018791270504,0.0001481820734463568
29.399999999999977,63.581,1.42257,242.3,0.0,28.0,17.0,10.507896380746718,42.34847515826539,0.000149137575585101
29.5,63.4403,1.50452,241.4,-1.2,26.0,16.9,10.56237648301444,42.48254101351577,0.10015011898499715
29.599999999999966,63.2904,1.7173,240.4,-3.1,25.7,16.9,10.667961345536295,42.59142444355878,0.1001510200330138
29.69999999999999,63.1224,1.98707,240.3,-4.1,24.7,16.9,10.823547035641965,42.68713009282903,0.10015192290383634
29.799999999999955,62.9548,2.29675,240.4,-4.5,23.1,16.9,11.014841757046629,42.75716396181295,0.10015271949026161
29.899999999999977,62.7779,2.62674,240.8,-4.4,22.9,16.9,11.262453817905424,42.799257786508264,0.10015343583857383
30.0,62.5891,2.98629,241.2,-4.0,23.3,16.9,11.537412621915871,42.837418457639906,0.10015418563304834
30.099999999999966,62.3768,3.33602,241.4,-4.0,23.2,16.9,11.869041356673524,42.86587612879795,0.10015498630085684
30.19999999999999,62.1643,3.6958,241.6,-4.1,22.8,16.9,12.222099001106601,42.88114087082976,0.10015575896380469
30.299999999999955,61.9133,3.99843,241.7,-4.3,22.8,16.9,12.66268413677699,42.88522091580147,0.1001566485249219
30.399999999999977,61.6924,4.32154,241.8,-4.4,23.0,16.9,13.071819301165824,42.87674213060778,0.10015742014819029
30.5,61.4588,4.65291,241.8,-4.5,23.1,16.9,13.526438911453127,42.855822542046084,0.10015823223188658
30.599999999999966,61.2293,4.97583,241.8,-4.7,23.2,16.9,13.996101505590165,42.82322217619882,0.10015903075644861
30.69999999999999,60.9816,5.27568,241.7,-4.9,23.2,16.9,14.527687224757226,42.77602733160832,0.1001599071885062
30.799999999999955,60.7448,5.58701,241.6,-4.8,23.2,16.9,15.053857900075029,42.72369284535428,0.10016078144157259
30.899999999999977,60.4848,5.88182,241.5,-4.9,23.2,17.0,15.649441700605884,42.66033097270393,0.00016179734161081427
31.0,60.2404,6.1743,241.3,-5.1,23.1,17.0,16.241817818160552,42.58637601229577,0.00016278959033844131
31.099999999999966,59.987,6.42046,241.2,-5.1,22.8,17.0,16.890216581638978,42.495581338163234,0.00016387519393656902
31.19999999999999,59.7397,6.69955,241.1,-5.0,22.7,17.0,17.54401879996489,42.4018196950136,0.00016502362941928084
31.299999999999955,59.4957,6.95713,241.2,-5.0,22.9,17.0,18.227623855186877,42.294842196606396,0.0001662377723850028
31.399999999999977,59.2655,7.14841,241.1,-5.9,22.6,17.0,18.90213835218518,42.18523382866379,0.0001674836634801835
31.5,59.0291,7.22042,241.1,-8.0,17.8,17.0,19.628162033909405,42.063131200294826,0.00016887896969031146
31.599999999999966,58.8208,7.02062,242.0,-10.7,2.8,17.0,20.298255490172163,41.947776073127486,0.0001702256054745277
31.69999999999999,58.6102,6.54003,243.3,-10.7,-15.3,17.0,20.99389262722206,41.830148871018366,0.00017171406952343204
31.799999999999955,58.423,5.98371,243.1,-7.7,-26.1,17.0,21.60483984732862,41.73650204688297,0.0001731487214620131
31.899999999999977,58.2367,5.41258,243.3,-6.6,-27.7,17.0,22.19224591435765,41.659687164458376,0.00017467171814899984
32.0,58.0468,4.93224,243.6,-6.0,-26.7,17.0,22.732682388191407,41.61494001867757,0.0001762912140836903
32.099999999999966,57.8589,4.53652,243.4,-4.8,-27.1,17.0,23.23100943898763,41.59201944909533,0.00017794378674373945
32.19999999999999,57.6789,4.03365,243.6,-4.4,-27.6,17.0,23.66945340936016,41.591353194743974,0.0001795567236673179
32.299999999999955,57.4914,3.57622,244.5,-5.8,-27.4,17.0,24.08534448896683,41.61191773747874,0.00018125372876021117
32.39999999999998,57.3188,3.03784,245.6,-7.9,-27.6,17.0,24.4221831618762,41.65317873638988,0.0001828093972378042
32.5,57.1544,2.53554,245.5,-8.3,-28.9,17.0,24.749259461224742,41.691278070929016,0.00018432374471011315
32.599999999999966,56.99,2.15167,245.0,-7.9,-28.9,17.0,24.96368659665577,41.77871635848015,0.00018573269994881514
32.69999999999999,56.8165,1.83457,244.8,-7.8,-28.4,17.0,25.13044195997197,41.8967331720417,0.0001871643902688902
32.799999999999955,56.6495,1.68325,244.7,-8.0,-28.7,17.0,25.245185377028573,42.02977207046814,0.0001884927935567049
32.89999999999998,56.4668,1.70928,244.4,-7.9,-28.3,17.0,25.288065718081725,42.210187051488575,0.0001898536937048334
33.0,56.3024,1.8407,244.1,-8.0,-28.1,17.0,25.307092728593133,42.38084593680192,0.00019106133944468695
33.099999999999966,56.1317,2.09455,244.0,-8.1,-28.7,17.0,25.27596294028522,42.579769368656464,0.00019225935353262003
33.19999999999999,55.9628,2.39983,243.9,-7.9,-28.6,17.0,25.206523486404354,42.79341698494052,0.00019341253922533497
33.299999999999955,55.781,2.71472,243.9,-7.8,-28.5,16.9,25.04030541024189,43.06341355937104,0.10019457006062282
33.39999999999998,55.6092,3.06578,244.1,-8.2,-29.0,16.9,24.89740203699786,43.31348591208328,0.10019570034286751
33.5,55.4324,3.45558,244.3,-8.5,-29.5,16.9,24.707968266198396,43.59085673691695,0.10019684890347413
33.599999999999966,55.2591,3.82952,244.5,-8.7,-29.4,16.9,24.493349166674545,43.87741111303247,0.10019798058443463
33.69999999999999,55.0677,4.20027,244.8,-9.0,-29.4,16.9,24.226807834524635,44.20973011541804,0.10019925148387188
33.799999999999955,54.8899,4.55767,244.9,-9.3,-29.2,17.0,23.940963197396727,44.538922601670514,0.0002004560496473573
33.89999999999998,54.705,4.89269,244.7,-9.0,-28.3,17.0,23.6031265593447,44.904233573781916,0.00020175179700387957
34.0,54.5327,5.20826,244.6,-8.9,-27.8,17.0,23.25512590104225,45.26475626080003,0.0002030143905589199
34.099999999999966,54.357,5.49776,244.6,-9.3,-27.6,17.0,22.86238783381625,45.656224076242935,0.0002043767647830208
34.19999999999999,54.1774,5.79814,244.7,-9.7,-27.5,17.0,22.447947872759983,46.06889600347607,0.000205863008694962
34.299999999999955,54.02,6.07989,244.8,-9.9,-27.3,17.0,21.999091865614602,46.48125502405107,0.0002072827307362246
34.39999999999998,53.8782,6.30788,244.8,-10.1,-26.8,17.0,21.54446249560396,46.886190990766266,0.0002086858270047287
34.5,53.7391,6.45499,244.4,-10.8,-24.1,17.0,21.04432855724447,47.32110603922477,0.00021021960937517292
34.599999999999966,53.6228,6.37657,243.3,-12.0,-10.8,17.0,20.559587174892826,47.72973469611175,0.00021167310982761478
34.69999999999999,53.5054,6.05275,242.0,-10.1,5.9,17.0,20.087311377303557,48.14083006067114,0.00021324883602957811
34.799999999999955,53.3937,5.58232,241.9,-5.4,18.2,17.0,19.66347598175239,48.524226017810214,0.00021482559506758037
34.89999999999998,53.2753,5.07701,241.6,-3.9,24.5,17.0,19.2542271139094,48.913437465321216,0.00021654250367930672
35.0,53.168,4.58896,241.1,-3.2,25.6,17.1,18.875428569696826,49.27697033049023,-0.09978179713806057
35.099999999999966,53.0484,4.05194,242.4,0.0,29.2,17.1,18.564300159854977,49.61747289777716,-0.09978007838198621
35.19999999999999,52.9268,3.60199,242.8,1.4,30.1,17.1,18.32862941863108,49.91549075588424,-0.09977843857208946
35.299999999999955,52.7858,3.18288,242.9,1.9,29.6,17.0,18.143196192880858,50.20644723351779,0.0002233093829708821
35.39999999999998,52.6522,2.7393,244.0,3.6,31.4,17.0,17.972959367962645,50.480454202848065,0.00022498663354753035
35.5,52.4717,2.5062,244.1,3.7,30.6,17.0,17.884667489474438,50.75760337405092,0.00022693536808660042
35.599999999999966,52.2807,2.43351,243.8,3.1,28.0,17.0,17.873356106965574,50.99630392858823,0.00022880569090943936
35.69999999999999,52.0584,2.46284,243.5,3.1,25.3,17.0,17.929657413507986,51.22713807876813,0.00023081218105680534
35.799999999999955,51.8261,2.55904,242.6,2.1,23.2,17.0,18.02846402909522,51.441121076317444,0.00023281293250754231
35.89999999999998,51.5753,2.67247,241.2,-1.1,23.7,16.9,18.19677272202158,51.62993533124124,0.1002348166512963
36.0,51.3131,2.85558,240.5,-2.9,23.6,16.9,18.38336104661813,51.820270039685596,0.10023689459783292
36.099999999999966,51.025,3.06981,240.9,-2.7,22.1,16.9,18.622464156792844,52.00612920941498,0.10023910217941179
36.19999999999999,50.7401,3.32168,241.1,-2.5,21.6,16.9,18.892589419710234,52.167542342116725,0.10024121814480047
36.299999999999955,50.4116,3.58072,241.3,-2.4,21.8,16.9,19.239351515115736,52.330436624785435,0.10024359191535837
36.39999999999998,50.1122,3.82703,241.7,-2.1,21.7,16.9,19.58147570559782,52.46248528830775,0.10024571862111031
36.5,49.7922,4.12659,241.8,-2.2,21.9,16.9,19.974268225176168,52.58698836556943,0.10024796515994971
36.599999999999966,49.4837,4.43577,241.8,-2.6,22.2,16.9,20.378402165590522,52.69199806415697,0.1002501151469275
36.69999999999999,49.1702,4.68412,241.8,-3.8,21.5,16.9,20.832649551251425,52.77297402184553,0.10025225637174451
36.799999999999955,48.8601,4.78688,241.8,-7.0,15.3,16.9,21.287174328575507,52.85252948747403,0.1002544217760839
36.89999999999998,48.5402,4.65629,242.4,-10.4,1.8,16.9,21.7670462802647,52.930710160813135,0.10025669424230976
37.0,48.2452,4.3653,243.6,-11.1,-12.4,16.9,22.202895856834214,53.00984187294638,0.10025885917256439
37.099999999999966,47.9449,3.91608,244.2,-9.8,-22.7,16.9,22.624268847670788,53.10651571332744,0.10026114867130254
37.19999999999999,47.6613,3.51342,244.2,-8.4,-26.1,16.9,22.986891467022424,53.2209686696428,0.10026340362136565
37.299999999999955,47.3667,3.20549,244.5,-8.1,-26.0,16.9,23.327378792137374,53.362639811135324,0.10026582717597599
37.39999999999998,47.1004,2.86801,244.9,-8.8,-26.8,16.9,23.596242729554383,53.51434245522464,0.10026808913452889
37.5,46.8341,2.63852,245.0,-9.3,-27.4,16.9,23.82239194551979,53.69123960788676,0.10027041912908707
37.599999999999966,46.5563,2.47042,244.9,-9.7,-27.8,16.9,24.03513517829863,53.889474448778586,0.10027289032618825
37.69999999999999,46.2979,2.30456,244.8,-10.2,-27.8,16.9,24.188482199722504,54.09971488392733,0.10027524966297108
37.799999999999955,46.0746,2.28729,244.8,-10.4,-27.8,16.9,24.27401132366642,54.30827173202878,0.10027734739399641
37.89999999999998,45.8589,2.39168,244.7,-10.3,-27.9,16.9,24.306676137890857,54.53860561307536,0.10027943517239102
38.0,45.6676,2.56364,244.6,-10.3,-28.6,16.9,24.285089550706616,54.77246806622637,0.10028135457468856
38.099999999999966,45.4594,2.78353,244.6,-10.4,-28.5,16.9,24.23168484074275,55.045080558867625,0.10028349585902241
38.19999999999999,45.2766,3.01631,244.7,-11.0,-27.8,16.9,24.136640148349628,55.313722072395,0.10028545520707333
38.299999999999955,45.0989,3.19643,244.6,-11.8,-22.9,16.9,24.000088545112053,55.6025673652908,0.10028744704593606
38.39999999999998,44.9468,3.1884,243.6,-11.8,-12.4,16.9,23.81476269376252,55.893012869966924,0.10028928649333224
38.5,44.7802,3.10354,242.7,-10.4,-2.0,16.9,23.658816428548384,56.184886334752825,0.10029126640311681
38.599999999999966,44.6198,2.90442,242.0,-7.2,7.5,17.0,23.523006314822116,56.45890921955237,0.0002931784598612097
38.69999999999999,44.4442,2.64124,242.2,-2.9,16.5,17.0,23.410075364034597,56.73808985860517,0.0002952363656181234
38.799999999999955,44.2809,2.43374,242.7,0.0,22.4,17.0,23.328797895371913,56.98401524016937,0.00029712922668245767
38.89999999999998,44.0906,2.32339,242.6,0.9,24.8,17.0,23.314753115635966,57.219580724804565,0.0002991837480461612
39.0,43.8956,2.29175,242.4,1.3,25.4,17.0,23.34303155276602,57.43381596930977,0.00030121133297100755
39.099999999999966,43.6749,2.33584,242.0,1.0,25.0,17.0,23.417357978684603,57.64888337856601,0.00030342259018922846
39.19999999999999,43.4492,2.49559,241.8,0.7,24.7,17.0,23.53409141523727,57.84231888043966,0.0003056029367645152
39.299999999999955,43.2219,2.63346,241.6,0.0,24.2,17.0,23.662059415476953,58.03049245914468,0.0003077869680687684
39.39999999999998,42.971,2.88412,241.8,0.2,22.7,17.0,23.864648661113996,58.198198587890076,0.0003100709401469004
39.5,42.6947,3.18304,242.1,0.5,22.3,17.0,24.121983419522195,58.360951827477464,0.0003125278342306359
39.599999999999966,42.4117,3.49329,242.3,0.4,22.5,17.0,24.4089808544377,58.51330335772654,0.00031501779390374907
39.69999999999999,42.0858,3.79209,242.4,0.2,22.4,17.0,24.761842909095762,58.67535340854093,0.0003178707663895608
39.799999999999955,41.7741,4.11263,242.3,-0.2,22.5,17.0,25.125878738825726,58.81495840574871,0.00032058524514155806
39.89999999999998,41.4382,4.43856,242.4,-0.5,22.6,17.0,25.545831814378722,58.95016418676332,0.00032350652236701194
40.0,41.1085,4.76328,242.5,-0.7,22.4,17.0,25.982940083858907,59.07013413886244,0.00032638728471745537
40.099999999999966,40.7441,5.07603,242.5,-0.6,22.2,16.9,26.504300155591785,59.18336687656032,0.10032958812503523
40.19999999999999,40.4014,5.39567,242.5,-0.7,22.2,16.9,27.011627419709967,59.283930919680174,0.10033265771661526
40.299999999999955,40.0383,5.68759,242.3,-1.1,22.0,16.9,27.577978182218907,59.37901126886119,0.1003359749047057
40.39999999999998,39.6918,5.95891,242.2,-1.5,21.9,16.9,28.145551144393654,59.46016182491593,0.10033921818982172
40.5,39.3367,6.26791,242.1,-1.7,21.7,16.9,28.784906349240654,59.519038797080086,0.100342631709184
40.599999999999966,38.9843,6.54993,242.0,-1.9,21.5,16.9,29.418342333925008,59.58609878567094,0.10034615695761673
40.69999999999999,38.6115,6.80152,241.9,-1.9,21.3,16.9,30.1191801080735,59.6508672758493,0.1003500458185691
40.799999999999955,38.2702,7.05049,241.9,-2.1,21.1,16.9,30.79689412072667,59.70204977340922,0.10035377267250922
40.89999999999998,37.9263,7.19153,241.9,-3.1,18.5,16.9,31.518926669749614,59.74602655393828,0.10035772436392065
41.0,37.6094,7.18107,242.0,-5.6,10.3,17.0,32.22612611799595,59.77882769079517,0.000361579319177352
41.099999999999966,37.2897,6.95856,242.5,-9.1,-2.4,17.0,32.946238560851505,59.8209830541189,0.00036566684292438367
41.19999999999999,36.9994,6.57356,243.5,-10.0,-14.9,17.0,33.603532072362775,59.86866412268513,0.0003695563001038238
41.299999999999955,36.7042,6.06031,243.4,-8.4,-23.8,17.0,34.2510199900878,59.93542231094527,0.0003736400033336196
41.39999999999998,36.4354,5.52685,243.0,-6.8,-26.2,17.0,34.81305224230538,60.01481249510546,0.0003774405362140243
41.5,36.1546,5.15117,243.6,-7.4,-25.8,17.0,35.3471730005701,60.12399835193982,0.00038141508021283244
41.599999999999966,35.8834,4.69895,244.8,-9.6,-26.7,17.0,35.82589888204627,60.24789327390477,0.00038526597686328046
41.69999999999999,35.5963,4.28183,245.5,-10.8,-27.6,17.0,36.29304357265042,60.397368159125406,0.00038932806673130926
41.799999999999955,35.3085,3.87204,245.6,-10.8,-28.0,17.0,36.77326136157373,60.54824816109946,0.0003935181614558303
41.89999999999998,35.0338,3.45419,245.6,-10.6,-28.0,16.9,37.12834937579148,60.727884829735935,0.10039728943796433
42.0,34.7788,3.12193,245.5,-10.5,-28.0,16.9,37.396775885914536,60.91466732700589,0.10040064253134773
42.099999999999966,34.5148,2.87527,245.3,-10.5,-27.7,16.9,37.61065784289802,61.12783576200894,0.10040394183966939
42.19999999999999,34.2506,2.71849,245.0,-10.3,-27.7,16.9,37.742472218196774,61.36531304488489,0.10040700203082054
42.299999999999955,33.9764,2.6182,244.8,-10.3,-27.5,16.9,37.87078379471974,61.61421902356439,0.10041016297818572
42.39999999999998,33.7161,2.61899,244.6,-10.4,-27.5,16.9,37.94662393782811,61.863732466759714,0.10041302752667036
42.5,33.4422,2.74129,244.6,-10.4,-28.0,16.9,37.979452473212206,62.13969286528005,0.1004159052023681
42.599999999999966,33.1817,2.92342,244.7,-10.4,-28.4,16.9,37.960489329574166,62.41661584709587,0.1004184923187772
42.69999999999999,32.9089,3.17677,244.9,-10.7,-28.4,16.9,37.86332202375431,62.72975749163965,0.10042098134560717
42.799999999999955,32.6432,3.43715,244.9,-10.7,-28.0,16.9,37.75795847658028,63.03891653317616,0.10042339993152183
42.89999999999998,32.3613,3.70343,245.0,-10.9,-28.1,16.9,37.60915426182108,63.379597298589474,0.10042589004138947
43.0,32.0986,3.99984,245.2,-11.0,-28.3,16.9,37.426654897362496,63.71274636723598,0.10042812913047428
43.099999999999966,31.8232,4.2983,245.3,-11.0,-28.5,16.9,37.17805646042265,64.08364906141387,0.10043038145676064
43.19999999999999,31.5654,4.62299,245.2,-10.9,-28.6,17.0,36.91915221369289,64.44350029098177,0.0004324948126921413
43.299999999999955,31.2969,4.96542,245.2,-10.8,-29.0,17.0,36.60996355632459,64.83727414259383,0.0004346923906091149
43.39999999999998,31.0546,5.27196,245.4,-11.1,-29.1,17.0,36.28118363364297,65.21637949402161,0.0004366681245855375
43.5,30.8084,5.59106,245.5,-11.5,-28.5,17.0,35.889441237006544,65.63126434157418,0.00043869446248834265
43.599999999999966,30.5895,5.895,245.3,-11.2,-27.7,17.0,35.493606393100634,66.02766212648136,0.00044055816290722305
43.69999999999999,30.3711,6.17346,245.1,-11.0,-26.7,17.0,35.046885969735946,66.45520944933477,0.00044251440460918445
43.799999999999955,30.1768,6.39342,244.8,-11.0,-24.6,17.0,34.59624217576912,66.8702589789177,0.0004443784646923632
43.89999999999998,29.9895,6.46193,244.3,-11.5,-19.8,17.0,34.09493024005132,67.31455263813776,0.0004463383777792984
44.0,29.8295,6.3333,243.2,-11.9,-7.9,17.0,33.621840411649885,67.72945730982838,0.0004482056184613725
44.099999999999966,29.6796,5.8777,241.6,-10.0,9.9,17.0,33.144323824772215,68.14930123327204,0.0004501648622312615
44.19999999999999,29.5516,5.32021,241.8,-6.3,24.2,17.0,32.74293805700556,68.51606986094528,0.0004520086243395838
44.299999999999955,29.4278,4.76925,241.4,-5.5,27.3,17.1,32.37857079903077,68.86732299445137,-0.09954607933471848
44.39999999999998,29.3235,4.17925,241.0,-4.6,27.1,17.1,32.081003436093965,69.16509503340046,-0.09954436829294622
44.5,29.2058,3.6265,242.0,-2.1,29.6,17.1,31.81534837922207,69.46540424217653,-0.0995424443018127
44.599999999999966,29.0882,3.1358,242.5,-0.7,30.9,17.1,31.600055218141968,69.73960432342719,-0.09954052881236564
44.69999999999999,28.9542,2.72199,242.7,0.0,30.0,17.1,31.41667723832755,70.01700216501844,-0.09953840247144896
44.799999999999955,28.8256,2.43243,242.9,1.0,27.9,17.0,31.2555077915764,70.27706099427613,0.000463659438379338
44.89999999999998,28.6569,2.18364,242.3,0.6,26.1,17.0,31.196394970308617,70.51973280011615,0.0004660454973528516
45.0,28.4859,2.04468,241.4,-0.9,26.0,17.0,31.192608247718475,70.72891813606965,0.0004683402121354874
45.099999999999966,28.2965,2.00629,240.9,-1.8,25.5,17.0,31.24207885877199,70.92453798112808,0.00047075306436994424
45.19999999999999,28.1085,2.0859,241.0,-1.9,24.7,17.0,31.321297302638023,71.09819377475908,0.0004730754488235789
45.299999999999955,27.891,2.27033,241.1,-1.7,24.0,17.0,31.475300248217742,71.25653887987615,0.00047560057603313055
45.39999999999998,27.6748,2.50957,241.4,-1.3,23.1,17.0,31.664674070734662,71.38919114158445,0.00047802466784752085
45.5,27.4386,2.80128,241.6,-1.3,22.2,17.0,31.906301130236493,71.5112391363393,0.0004805990919702907
45.599999999999966,27.1958,3.12605,241.7,-1.4,21.8,17.0,32.200080149866224,71.60737461444995,0.0004831579043678147
45.69999999999999,26.9266,3.44133,242.1,-1.3,22.2,17.0,32.5237401830133,71.71724681357198,0.00048603904027366696
45.799999999999955,26.6603,3.77508,242.2,-1.6,22.4,17.0,32.86977827918314,71.81125120052548,0.000488877899456952
45.89999999999998,26.3733,4.0685,242.2,-1.9,22.3,17.0,33.270001281382264,71.89864922858068,0.0004919427936407317
46.0,26.0944,4.3917,242.3,-2.1,22.4,17.0,33.684841007008316,71.97151023286298,0.0004949493021886298
46.099999999999966,25.7808,4.70041,242.2,-2.2,22.8,17.0,34.18378268940267,72.03989156134128,0.0004983859671217061
46.19999999999999,25.499,5.01526,242.1,-2.4,22.7,17.0,34.662506019480425,72.09012384013863,0.000501546868502345
46.299999999999955,25.2052,5.28509,242.0,-2.4,22.5,17.0,35.197185543971706,72.13065871788316,0.0005049439699256197
46.39999999999998,24.9361,5.5527,241.9,-2.7,22.5,17.0,35.72323240609133,72.15692976495454,0.0005081753748115148
46.5,24.6925,5.85367,241.7,-2.9,22.7,17.0,36.27876550440182,72.14959233883822,0.000511240221129583
46.599999999999966,24.4353,6.14264,241.6,-3.2,22.9,17.0,36.857236025835164,72.1578761077535,0.0005146626633347751
46.69999999999999,24.169,6.3861,241.5,-3.7,22.5,17.0,37.499497071337984,72.16036679316845,0.0005184491853960083
46.799999999999955,23.9306,6.64962,241.5,-4.1,22.0,17.0,38.136879013428754,72.15018784516523,0.0005221275335607345
46.89999999999998,23.7,6.87711,241.5,-4.1,21.9,17.0,38.84258656041364,72.12176184622919,0.0005260808773464021
47.0,23.4921,7.07782,241.7,-3.6,20.6,17.0,39.53362021784887,72.09470107297628,0.0005300372868646264
47.099999999999966,23.2877,7.10717,242.1,-2.7,12.6,17.0,40.2760619858577,72.06761700800274,0.000534394482507139
47.19999999999999,23.1084,6.90734,242.6,-1.7,-4.3,17.0,40.96241394106408,72.05303692576848,0.0005386173822152784
47.299999999999955,22.9245,6.43872,242.0,0.5,-22.4,17.0,41.653779437121656,72.06184682504895,0.0005432116814816368
47.39999999999998,22.7476,5.94506,241.7,0.9,-28.6,17.0,42.25747963933475,72.10280883169429,0.0005476597294702401
47.5,22.5557,5.55035,242.2,-0.4,-27.7,17.0,42.84749045044849,72.17690376090772,0.0005524474071698648
47.599999999999966,22.3612,5.16938,242.4,-0.6,-26.9,17.0,43.37095063757881,72.27935699232727,0.0005571588070765188
47.69999999999999,22.1439,4.86781,243.2,-2.6,-27.0,17.0,43.87835853083981,72.41864706435713,0.0005622200764570096
47.799999999999955,21.9339,4.52053,244.3,-4.9,-29.0,17.0,44.35734100776915,72.56491748453837,0.0005672061969548281
47.89999999999998,21.6902,4.13877,244.6,-5.6,-29.3,17.0,44.78713907192124,72.75990421843227,0.0005724402813847007
48.0,21.4485,3.84578,244.4,-5.3,-28.7,17.0,45.133151290233926,72.96833636797709,0.0005772687234859575
48.099999999999966,21.1798,3.60947,244.0,-4.6,-28.8,17.0,45.43496619898157,73.21238937578447,0.0005822130594062003
48.19999999999999,20.9004,3.49348,243.5,-3.9,-28.8,17.0,45.70593730831676,73.4729994527486,0.0005871498698759581
48.299999999999955,20.589,3.46963,243.3,-3.6,-28.8,17.0,45.89622984786776,73.77352260950065,0.0005919872544204452
48.39999999999998,20.2678,3.50415,243.3,-3.7,-28.9,17.0,46.037287347584574,74.08791669516422,0.0005966464670272842
48.5,19.906,3.63423,243.1,-3.5,-28.9,16.9,46.1446069891339,74.44536495587985,0.10060158465485003
48.599999999999966,19.5346,3.81962,243.2,-3.7,-28.4,16.9,46.1604558560919,74.81721448224619,0.10060604696406017
48.69999999999999,19.1343,4.04115,243.2,-3.8,-27.8,16.9,46.17407827321317,75.21812634391543,0.10061085587636143
48.799999999999955,18.73,4.2734,243.2,-4.0,-27.3,16.9,46.14834291923051,75.62508887104087,0.10061547608947308
48.89999999999998,18.283,4.49852,243.2,-4.1,-26.8,16.9,46.08439832752066,76.07711339044334,0.1006203822512397
49.0,17.8261,4.75388,243.3,-4.2,-26.7,16.9,45.971284082729234,76.5426518289479,0.10062512764710263
49.099999999999966,17.3473,5.01548,243.4,-4.3,-26.6,16.9,45.845155484556,77.03225243506361,0.10063010540988415
49.19999999999999,16.8794,5.28042,243.4,-4.3,-26.1,16.9,45.69568916340989,77.51438241834279,0.10063486388067489
49.299999999999955,16.3763,5.53233,243.4,-4.2,-26.0,16.9,45.508722896174476,78.03785330009364,0.10063989920108085
49.39999999999998,15.8868,5.76321,243.5,-4.3,-26.0,16.9,45.301599037532,78.55340106101555,0.1006447408067892
49.5,15.3583,6.01614,243.6,-4.1,-25.7,17.0,45.04748616801687,79.11914798489062,0.0006499218659747896
49.599999999999966,14.8631,6.27495,243.7,-4.0,-25.5,17.0,44.792389958820536,79.65846611597328,0.0006548250647924192
49.69999999999999,14.345,6.49719,243.6,-3.5,-25.7,17.0,44.50312850226946,80.23517878246443,0.0006600129308473868
49.799999999999955,13.8516,6.618,243.2,-3.3,-20.5,17.0,44.20771059574155,80.79884861606004,0.0006650604121070103
49.89999999999998,13.3502,6.52798,242.9,-2.8,-6.2,17.0,43.89188742153917,81.38835914621922,0.0006703582540374953
50.0,12.869,6.29575,242.6,0.0,9.2,17.0,43.61542695875457,81.96124665796646,0.0006757840100100054
50.099999999999966,12.3725,5.99019,243.5,3.6,20.1,17.0,43.36587823062935,82.55619612327803,0.0006817407106858298
50.19999999999999,11.9117,5.70951,243.1,3.0,22.7,17.0,43.17265096640763,83.10820744649718,0.0006875870548448404
50.299999999999955,11.4098,5.44934,242.3,0.6,21.0,17.0,42.99077833559817,83.71207536628773,0.0006942433623571276
50.39999999999998,10.9875,5.19029,242.5,-0.9,17.5,17.0,42.87512412327311,84.21536246514889,0.000700081155212473
50.5,10.5741,5.01514,241.9,-5.0,9.8,17.0,42.77993694561343,84.70863929615234,0.0007059650189589206
50.599999999999966,10.2009,4.64169,239.9,-18.4,9.5,17.0,42.6918884666528,85.16257538162822,0.0007114119657636309
50.69999999999999,9.87446,4.13152,238.3,-26.3,15.7,17.0,42.574834376972845,85.5873243239511,0.0007163054261631885
50.799999999999955,9.57387,3.59219,239.3,-24.5,15.3,16.9,42.51061621421512,85.96336886354563,0.10072092701754798
50.89999999999998,9.29767,3.0669,239.2,-24.9,13.6,16.9,42.464157665023535,86.3075972311467,0.10072526090064926
51.0,9.06525,2.57271,238.9,-26.1,13.7,16.9,42.43312672088096,86.59674218927185,0.10072896913883156
51.099999999999966,8.8558,2.08554,238.8,-27.0,13.1,16.9,42.411622742051705,86.85668344506786,0.10073235678357406
51.19999999999999,8.66198,1.64608,238.8,-27.8,12.0,16.9,42.40937924188242,87.08862659143776,0.1007355022262395
51.299999999999955,8.54729,1.19189,239.1,-28.1,10.7,16.9,42.40778434117807,87.22710659564441,0.10073738140542332
51.39999999999998,8.47042,0.756886,239.9,-25.9,8.5,16.9,42.40830816726141,87.31932443199608,0.10073864604332528
51.5,8.41719,0.496468,240.7,-22.1,5.6,16.9,42.40861574322368,87.38343026079286,0.10073952519358897
51.599999999999966,8.40041,0.31562,241.2,-18.8,3.1,16.9,42.43085706830739,87.38862031062577,0.10073974416381049
51.69999999999999,8.37868,0.20413,241.5,-15.9,1.2,16.9,42.433430072320704,87.41315154754241,0.10074009690375973
51.799999999999955,8.37032,0.129074,241.7,-13.6,0.1,16.9,42.433994347981454,87.42288242108596,0.10074023440351709
