time,distance(meters),speed(m/s), compass_heading(degrees), pitch(degrees), roll(degrees),height_above_takeoff(meters),North,East,Down
0.0,5.60058,0.264212,252.0,-10.8,1.8,17.2,0.0,0.0,0.0
0.09999999999999432,5.62566,0.616679,251.1,-12.5,13.3,17.2,0.03454153861551443,-0.020460280613494954,3.082086807992823e-10
0.20000000000001705,5.66938,1.03391,250.6,-13.1,18.0,17.2,0.09130850971723749,-0.05625480490118754,8.666212469865542e-10
0.30000000000001137,5.75867,1.42084,249.8,-17.0,15.6,17.2,0.18536863695011896,-0.1316615962243667,3.84126633279358e-09
0.4000000000000057,5.87616,1.75958,249.3,-22.7,11.1,17.2,0.29133834920122637,-0.2324604625344829,1.0105044162544985e-08
0.5,6.03657,1.99643,249.9,-26.3,6.9,17.2,0.41068093014097995,-0.3731436543233667,2.376819305260902e-08
0.5999999999999943,6.22733,2.27505,250.7,-27.9,3.9,17.2,0.5074370196293149,-0.548350535670728,4.3093082130463145e-08
0.700000000000017,6.46222,2.52508,251.5,-27.9,0.9,17.2,0.6214583130527509,-0.7644459968503986,7.660390205499468e-08
0.8000000000000114,6.71284,2.74259,252.5,-26.4,-3.2,17.2,0.7234126469609212,-0.9988151993416363,1.1883994338601767e-07
0.9000000000000057,6.99618,2.85497,253.5,-23.2,-7.8,17.2,0.8195040702517182,-1.2679042591840644,1.785946287524709e-07
1.0,7.27357,2.82312,254.6,-18.3,-14.8,17.2,0.9078978190549096,-1.5325357331484404,2.482538998260786e-07
1.0999999999999943,7.55801,2.63386,254.5,-11.9,-24.0,17.2,0.9929386067176502,-1.8051578151536414,3.327890961690727e-07
1.200000000000017,7.79953,2.44021,253.6,-7.0,-28.6,17.2,1.021224347093055,-2.0471620214771127,4.103128269927758e-07
1.3000000000000114,8.00405,2.29951,253.1,-4.1,-28.9,17.2,0.9754404458222844,-2.268018643648336,4.777926057575321e-07
1.4000000000000057,8.19369,2.24696,253.1,-3.2,-28.9,17.2,0.8757814961882584,-2.483832523316753,5.434953405658582e-07
1.5,8.38318,2.25431,253.5,-3.7,-29.4,17.2,0.7646387173670325,-2.699171972326081,6.160858217474363e-07
1.5999999999999943,8.53984,2.32032,253.7,-3.9,-29.7,17.2,0.6238882834032617,-2.8834291212286196,6.805956436206628e-07
1.700000000000017,8.67892,2.46484,253.8,-4.1,-29.8,17.2,0.43869239394748705,-3.0528978642406797,7.444720076799083e-07
1.8000000000000114,8.79103,2.65683,253.9,-4.2,-29.9,17.2,0.2281507569459557,-3.1930957136547926,8.0208064731635e-07
1.9000000000000057,8.90249,2.80992,254.2,-5.6,-29.8,17.2,-0.020345708723632713,-3.3301194689775815,8.687563802494552e-07
2.0,8.98163,2.97264,254.7,-9.0,-24.5,17.2,-0.2886921361829545,-3.428187756826413,9.266629356352585e-07
2.0999999999999943,9.05974,2.98088,254.2,-10.9,-15.1,17.2,-0.5886237522858371,-3.517534677508648,9.952028754978137e-07
2.200000000000017,9.14358,2.87746,252.8,-13.0,-3.6,17.2,-0.8641080078737227,-3.602801564235846,1.0750873792875204e-06
2.3000000000000114,9.18259,2.57953,251.1,-13.6,11.5,17.2,-1.106933899355449,-3.6360771905236584,1.1314173179455267e-06
2.4000000000000057,9.30005,2.35536,250.5,-12.8,20.5,17.2,-1.3154347926649839,-3.743813819519736,1.2337970518583319e-06
2.5,9.44692,2.17628,249.5,-13.2,22.2,17.2,-1.4969605426001977,-3.8788362367311544,1.354140164555595e-06
2.5999999999999943,9.6061,2.06599,249.4,-12.2,23.3,17.2,-1.6276508822579476,-4.027869063806986,1.4780831628646851e-06
2.700000000000017,9.74758,2.11901,249.4,-11.2,23.6,17.2,-1.7407093453567368,-4.159443387430219,1.593378568753856e-06
2.8000000000000114,9.94439,2.21295,249.2,-11.3,22.8,17.2,-1.794526535268412,-4.352139383183733,1.7361378201741218e-06
2.9000000000000057,10.1738,2.3071,249.6,-11.5,19.8,17.2,-1.817637926244842,-4.580871172145177,1.9035827166780095e-06
3.0,10.4001,2.44161,250.5,-12.2,11.7,17.2,-1.8103145971050862,-4.809491265955385,2.069372897484101e-06
3.0999999999999943,10.6339,2.5257,251.2,-13.9,2.5,17.2,-1.7853754351043927,-5.047387348075703,2.24528395842416e-06
3.200000000000017,10.8708,2.5882,252.1,-14.5,-2.1,17.2,-1.7527435431319374,-5.2888794637021,2.432096784521498e-06
3.3000000000000114,11.1316,2.61478,253.0,-13.2,-5.7,17.2,-1.7262849906305786,-5.553629859469638,2.649326520720585e-06
3.4000000000000057,11.3873,2.52045,253.8,-10.0,-15.2,17.2,-1.7146235772107776,-5.8117666690945535,2.876192264578137e-06
3.5,11.6591,2.37405,253.7,-7.0,-25.9,17.2,-1.7316380275024548,-6.083692940571941,3.133661721332892e-06
3.5999999999999943,11.9498,2.22024,253.5,-5.3,-29.0,17.2,-1.7740841734912205,-6.372343140156913,3.428335312305464e-06
3.700000000000017,12.1713,2.20853,253.5,-4.9,-28.3,17.2,-1.8582618805858284,-6.587798172693356,3.669987751808712e-06
3.8000000000000114,12.3647,2.26055,254.0,-5.6,-28.6,17.2,-1.9749083783142067,-6.771306998528395,3.897114686624015e-06
3.9000000000000057,12.5497,2.33658,254.3,-5.9,-29.0,17.2,-2.1371099199814836,-6.940696138953661,4.131223600878364e-06
4.0,12.7307,2.48853,254.3,-5.9,-29.6,17.2,-2.2999068811759695,-7.10439862470778,4.368154222778031e-06
4.099999999999994,12.8935,2.72857,254.3,-5.9,-30.3,17.2,-2.527348318021293,-7.239164837773449,4.605070351271223e-06
4.200000000000017,13.0335,2.98902,254.4,-6.0,-30.2,17.2,-2.782236041876562,-7.343157109938113,4.831055840037735e-06
4.300000000000011,13.1661,3.22641,254.4,-6.4,-29.7,17.2,-3.091577838474252,-7.425531189088581,5.070431170706158e-06
4.400000000000006,13.2866,3.45332,254.6,-8.7,-28.5,17.2,-3.4122943914472037,-7.486754797099724,5.306141001026887e-06
4.5,13.4178,3.44385,254.3,-15.2,-15.2,17.2,-3.75758356696934,-7.546086381162569,5.570471018678802e-06
4.599999999999994,13.5603,3.21037,251.6,-17.7,6.9,17.2,-4.071539628190865,-7.617024164839664,5.847749051879347e-06
4.700000000000017,13.7325,2.94066,250.6,-15.6,19.2,17.2,-4.366395343427351,-7.717784166800366,6.16525807073387e-06
4.800000000000011,13.8785,2.67054,249.2,-15.7,20.9,17.2,-4.602783043225192,-7.80312037908423,6.436204822435343e-06
4.900000000000006,14.0828,2.47574,248.9,-14.5,22.5,17.3,-4.812255642399354,-7.95452380904883,-0.0999932226647684
5.0,14.2926,2.40273,249.2,-13.2,24.0,17.3,-4.976753640437015,-8.123917788615758,-0.09999288232793413
5.099999999999994,14.5308,2.41474,248.8,-13.2,23.4,17.3,-5.11822399755348,-8.32959290958829,-0.09999250477595867
5.200000000000017,14.7644,2.498,248.9,-12.6,23.2,17.3,-5.210800519622209,-8.545706732544534,-0.09999214390081468
5.300000000000011,15.0199,2.64241,249.1,-12.0,22.9,17.3,-5.308804326424355,-8.782966268236787,-0.09999174132028754
5.400000000000006,15.2664,2.86014,249.3,-12.3,22.5,17.3,-5.314014692181161,-9.040403467517036,-0.09999137675685654
5.5,15.5363,3.11321,249.3,-12.9,21.7,17.3,-5.274180071557878,-9.335760848698751,-0.09999098579064647
5.599999999999994,15.8039,3.30742,249.8,-13.8,18.4,17.3,-5.201211604833134,-9.637450175012564,-0.09999059713192748
5.700000000000017,16.1146,3.40129,251.2,-13.9,7.7,17.3,-5.102139555185495,-9.98987733273945,-0.09999013583920924
5.800000000000011,16.3972,3.31313,253.0,-10.8,-9.5,17.2,-5.007738409432626,-10.309503710229091,1.029726342194337e-05
5.900000000000006,16.6909,3.04104,253.4,-7.0,-24.4,17.3,-4.933806665033144,-10.633416647838914,-0.0999892287771833
6.0,16.9593,2.74269,253.0,-4.1,-28.3,17.2,-4.900365802771851,-10.91952552562927,1.1226523140450695e-05
6.099999999999994,17.2516,2.46457,253.0,-2.8,-27.7,17.2,-4.891916757356414,-11.223542243433824,1.1747179656129703e-05
6.200000000000017,17.4902,2.30055,253.3,-3.4,-28.3,17.3,-4.928888800877688,-11.460602401094993,-0.0999878021216114
6.300000000000011,17.7229,2.23621,253.5,-3.6,-28.8,17.3,-5.000952647117676,-11.682835310818383,-0.09998734304756507
6.400000000000006,17.9362,2.21274,253.4,-3.4,-29.3,17.3,-5.102902114582004,-11.87762685043969,-0.0999869026082627
6.5,18.1914,2.29306,253.6,-3.8,-29.9,17.3,-5.221435060785957,-12.111385872744439,-0.09998636788061344
6.599999999999994,18.379,2.41132,253.6,-3.8,-30.1,17.3,-5.394278058389734,-12.26079408605495,-0.09998593730588956
6.700000000000017,18.5509,2.57856,253.6,-3.8,-30.2,17.3,-5.619004518382795,-12.378941535767414,-0.09998551534674993
6.800000000000011,18.7083,2.82352,254.1,-5.0,-30.4,17.3,-5.86753265299863,-12.47320833016834,-0.09998510693283924
6.900000000000006,18.8749,2.93309,254.2,-8.0,-24.5,17.3,-6.156414890879669,-12.562513079753046,-0.09998465779507404
7.0,19.0162,2.78376,253.1,-10.7,-4.6,17.3,-6.441417589906267,-12.622913956102469,-0.09998425609612482
7.099999999999994,19.1834,2.49484,251.9,-9.6,14.6,17.3,-6.700742907830092,-12.715414739185153,-0.09998380553265473
7.200000000000017,19.345,2.2091,251.0,-9.4,20.7,17.3,-6.907736902764253,-12.817177153285591,-0.09998338011989549
7.300000000000011,19.5139,1.92943,250.1,-9.7,22.1,17.3,-7.077346508205659,-12.938089126589631,-0.09998294972833
7.400000000000006,19.6537,1.7537,250.7,-7.6,24.6,17.3,-7.200199487377465,-13.043622178948791,-0.09998259715191571
7.5,19.8226,1.73249,250.5,-7.6,25.1,17.3,-7.285156588943923,-13.193100004910903,-0.09998219176120715
7.599999999999994,19.9821,1.82629,250.1,-8.4,24.6,17.3,-7.319487203125028,-13.350344527730982,-0.09998182594814864
7.700000000000017,20.1492,2.05702,250.1,-8.7,23.6,17.3,-7.307535750794313,-13.531643426150925,-0.09998145761646526
7.800000000000011,20.2949,2.32068,249.7,-9.6,22.5,17.3,-7.284985430784305,-13.693796507680275,-0.09998113967978783
7.900000000000006,20.4792,2.56103,250.0,-11.1,20.0,17.2,-7.201307767429601,-13.916767930276631,1.9247312792458615e-05
8.0,20.6639,2.59065,251.4,-11.4,5.0,17.2,-7.108050616706676,-14.142259731174686,1.9638490754925186e-05
8.099999999999994,20.8659,2.39843,253.0,-9.0,-16.1,17.2,-7.021089066198958,-14.38258819589261,2.007863572828228e-05
8.200000000000017,21.0864,2.08111,253.1,-6.4,-26.5,17.2,-6.998206313197031,-14.621265257237301,2.0596064606248632e-05
8.300000000000011,21.2726,1.83141,253.2,-4.7,-26.6,17.2,-6.97548542563613,-14.823571423101779,2.1037654467370714e-05
8.400000000000006,21.4434,1.68582,253.4,-4.5,-26.7,17.2,-6.985954030632987,-14.999339296513408,2.145875946135689e-05
8.5,21.6164,1.61018,253.5,-4.5,-28.0,17.2,-7.029143255227102,-15.167254537044426,2.1903357956709613e-05
8.599999999999994,21.7715,1.64833,253.6,-4.5,-29.4,17.2,-7.109016172035742,-15.305324703720947,2.2321446738526873e-05
8.700000000000017,21.9388,1.82409,253.7,-4.6,-29.7,17.2,-7.202186803242651,-15.451931069658988,2.2781098559132573e-05
8.800000000000011,22.0806,2.04746,253.9,-5.1,-29.9,17.2,-7.359021680483764,-15.551751774113956,2.3201786661708468e-05
8.900000000000006,22.2252,2.31287,254.1,-5.4,-30.1,17.2,-7.56359709675673,-15.638448487104572,2.3653737347029136e-05
9.0,22.3564,2.62199,254.1,-5.8,-30.0,17.2,-7.796204878551396,-15.700338569359277,2.4086942922441068e-05
9.099999999999994,22.4936,2.75317,254.4,-10.2,-24.0,17.2,-8.09016952560253,-15.745339673976938,2.4565639212603685e-05
9.200000000000017,22.6324,2.66696,253.2,-15.9,-4.4,17.2,-8.35558172524532,-15.79913084568333,2.5041473592946062e-05
9.300000000000011,22.7919,2.39124,251.1,-15.7,14.1,17.2,-8.61113183929695,-15.876079104862878,2.5573521694521872e-05
9.400000000000006,22.9511,2.16049,250.5,-14.3,20.5,17.3,-8.81609386190822,-15.969691334545026,-0.09997391149900592
9.5,23.1045,1.95486,249.0,-15.0,20.8,17.3,-9.007197446470222,-16.061300505799156,-0.09997341368093426
9.599999999999994,23.2741,1.86218,248.8,-13.9,23.1,17.3,-9.136949159085543,-16.193268874772954,-0.09997289506444229
9.700000000000017,23.4616,1.93168,248.8,-13.5,25.0,17.3,-9.236175553368097,-16.35608659960821,-0.09997233531274752
9.800000000000011,23.6492,2.11585,249.0,-13.4,24.6,17.3,-9.290987258697962,-16.53632409781015,-0.09997179185856186
9.900000000000006,23.8564,2.3574,248.9,-13.8,22.9,17.3,-9.370675129016842,-16.72794641363216,-0.09997117674203526
10.0,24.0632,2.65254,248.7,-14.6,22.1,17.3,-9.349961671612707,-16.958041530866975,-0.09997059955525867
10.099999999999994,24.2901,2.95276,249.0,-14.7,21.1,17.2,-9.284204139220986,-17.22632670707219,3.0022525494999286e-05
10.200000000000017,24.5198,3.14739,250.4,-15.3,14.3,17.2,-9.199562756942477,-17.503419407328717,3.065310978467295e-05
10.300000000000011,24.7769,3.13125,252.5,-15.1,-3.7,17.2,-9.112411742398457,-17.80924415437346,3.1371734789509276e-05
10.400000000000006,25.051,2.91053,253.8,-11.6,-21.7,17.2,-9.088224157632785,-18.109436777819884,3.2182516833678676e-05
10.5,25.3099,2.64266,253.5,-7.2,-27.6,17.2,-9.05954189901545,-18.394435710380954,3.295692087679214e-05
10.599999999999994,25.5462,2.37714,253.5,-5.3,-27.3,17.2,-9.068706379014811,-18.64183616487199,3.368734228015313e-05
10.700000000000017,25.7791,2.26432,253.6,-4.9,-27.4,17.2,-9.113244850466234,-18.873187661735212,3.443076903053566e-05
10.800000000000011,25.9997,2.22026,254.0,-5.6,-28.6,17.2,-9.184560875982783,-19.08228519388207,3.515528436537352e-05
10.900000000000006,26.2331,2.30604,254.2,-6.2,-29.0,17.2,-9.288539000226828,-19.293755964613638,3.594078480073648e-05
11.0,26.4529,2.39712,254.3,-6.2,-29.2,17.2,-9.427004746645736,-19.47861971860012,3.670671766542455e-05
11.099999999999994,26.6838,2.57905,254.7,-6.9,-29.7,17.2,-9.619649704048307,-19.656014662403017,3.753954356522371e-05
11.200000000000017,26.9159,2.84796,254.9,-8.2,-29.9,17.2,-9.844174431589558,-19.82258050738309,3.839662345850314e-05
11.300000000000011,27.183,3.02252,255.4,-13.8,-25.1,17.2,-10.118277405415657,-20.007244086105413,3.940485396292104e-05
11.400000000000006,27.4315,3.03446,253.8,-18.6,-7.2,17.2,-10.386268285331877,-20.17276377536153,4.0357265615575955e-05
11.5,27.6767,2.8666,251.1,-17.2,12.7,17.2,-10.647098851775253,-20.336177571408214,4.130713302341604e-05
11.599999999999994,27.8779,2.66702,250.7,-13.5,21.8,17.2,-10.877875203817878,-20.462565536714575,4.2102137957300556e-05
11.700000000000017,28.1285,2.58263,250.0,-12.1,21.7,17.2,-11.042762996049667,-20.667377080481153,4.3047083373437545e-05
11.800000000000011,28.3731,2.55246,249.4,-11.4,22.3,17.2,-11.16970294819809,-20.880526164690288,4.396194447231494e-05
11.900000000000006,28.6385,2.57336,249.5,-10.1,23.0,17.2,-11.273735859418359,-21.125122214859367,4.495057556663795e-05
12.0,28.8879,2.67516,249.7,-9.7,23.8,17.2,-11.326169942864416,-21.372967671957966,4.586862581223983e-05
12.099999999999994,29.1704,2.84999,249.6,-10.2,23.8,17.2,-11.418585334370828,-21.640694077928803,4.693659134868966e-05
12.200000000000017,29.4247,3.07872,249.4,-11.1,23.7,17.2,-11.385403930306794,-21.927273902726263,4.78544572581896e-05
12.300000000000011,29.7027,3.30471,249.7,-12.7,22.0,17.2,-11.309657078533977,-22.25497662561615,4.885270311483225e-05
12.400000000000006,29.9729,3.44552,250.7,-15.6,10.4,17.2,-11.215092712298084,-22.58014955773639,4.982643858664204e-05
12.5,30.2847,3.38606,253.0,-16.0,-5.8,17.2,-11.124157509769557,-22.946928540337716,5.097492971639639e-05
12.599999999999994,30.5563,3.16954,254.1,-11.9,-20.1,17.2,-11.049893719009273,-23.263319034701397,5.199070046746357e-05
12.700000000000017,30.8258,2.91606,253.6,-7.5,-27.5,17.2,-11.017485912547409,-23.56156235022442,5.302756729630431e-05
12.800000000000011,31.0809,2.69376,253.4,-5.6,-28.1,17.2,-11.023330123813164,-23.83044364692158,5.403595779895909e-05
12.900000000000006,31.3438,2.47709,253.8,-5.2,-27.7,17.2,-11.054020182092962,-24.098769420016303,5.509559951466514e-05
13.0,31.591,2.392,253.9,-5.5,-28.3,17.2,-11.121787644931167,-24.337307409659488,5.611946979211524e-05
13.099999999999994,31.8399,2.45088,253.9,-6.2,-29.0,17.2,-11.231713049914605,-24.56297343952885,5.717700575669227e-05
13.200000000000017,32.0719,2.52579,254.1,-6.2,-29.0,17.2,-11.373345623483399,-24.75935763670533,5.818790006717478e-05
13.300000000000011,32.3446,2.68462,253.9,-5.7,-29.2,17.2,-11.565031761549388,-24.981186331951832,5.9396182067850134e-05
13.400000000000006,32.568,2.86623,254.2,-6.7,-30.1,17.2,-11.784837048411902,-25.139882459186328,6.04238442356575e-05
13.5,32.7973,2.98394,254.7,-10.7,-24.5,17.2,-12.048253723267166,-25.28797862531084,6.150352299094664e-05
13.599999999999994,33.0184,2.97085,253.8,-14.8,-9.7,17.2,-12.307703770744775,-25.427611157037397,6.255662582965726e-05
13.700000000000017,33.2559,2.83227,251.5,-16.0,8.6,17.2,-12.565656987217146,-25.584153773489696,6.368503449838414e-05
13.800000000000011,33.4721,2.65863,250.3,-14.2,19.9,17.2,-12.799044668577842,-25.726264439853676,6.472223964681945e-05
13.900000000000006,33.7236,2.54895,249.3,-14.2,22.0,17.3,-12.979627195539358,-25.9261335464318,-0.09993410256881052
14.0,33.9669,2.54954,248.6,-14.2,22.9,17.3,-13.110598699305966,-26.136489552945626,-0.09993297562278425
14.099999999999994,34.227,2.59815,248.7,-13.5,23.9,17.3,-13.203891727430268,-26.379716755949136,-0.09993178249044554
14.200000000000017,34.4663,2.72765,248.6,-13.7,23.4,17.3,-13.283101092296763,-26.60596128611362,-0.09993067789910359
14.300000000000011,34.732,2.95755,248.7,-14.2,22.9,17.3,-13.300613943152513,-26.884824160276025,-0.09992947391663165
14.400000000000006,34.9932,3.20869,248.9,-14.3,22.4,17.2,-13.277119404777523,-27.174530943785015,7.170359558728023e-05
14.5,35.2795,3.38927,249.9,-15.5,17.1,17.2,-13.216052049180318,-27.504952478935138,7.299078117384283e-05
14.599999999999994,35.5557,3.46883,251.6,-16.1,3.7,17.2,-13.168162542150746,-27.818670155926483,7.42495973788948e-05
14.700000000000017,35.835,3.39399,253.4,-14.2,-10.8,17.2,-13.089062891312526,-28.146544717078687,7.552376436681385e-05
14.800000000000011,36.1099,3.19183,254.0,-9.9,-22.8,17.2,-13.040124471967511,-28.457719277932704,7.680246334551555e-05
14.900000000000006,36.4139,2.9516,253.3,-5.8,-27.9,17.2,-13.03312212344823,-28.784068560876086,7.825119610949116e-05
15.0,36.7016,2.76545,253.4,-4.8,-28.1,17.2,-13.04408855884974,-29.086239339108992,7.964449775332838e-05
15.099999999999994,36.9837,2.62835,253.9,-5.2,-28.1,17.2,-13.111365294395746,-29.362257598060125,8.104556816057595e-05
15.200000000000017,37.2426,2.5881,254.0,-5.4,-28.9,17.2,-13.207307968031754,-29.603275855008263,8.235748400764464e-05
15.300000000000011,37.5029,2.65237,253.9,-5.4,-29.2,17.2,-13.341359598711282,-29.83218204475049,8.370241225108543e-05
15.400000000000006,37.7491,2.72691,253.9,-5.3,-29.2,17.2,-13.506554944887688,-30.034759982734258,8.500215053519611e-05
15.5,38.0448,2.83188,254.3,-7.2,-28.9,17.2,-13.71756842651887,-30.27323932309902,8.658038211173391e-05
15.599999999999994,38.2859,2.90059,254.7,-11.2,-22.0,17.2,-13.941928968884557,-30.448038097974525,8.789998705971414e-05
15.700000000000017,38.5298,2.89288,253.6,-13.4,-9.6,17.2,-14.185399603125859,-30.618071490339332,8.925044640317736e-05
15.800000000000011,38.7659,2.76447,251.7,-13.1,5.9,17.3,-14.40264628604664,-30.788872798119954,-0.09990943787010131
15.900000000000006,39.0039,2.57868,250.7,-11.5,17.6,17.3,-14.613511144295,-30.963652464801935,-0.09990811139952971
16.0,39.2428,2.48323,249.8,-11.4,21.0,17.3,-14.761078743990439,-31.163286353916057,-0.09990679888484966
16.099999999999994,39.4884,2.43892,249.7,-10.2,22.3,17.3,-14.87198935131792,-31.384059192879974,-0.09990545817123575
16.200000000000017,39.7213,2.50844,250.0,-8.8,23.7,17.3,-14.934641436276904,-31.609853166983704,-0.09990419781864013
16.30000000000001,39.9559,2.6113,249.8,-9.1,23.4,17.3,-14.990143310631677,-31.840298013870083,-0.09990292149321078
16.400000000000006,40.1915,2.79381,250.0,-8.9,23.1,17.3,-14.972237329283772,-32.099713362010256,-0.09990166457392569
16.5,40.4421,3.00535,250.1,-8.9,23.1,17.3,-14.910404203137427,-32.391379368497326,-0.09990033708472712
16.599999999999994,40.6758,3.20708,250.5,-9.4,20.9,17.3,-14.812626441497855,-32.677752850882015,-0.09989910648753231
16.700000000000017,40.9112,3.27222,251.5,-10.0,10.6,17.3,-14.684659986776758,-32.976024568677225,-0.09989787126676042
16.80000000000001,41.1405,3.2431,252.4,-9.6,-2.5,17.2,-14.553714184615941,-33.267533246612665,0.00010334053391858333
16.900000000000006,41.3842,3.11704,253.1,-8.8,-10.6,17.2,-14.42551797081521,-33.57207488506689,0.00010464177039448685
17.0,41.6122,2.9056,253.5,-7.4,-16.1,17.2,-14.321448193585436,-33.85044479718576,0.00010587687802576795
17.099999999999994,41.846,2.636,253.6,-6.0,-21.3,17.2,-14.238846377088253,-34.12656189066299,0.00010716075980798934
17.200000000000017,42.068,2.34716,253.6,-5.3,-26.7,17.2,-14.185306348059456,-34.379760610465276,0.00010839995547407
17.30000000000001,42.2831,2.13724,253.5,-4.6,-28.2,17.2,-14.166085648773537,-34.61361127470125,0.00010961985062163393
17.400000000000006,42.4791,1.95342,253.6,-4.6,-28.3,17.2,-14.18364477243699,-34.81485232795108,0.00011075337153965137
17.5,42.6772,1.87331,253.8,-5.0,-28.9,17.2,-14.239970236163288,-35.005153610222685,0.00011192089230149804
17.599999999999994,42.8666,1.87516,254.0,-5.3,-29.4,17.2,-14.300797657388994,-35.18492737791896,0.00011304496100184025
17.700000000000017,43.048,1.97783,254.1,-5.6,-29.4,17.2,-14.43442323489121,-35.3316487383513,0.0001141574667862244
17.80000000000001,43.2161,2.12797,254.3,-7.0,-29.2,17.2,-14.594355419692164,-35.45518826976016,0.00011520857975799714
17.900000000000006,43.3892,2.19146,254.3,-9.1,-21.3,17.2,-14.78522611983404,-35.57309567019824,0.0001163058037105813
18.0,43.5512,2.07069,252.9,-9.7,-5.6,17.2,-14.963330767760763,-35.683117884749066,0.000117336184690231
18.099999999999994,43.7192,1.87309,251.6,-8.8,11.1,17.2,-15.121656361821527,-35.80614956405168,0.0001183993135214223
18.200000000000017,43.8764,1.67684,250.9,-8.9,19.2,17.3,-15.242711237188454,-35.93041504127625,-0.09988061363735756
18.30000000000001,44.0361,1.53619,250.3,-8.3,21.5,17.3,-15.334942505045827,-36.067483181991534,-0.09987961780957644
18.400000000000006,44.1651,1.56232,250.5,-6.5,23.3,17.3,-15.423423231123056,-36.17328950184515,-0.09987880485205913
18.5,44.3119,1.66027,250.3,-6.7,23.5,17.3,-15.433937780649243,-36.32545940370646,-0.09987791611524433
18.599999999999994,44.4477,1.87805,250.3,-6.4,23.6,17.3,-15.398924444734693,-36.48200128500041,-0.09987710712567921
18.700000000000017,44.5883,2.15429,250.3,-6.5,23.7,17.3,-15.312875664725738,-36.66127432403266,-0.09987628920310687
18.80000000000001,44.7213,2.50945,250.2,-7.8,23.6,17.2,-15.188411422259362,-36.845201363146,0.00012446996034398694
18.900000000000006,44.8556,2.76362,250.5,-9.7,20.1,17.2,-15.028986623438572,-37.04161141106312,0.00012522789192637163
19.0,44.9988,2.84378,251.4,-12.5,6.2,17.2,-14.852802340095693,-37.25193972492009,0.00012603728994431407
19.099999999999994,45.1578,2.67002,253.2,-12.6,-11.3,17.2,-14.675671658140688,-37.47785883169316,0.00012694794337875237
19.200000000000017,45.3071,2.31658,253.8,-9.5,-23.9,17.2,-14.536098071932912,-37.680225745917454,0.0001278189044562339
19.30000000000001,45.4592,1.83557,253.5,-6.4,-27.2,17.2,-14.428228739155134,-37.87466182562997,0.0001287227979629435
19.400000000000006,45.588,1.51244,253.8,-5.8,-27.2,17.2,-14.366078114453254,-38.029653277486034,0.00012950380867060574
19.5,45.6991,1.27881,254.1,-6.1,-27.5,17.2,-14.338853669701779,-38.154742431491954,0.00013018794714891868
19.599999999999994,45.8059,1.13418,254.3,-6.5,-28.4,17.2,-14.337844784072134,-38.2672383627702,0.00013085862809170123
19.700000000000017,45.936,1.21859,254.3,-6.8,-28.5,17.2,-14.299213723771764,-38.41568505032621,0.0001316627918805935
19.80000000000001,46.0578,1.32804,254.2,-6.5,-29.0,17.2,-14.358249829089774,-38.52515317172199,0.00013245570868658518
19.900000000000006,46.1814,1.5247,254.3,-6.7,-29.6,17.2,-14.468929595339961,-38.620222045685296,0.000133282215952768
20.0,46.2911,1.81202,254.7,-7.7,-29.8,17.2,-14.612811904771554,-38.69017316166166,0.0001340350596485962
20.099999999999994,46.4148,2.02579,255.3,-11.3,-27.6,17.2,-14.802889562760527,-38.75980751884758,0.00013489668393873444
20.200000000000017,46.5198,2.06691,254.6,-16.0,-14.1,17.2,-14.99694912293986,-38.80785990273462,0.00013564431823986922
20.30000000000001,46.6357,1.89582,251.9,-17.5,6.3,17.2,-15.191216669078559,-38.86656583112101,0.0001364636867231539
20.400000000000006,46.7581,1.71095,250.6,-15.6,17.7,17.2,-15.346267093960511,-38.9446426965214,0.00013731102438541143
20.5,46.8976,1.56591,249.4,-15.1,19.8,17.2,-15.47138880811352,-39.050319356775915,0.00013825989004967454
20.599999999999994,47.0061,1.56788,248.9,-14.5,20.8,17.2,-15.56979957466967,-39.13204264083767,0.0001390010911732631
20.700000000000017,47.1649,1.72581,248.8,-14.1,22.2,17.2,-15.622752992278075,-39.28205145989057,0.0001400518444345522
20.80000000000001,47.3281,1.97383,248.9,-13.7,22.8,17.2,-15.64030349813226,-39.448487198590925,0.00014112225681195412
20.900000000000006,47.5146,2.26575,248.8,-14.0,22.8,17.2,-15.625276988851208,-39.650388760488084,0.00014233507667515966
21.0,47.6984,2.47973,249.6,-14.8,19.6,17.2,-15.62251379823933,-39.845214737768224,0.00014354117520909426
21.099999999999994,47.8994,2.51602,251.7,-14.3,2.9,17.2,-15.555313322982318,-40.07919505701476,0.0001448409773994186
21.200000000000017,48.0945,2.33862,253.5,-11.2,-17.6,17.2,-15.502023205186083,-40.30200639969242,0.00014611363981043013
21.30000000000001,48.2992,2.04925,253.5,-7.6,-27.0,17.2,-15.477906063794345,-40.52531043666053,0.0001474683796889309
21.400000000000006,48.4913,1.82519,253.4,-5.3,-27.3,17.2,-15.51324889333028,-40.71608136374458,0.0001487683657739325
21.5,48.6579,1.71254,253.8,-5.3,-27.3,17.2,-15.56790709399865,-40.87377677550497,0.0001499084791616312
21.599999999999994,48.8137,1.69207,254.1,-5.8,-28.5,17.2,-15.646415779096536,-41.01240284014828,0.00015099102630689032
21.700000000000017,48.9833,1.79598,254.3,-6.0,-28.6,17.2,-15.750963669365088,-41.15716148955912,0.00015218207468148393
21.80000000000001,49.1693,1.95259,254.4,-6.3,-28.9,17.2,-15.853826875223046,-41.3196645649742,0.00015348680134241732
21.900000000000006,49.3344,2.20445,254.6,-6.5,-30.1,17.2,-16.03487157677632,-41.434502003246166,0.00015468412102848106
22.0,49.4806,2.47206,254.7,-7.9,-30.0,17.2,-16.24213188888851,-41.520273353750326,0.0001557693486526901
22.099999999999994,49.6238,2.56844,254.9,-12.7,-21.4,17.2,-16.48584692637974,-41.590011104809776,0.0001568496978965328
22.200000000000017,49.77,2.46949,252.9,-16.8,-1.2,17.2,-16.71817129596601,-41.66588127719115,0.00015795144520769355
22.30000000000001,49.9245,2.20572,250.9,-16.1,15.5,17.2,-16.946063060281382,-41.75130906848807,0.00015911407579860537
22.400000000000006,50.0933,2.03556,249.8,-15.7,20.5,17.2,-17.11780190443249,-41.87068664736847,0.0001603557769005448
22.5,50.2749,1.94382,248.8,-15.7,20.7,17.2,-17.257401559471074,-42.014613043491394,0.00016167847883874487
22.599999999999994,50.4538,1.96181,248.8,-14.9,22.4,17.3,-17.350911559884267,-42.171717455867295,-0.09983702982424614
22.700000000000017,50.6124,2.09813,248.7,-15.1,22.8,17.3,-17.430630935039854,-42.312069518230736,-0.09983588385753528
22.80000000000001,50.8074,2.33036,248.6,-15.6,22.2,17.3,-17.452437569928993,-42.51133652441928,-0.0998345000993286
22.900000000000006,51.0311,2.62338,248.5,-16.7,21.3,17.3,-17.445504489651164,-42.75114793913943,-0.099832917485557
23.0,51.2598,2.91319,248.9,-18.8,18.5,17.2,-17.40708500856679,-43.006942654433715,0.00016869449258827274
23.099999999999994,51.5276,3.03936,251.0,-20.5,6.1,17.2,-17.387865301577865,-43.29727237398208,0.00017060445428640492
23.200000000000017,51.7837,2.99731,253.6,-17.6,-12.3,17.2,-17.339871382671348,-43.5847152115272,0.00017242994818555957
23.30000000000001,52.056,2.81745,254.1,-11.9,-25.0,17.2,-17.321363918927773,-43.878985588789305,0.0001743943996892483
23.400000000000006,52.3116,2.62973,253.6,-7.5,-27.9,17.2,-17.343398519056443,-44.14170031041603,0.00017626460243125308
23.5,52.5874,2.46833,253.8,-6.0,-27.7,17.2,-17.4216002920355,-44.40687055995795,0.00017831762761222336
23.599999999999994,52.8266,2.37062,254.1,-6.1,-28.3,17.2,-17.51059763600736,-44.629583288756834,0.00018011519815264165
23.700000000000017,53.0668,2.40957,254.1,-6.2,-28.5,17.2,-17.62995413827133,-44.84321964052543,0.0001819422776261348
23.80000000000001,53.2912,2.48818,254.1,-6.0,-29.2,17.2,-17.77900818478944,-45.03006575600813,0.0001836726469974792
23.900000000000006,53.5244,2.66221,254.2,-6.3,-29.8,17.2,-17.975916211409455,-45.209710443688124,0.00018549733950656844
24.0,53.7729,2.87038,254.6,-7.5,-29.5,17.2,-18.173945303168907,-45.40485432907301,0.00018744508208357047
24.099999999999994,53.9936,2.9937,255.1,-11.7,-25.2,17.2,-18.439216076976333,-45.546746121333484,0.00018922006456811857
24.200000000000017,54.2056,3.00861,254.2,-16.3,-11.1,17.2,-18.702053873288325,-45.679435402681804,0.00019093642314693682
24.30000000000001,54.4343,2.86088,251.6,-17.6,7.5,17.2,-18.964526066252944,-45.82926962027244,0.00019278663666000284
24.400000000000006,54.6429,2.68999,250.2,-16.2,19.2,17.2,-19.199732453721005,-45.966670772514135,0.00019448156541379547
24.5,54.8853,2.54329,248.9,-16.1,21.0,17.3,-19.38627009465904,-46.15734393555802,-0.09980357616394286
24.599999999999994,55.1204,2.52097,248.4,-15.3,21.8,17.3,-19.52333961115266,-46.35795563285097,-0.09980170392173804
24.700000000000017,55.3704,2.5939,248.6,-14.5,22.8,17.3,-19.62393122447817,-46.58783193317527,-0.09979972011466032
24.80000000000001,55.6154,2.70969,248.8,-14.2,22.8,17.3,-19.700194199295083,-46.8211485639359,-0.0997977760462252
24.900000000000006,55.882,2.86631,249.0,-14.2,22.0,17.3,-19.767646775189604,-47.08077061339404,-0.09979565867208784
25.0,56.1418,3.06063,249.6,-14.6,20.0,17.3,-19.78026995559894,-47.35292462614247,-0.0997936060068163
25.099999999999994,56.4223,3.14897,251.2,-15.8,7.1,17.2,-19.744349511007727,-47.66460266302531,0.00020860078894457956
25.200000000000017,56.6971,3.06131,253.5,-13.4,-11.6,17.2,-19.72036184863316,-47.96556687186376,0.00021078073353386628
25.30000000000001,56.9847,2.86168,253.7,-8.9,-25.0,17.2,-19.718649731997157,-48.272033600041695,0.00021308462585878374
25.400000000000006,57.2502,2.68563,253.3,-5.8,-27.8,17.2,-19.755001931488056,-48.54119404578664,0.00021523954419677693
25.5,57.5184,2.51385,253.7,-4.9,-27.1,17.2,-19.83338567153867,-48.79842579000438,0.00021744349507457628
25.599999999999994,57.7585,2.46889,254.0,-5.6,-28.2,17.2,-19.938515341233497,-49.016243404620994,0.00021944197842138635
25.700000000000017,57.9675,2.49202,254.2,-6.1,-28.7,17.2,-20.051933871916916,-49.19812543081425,0.00022119706168943765
25.80000000000001,58.1869,2.58099,254.1,-6.1,-29.0,17.2,-20.214831758979827,-49.37327954884114,0.000223066216783252
25.900000000000006,58.4287,2.74832,254.4,-6.9,-29.4,17.2,-20.42128822006902,-49.55654815057016,0.0002251455131094815
26.0,58.655,2.87694,254.7,-10.6,-25.8,17.2,-20.64642000510209,-49.716161417780114,0.00022711470923830746
26.099999999999994,58.9182,2.8373,253.8,-15.3,-9.8,17.2,-20.898310385665194,-49.904760852532654,0.000229408782262297
26.200000000000017,59.1484,2.7063,251.4,-15.5,10.0,17.2,-21.118974884570683,-50.06925794045139,0.00023142718941038254
26.30000000000001,59.3986,2.56956,250.3,-14.4,20.0,17.2,-21.316868075894053,-50.26313043101144,0.00023360973032993115
26.400000000000006,59.6375,2.50158,248.9,-14.9,20.8,17.3,-21.465452732274645,-50.463155029277104,-0.09976431090139926
26.5,59.8807,2.5311,248.7,-14.1,22.3,17.3,-21.593448907468932,-50.67532911491021,-0.09976219594894609
26.599999999999994,60.1212,2.6299,248.9,-13.7,23.3,17.3,-21.658945291697904,-50.90797753699047,-0.09976012311866533
26.700000000000017,60.3764,2.82773,249.0,-14.2,22.4,17.3,-21.689470660950974,-51.16928723427393,-0.09975792985211562
26.80000000000001,60.6294,3.07889,248.9,-16.0,20.4,17.3,-21.685134922524153,-51.44115865879847,-0.09975576012837628
26.900000000000006,60.8989,3.26127,249.7,-18.6,14.4,17.3,-21.6957814530501,-51.72501252069174,-0.09975343029638672
27.0,61.1736,3.35398,251.9,-20.2,1.3,17.3,-21.65623481535423,-52.032582647058696,-0.09975106573060621
27.099999999999994,61.4526,3.26803,254.3,-16.8,-15.4,17.3,-21.623279237105926,-52.34210405297789,-0.09974864798161676
27.200000000000017,61.7306,3.0793,254.0,-10.7,-26.6,17.2,-21.629734050386034,-52.63591565035031,0.00025378849769452927
27.30000000000001,62.0442,2.89198,253.5,-6.8,-28.1,17.2,-21.686398027031697,-52.94936291447749,0.0002565744490077293
27.400000000000006,62.3361,2.76908,253.8,-6.0,-27.7,17.2,-21.7878575637993,-53.22354507009591,0.0002592007338417801
27.5,62.6137,2.71434,254.1,-6.2,-28.1,17.3,-21.90385346493954,-53.477173311996,-0.09973827943707292
27.599999999999994,62.8707,2.69196,254.1,-6.2,-29.1,17.3,-22.046875202640365,-53.6990999112149,-0.09973592252986663
27.700000000000017,63.1346,2.82068,254.2,-6.6,-29.8,17.3,-22.232038279658653,-53.913011769138286,-0.09973347513621711
27.80000000000001,63.3992,2.96478,254.3,-6.7,-29.3,17.3,-22.424533612138763,-54.12485406293702,-0.0997310056400238
27.900000000000006,63.6577,3.13728,254.5,-7.3,-29.3,17.3,-22.686897156908273,-54.3040869917396,-0.09972855371898603
28.0,63.9005,3.25466,255.0,-12.5,-23.6,17.3,-22.960624000133066,-54.46180289341251,-0.09972622680519905
28.099999999999994,64.1568,3.19488,253.3,-18.0,-4.4,17.2,-23.25133380428692,-54.6268724200593,0.0002762401590405972
28.200000000000017,64.4078,3.06638,250.6,-19.3,14.0,17.2,-23.50867099191789,-54.798182009887256,0.0002786561421483924
28.30000000000001,64.6787,2.99355,249.3,-19.4,19.8,17.3,-23.748302641870968,-54.99708848358218,-0.09971874389438184
28.400000000000006,64.9466,2.99125,247.9,-20.5,19.5,17.3,-23.93825224230153,-55.21148918757842,-0.09971617950137635
28.5,65.2399,3.07873,247.9,-20.1,20.7,17.3,-24.09407160698498,-55.46625480403604,-0.09971338226950799
28.599999999999994,65.5004,3.175,248.3,-19.6,21.2,17.3,-24.245578497589158,-55.687330002729,-0.0997108810384919
28.700000000000017,65.8241,3.36196,248.5,-19.6,20.1,17.3,-24.333614299719578,-56.00085011019028,-0.0997078017642643
28.80000000000001,66.1435,3.58693,248.6,-19.7,19.3,17.3,-24.381554531914226,-56.32522590414638,-0.09970476520009086
28.900000000000006,66.4931,3.80186,249.3,-20.1,17.4,17.3,-24.396568012090995,-56.69446476627499,-0.09970143890361349
29.0,66.836,3.89393,251.9,-19.7,4.5,17.2,-24.39486789458376,-57.062686928412276,0.00030183293820940094
29.099999999999994,67.2037,3.80434,254.3,-15.0,-15.8,17.3,-24.415920800035884,-57.44855236107682,-0.0996946232589746
29.200000000000017,67.5525,3.63232,254.0,-9.8,-27.6,17.2,-24.454391329662048,-57.80750348779863,0.0003087635552763146
29.30000000000001,67.9139,3.46256,253.3,-6.1,-28.2,17.3,-24.53931514930589,-58.16229074726412,-0.09968768643224202
29.400000000000006,68.2502,3.3556,253.6,-5.2,-27.7,17.3,-24.652391745647233,-58.47957604081479,-0.09968434973455587
29.5,68.6179,3.2808,253.9,-5.5,-28.6,17.3,-24.791815177406654,-58.82051694254038,-0.09968067575610995
29.599999999999994,68.9332,3.22163,253.8,-5.5,-29.1,17.3,-24.962634025317758,-59.09351593960328,-0.09967748695513556
29.700000000000017,69.2512,3.35306,254.0,-5.9,-29.2,17.3,-25.17545121521828,-59.35346746602944,-0.09967423494235739
29.80000000000001,69.5487,3.4662,254.1,-6.1,-29.2,17.3,-25.4139076238342,-59.58143180750108,-0.09967116226532013
29.900000000000006,69.876,3.59311,254.3,-6.7,-29.5,17.3,-25.712013093392834,-59.81810645686871,-0.09966775025218588
30.0,70.166,3.75494,254.7,-11.4,-26.3,17.3,-26.015860366106622,-60.01190350792086,-0.09966469506779774
30.099999999999994,70.4663,3.7869,254.3,-18.5,-13.2,17.3,-26.347262454309693,-60.205269247628486,-0.09966150857994727
30.200000000000017,70.766,3.73996,251.6,-21.1,5.5,17.3,-26.65029480024212,-60.40844449464741,-0.09965832598874691
30.30000000000001,71.0759,3.6449,249.9,-19.6,17.5,17.3,-26.948544862795057,-60.62368609459679,-0.09965502715813734
30.400000000000006,71.4103,3.60806,248.7,-19.1,19.3,17.3,-27.1927743610834,-60.88668122779801,-0.09965148497870402
30.5,71.7753,3.60316,247.7,-19.1,20.3,17.3,-27.418513331575845,-61.1898237086333,-0.09964761674336664
30.599999999999994,72.125,3.62906,248.0,-17.9,22.1,17.3,-27.589292887318816,-61.49844154596779,-0.09964391176099952
30.700000000000017,72.4893,3.74358,248.1,-17.9,21.3,17.3,-27.719127216127276,-61.839455091621005,-0.0996400529416519
30.80000000000001,72.8337,3.9,248.3,-18.5,20.3,17.3,-27.83839163909124,-62.16317851350081,-0.09963638795135488
30.900000000000006,73.2394,4.09935,248.5,-19.5,19.3,17.3,-27.918218857714464,-62.56909056521288,-0.09963207157375287
31.0,73.6379,4.31821,249.3,-21.6,16.0,17.3,-27.965512521644644,-62.98010388845138,-0.09962782228999956
31.099999999999994,74.0696,4.45644,251.5,-22.9,4.9,17.3,-27.995425207419096,-63.43365492372443,-0.09962320065341146
31.200000000000017,74.5137,4.46594,254.4,-18.8,-11.8,17.3,-28.071163384413126,-63.88212768074327,-0.09961839593711197
31.30000000000001,74.9577,4.36782,254.7,-13.0,-24.7,17.3,-28.138377323702695,-64.3336933538574,-0.09961356315150027
31.400000000000006,75.3751,4.24634,254.1,-8.6,-28.0,17.3,-28.238145260044014,-64.74366078484002,-0.0996089758605958
31.5,75.8039,4.12304,254.2,-7.0,-27.7,17.3,-28.378343892462176,-65.14994747292585,-0.09960421892959204
31.599999999999994,76.204,3.97507,254.5,-6.9,-28.2,17.3,-28.53478205400907,-65.51888195216408,-0.09959974232518576
31.700000000000017,76.6027,3.99623,254.3,-6.4,-28.7,17.3,-28.72677341092115,-65.87232894812246,-0.09959524151512333
31.80000000000001,76.9814,4.01478,254.4,-6.7,-29.3,17.3,-28.942869646713948,-66.19469373008334,-0.09959092658419166
31.900000000000006,77.3863,4.13796,254.8,-8.1,-29.5,17.3,-29.208362786615517,-66.52547477849885,-0.09958627355442928
32.0,77.7728,4.29324,255.8,-13.4,-27.1,17.3,-29.48967353372442,-66.82988554935946,-0.09958179497983011
32.099999999999994,78.1842,4.38464,256.0,-20.7,-17.6,17.3,-29.819158903325047,-67.14142194645021,-0.09957698854692332
32.20000000000002,78.5823,4.46041,253.0,-24.8,-1.5,17.3,-30.126755912303537,-67.44694029616798,-0.09957231711873149
32.30000000000001,79.0055,4.49111,250.1,-23.6,13.3,17.3,-30.419748879357194,-67.78525927452436,-0.09956733872992984
32.400000000000006,79.422,4.5297,248.9,-21.9,18.4,17.3,-30.66632102032207,-68.13491119338877,-0.09956243093841266
32.5,79.8271,4.5831,248.1,-21.4,17.9,17.3,-30.904403680976372,-68.4757882120687,-0.09955763125750217
32.599999999999994,80.273,4.63961,247.8,-21.0,18.3,17.3,-31.094397899773426,-68.88041819166814,-0.09955235189586631
32.70000000000002,80.7622,4.77529,247.8,-20.8,18.4,17.3,-31.272180469394037,-69.33688009669255,-0.09954653818698311
32.80000000000001,81.2299,4.94175,247.9,-20.9,18.3,17.3,-31.40436583657214,-69.78894281812902,-0.09954096044775618
32.900000000000006,81.7188,5.11807,248.7,-20.9,18.1,17.3,-31.55222980426101,-70.25744038082627,-0.09953508914321851
33.0,82.2003,5.3482,249.5,-23.4,14.8,17.3,-31.61439220769546,-70.75283470414583,-0.09952931041042135
33.099999999999994,82.7266,5.51689,251.4,-27.5,4.3,17.3,-31.663218883741045,-71.30202362538199,-0.09952295688000312
33.20000000000002,83.2452,5.62646,254.3,-25.8,-9.7,17.3,-31.72168228648166,-71.83848945789529,-0.09951665237934826
33.30000000000001,83.8131,5.61066,255.4,-19.8,-21.3,17.3,-31.83449800435055,-72.40616028665123,-0.09950967489285745
33.400000000000006,84.3501,5.55612,254.9,-14.1,-26.4,17.3,-31.966012313992923,-72.93281319939518,-0.09950302026931013
33.5,84.9089,5.44765,254.8,-10.9,-27.4,17.3,-32.142823236004155,-73.46481995142693,-0.09949602821731851
33.599999999999994,85.4262,5.27442,255.0,-9.8,-27.6,17.3,-32.34103747789603,-73.9434598580612,-0.09948949709172794
33.70000000000002,85.909,5.27703,255.3,-9.9,-27.8,17.3,-32.56149007607152,-74.3758963865701,-0.099483348512317
33.80000000000001,86.4115,5.27613,255.2,-9.7,-28.5,17.3,-32.8161636166734,-74.81578685145321,-0.09947689721008857
33.900000000000006,86.9654,5.33296,255.5,-10.9,-28.4,17.3,-33.1227882267803,-75.29021204207862,-0.09946973080959332
34.0,87.4876,5.38968,255.8,-13.4,-26.7,17.3,-33.44254613557006,-75.72491756735573,-0.09946291416152242
34.099999999999994,88.0297,5.40083,255.3,-15.4,-19.6,17.3,-33.799663063458596,-76.16564896012187,-0.099455782139513
34.20000000000002,88.6095,5.39633,253.7,-16.6,-8.1,17.3,-34.16893028372981,-76.64177776067493,-0.0994481087167518
34.30000000000001,89.155,5.31498,251.3,-17.7,6.0,17.3,-34.51775409817256,-77.08900820249295,-0.09944083903719836
34.400000000000006,89.6675,5.25667,249.5,-17.8,16.7,17.3,-34.817374634563066,-77.52040689222318,-0.09943398037530571
34.5,90.1957,5.19135,248.4,-17.6,20.4,17.3,-35.08972618628635,-77.9800544785451,-0.09942688522503396
34.599999999999994,90.6811,5.15755,248.0,-17.4,21.3,17.3,-35.34562200520834,-78.40012725888027,-0.09942032150238234
34.70000000000002,91.2097,5.23595,248.2,-17.2,21.5,17.3,-35.53285845252945,-78.8955304503069,-0.09941317568832986
34.80000000000001,91.7086,5.33929,248.5,-17.4,21.3,17.3,-35.668649294278495,-79.37998185427,-0.09940641044200049
34.900000000000006,92.2275,5.44832,248.9,-18.6,19.5,17.3,-35.77046731091096,-79.9002579610239,-0.09939934726012467
35.0,92.7276,5.5689,250.4,-21.2,10.6,17.3,-35.863556083990694,-80.40351885534824,-0.09939250457346205
35.099999999999994,93.2637,5.65672,252.7,-22.2,-3.2,17.3,-35.98171149851373,-80.93545675055066,-0.09938511447782972
35.20000000000002,93.7902,5.68646,254.9,-20.5,-15.0,17.3,-36.09395202881487,-81.45926888587448,-0.09937781614166852
35.30000000000001,94.3635,5.63898,255.6,-16.7,-23.2,17.3,-36.216776590213314,-82.02917778811795,-0.09936982158949093
35.400000000000006,94.8852,5.57772,255.1,-13.0,-26.3,17.2,-36.34762246278524,-82.54003652770902,0.0006375107890228549
35.5,95.4361,5.46576,255.5,-12.1,-26.5,17.3,-36.53252141145955,-83.06040632639126,-0.0993546800290801
35.599999999999994,95.9567,5.38831,255.6,-11.9,-27.1,17.3,-36.73575433538872,-83.54046715810787,-0.09934724506375758
35.70000000000002,96.5022,5.38419,255.5,-11.5,-27.3,17.3,-36.97684322840425,-84.0320983114857,-0.09933939461733843
35.80000000000001,97.0261,5.40666,255.7,-12.3,-27.8,17.3,-37.23720570401522,-84.49235703988217,-0.0993318004286543
35.900000000000006,97.6154,5.53908,256.3,-14.7,-27.4,17.2,-37.52586448252842,-85.01183930590321,0.0006767928211175445
36.0,98.1526,5.65773,257.0,-19.8,-24.1,17.2,-37.84588766628977,-85.46196434941226,0.0006847020110534174
36.099999999999994,98.721,5.74037,256.4,-24.0,-16.6,17.2,-38.20197812484185,-85.9307773747577,0.0006931242567880247
36.20000000000002,99.2736,5.84321,253.4,-25.7,-3.8,17.2,-38.53796309431428,-86.390563367438,0.0007013582735311275
36.30000000000001,99.8591,5.85919,250.4,-25.2,10.0,17.2,-38.88138258910368,-86.88272252482794,0.0007101287483912699
36.400000000000006,100.429,5.94026,249.2,-23.5,17.0,17.2,-39.159289944037525,-87.38495428258494,0.0007186907234064677
36.5,101.031,5.96469,248.3,-23.7,16.2,17.2,-39.417553683000975,-87.93056382969502,0.0007277788308250877
36.599999999999994,101.607,6.05133,247.9,-24.2,15.5,17.2,-39.62878126913012,-88.46699335341893,0.0007365024719803159
36.70000000000002,102.154,6.17977,248.4,-23.3,16.0,17.2,-39.82128181437914,-88.98093189000292,0.0007448477720686242
36.80000000000001,102.752,6.33908,248.9,-23.4,15.4,17.2,-39.97398382810782,-89.56524467012466,0.0007539785800680932
36.900000000000006,103.41,6.50514,249.3,-24.6,13.4,17.2,-40.11626542216421,-90.22028324591726,0.0007640976600171712
37.0,104.039,6.72832,249.8,-26.8,10.7,17.2,-40.223098053825964,-90.85774888576361,0.0007738129947192363
37.099999999999994,104.72,6.91082,251.8,-29.9,3.5,17.2,-40.346409336189424,-91.54450362177361,0.0007844040467794855
37.20000000000002,105.37,7.07048,254.7,-29.2,-8.2,17.2,-40.43539281707778,-92.21130267568765,0.0007945667873912043
37.30000000000001,106.073,7.11605,256.1,-24.7,-18.6,17.2,-40.55019400810062,-92.92490127891094,0.0008056444028206045
37.400000000000006,106.759,7.09191,255.8,-18.6,-24.1,17.2,-40.692342196676904,-93.60801340644807,0.0008165314309991345
37.5,107.491,6.98753,255.5,-14.8,-26.5,17.2,-40.878107883534284,-94.3240030920792,0.0008282620529449503
37.599999999999994,108.212,6.73417,255.6,-13.4,-27.1,17.2,-41.089732378557656,-95.01718908740227,0.000839905312808753
37.70000000000002,108.897,6.72833,255.7,-12.8,-27.1,17.2,-41.33237671538263,-95.65908557973843,0.0008510662336860264
37.80000000000001,109.545,6.69069,255.9,-13.2,-27.2,17.2,-41.59009916430945,-96.25461063020715,0.0008616968544714609
37.900000000000006,110.227,6.73109,255.9,-13.7,-27.4,17.2,-41.88935008056928,-96.87041224495667,0.0008729772569822103
38.0,110.871,6.82099,256.2,-15.6,-26.5,17.2,-42.18827196722795,-97.44478338631184,0.0008836954651449958
38.099999999999994,111.583,6.89059,256.9,-21.2,-23.2,17.2,-42.55823022681774,-98.06396894461545,0.0008956421906667345
38.20000000000002,112.265,7.04158,256.6,-26.2,-16.2,17.2,-42.92066433281643,-98.65382091748958,0.0009071688318442739
38.30000000000001,112.988,7.1504,254.1,-29.4,-5.6,17.2,-43.29775963752407,-99.28242301714475,0.0009194708398077012
38.400000000000006,113.689,7.28646,251.0,-29.3,5.9,17.2,-43.64513881961061,-99.89809548694953,0.0009314504998272355
38.5,114.436,7.37801,249.6,-27.1,12.4,17.2,-43.987879703562996,-100.56550838145046,0.0009442928641938408
38.599999999999994,115.139,7.42887,248.8,-26.6,13.5,17.2,-44.270882082352486,-101.2104985828393,0.0009564491347724413
38.70000000000002,115.847,7.53408,248.7,-25.7,13.2,17.2,-44.50936188687457,-101.87957534383284,0.0009687581454542737
38.80000000000001,116.502,7.64457,249.0,-25.0,13.1,17.2,-44.741551649242055,-102.49336809545237,0.000980212455488072
38.900000000000006,117.296,7.75598,249.4,-26.2,11.6,17.2,-44.965085547767636,-103.26030481784142,0.0009941490639953088
39.0,118.061,7.91154,250.6,-27.7,7.5,17.2,-45.155155616675145,-104.01036352284328,0.0010076709986037713
39.099999999999994,118.878,8.0412,252.0,-28.6,2.0,17.2,-45.33675571085578,-104.81976138117533,0.0010222020585644032
39.20000000000002,119.664,8.17336,253.8,-28.7,-5.0,17.2,-45.50695674113679,-105.60054344218875,0.001036285708746476
39.30000000000001,120.544,8.2519,255.5,-26.9,-13.0,17.2,-45.73004729621861,-106.46084980571558,0.0010521758261177183
39.400000000000006,121.344,8.2872,256.2,-23.6,-19.7,17.2,-45.93247541237065,-107.24286946699479,0.0010667223948885862
39.5,122.186,8.25293,256.1,-20.0,-23.2,17.2,-46.177547231555266,-108.0529707395958,0.0010821592197771679
39.599999999999994,122.977,8.02045,255.9,-17.4,-25.0,17.2,-46.43552440531212,-108.80309911507794,0.0010967777764712139
39.70000000000002,123.759,7.95402,256.0,-15.6,-26.2,17.2,-46.72740494646608,-109.52972132659434,0.0011113424232469526
39.80000000000001,124.534,7.95378,255.8,-14.0,-26.8,17.2,-47.03243016930943,-110.24378855913793,0.0011258824077380325
39.900000000000006,125.361,7.91911,255.8,-13.5,-27.5,17.3,-47.38136824552902,-110.99627199217322,-0.09885848693908272
40.0,126.137,7.86885,255.7,-12.8,-27.9,17.2,-47.74395862164047,-111.68754952899312,0.001156282620929261
40.099999999999994,126.981,7.84641,255.6,-12.5,-28.3,17.2,-48.1613090929016,-112.43004295227362,0.0011724654246023647
40.20000000000002,127.731,7.81612,255.5,-12.2,-28.2,17.2,-48.58291122382373,-113.06988803822605,0.0011869741033443404
40.30000000000001,128.509,7.80886,255.6,-12.8,-27.8,17.2,-49.05048603802682,-113.72005124751723,0.0012021134234920794
40.400000000000006,129.253,7.87488,256.5,-17.7,-25.9,17.2,-49.52417557217801,-114.33129660243807,0.0012167047597486658
40.5,130.065,7.91226,256.4,-24.1,-18.9,17.2,-50.0627581733158,-114.98928864270616,0.0012327407958565573
40.599999999999994,130.815,7.97304,253.2,-27.1,-4.8,17.2,-50.549664460680305,-115.60011424628206,0.0012476279725319728
40.70000000000002,131.592,7.87671,250.0,-25.5,10.7,17.2,-51.02658977385937,-116.24487083838747,0.0012631469811381635
40.80000000000001,132.341,7.89469,248.8,-23.3,17.5,17.2,-51.44312338673832,-116.88312771975706,0.0012781581237071293
40.900000000000006,133.137,7.87936,247.8,-22.9,17.3,17.3,-51.839655564814535,-117.58158084250068,-0.09870579449173178
41.0,133.839,7.92445,247.9,-22.0,17.2,17.3,-52.167179357603686,-118.2065026325667,-0.09869157400887474
41.099999999999994,134.637,7.938,248.3,-20.8,17.6,17.3,-52.49475964751309,-118.93589820252069,-0.09867533021532182
41.20000000000002,135.403,8.02486,248.4,-21.0,17.1,17.3,-52.77520563384932,-119.64940071435989,-0.09865967513469798
41.30000000000001,136.219,8.05258,249.0,-22.0,14.6,17.3,-53.043734306298155,-120.42260895391198,-0.09864290230028416
41.400000000000006,136.996,8.12571,251.1,-22.7,6.1,17.2,-53.3131814814346,-121.15365927528717,0.0013731848544935588
41.5,137.819,8.13191,253.1,-23.2,-4.4,17.2,-53.5543399153201,-121.94647898563606,0.0013903057195570057
41.599999999999994,138.605,7.96941,255.1,-21.7,-13.4,17.2,-53.79120488639144,-122.700250851169,0.0014067488649764925
41.70000000000002,139.431,7.9208,255.9,-17.5,-22.2,17.2,-54.060958360305115,-123.48399827391378,0.0014241484838919405
41.80000000000001,140.23,7.91672,255.1,-13.3,-26.7,17.2,-54.35471870165867,-124.22835454879912,0.0014410947043543842
41.900000000000006,141.085,7.82537,255.2,-12.8,-27.4,17.3,-54.7047043671904,-125.00983684995484,-0.0985406474885302
42.0,141.871,7.76023,254.8,-12.7,-24.4,17.3,-55.04902073946616,-125.71813972692757,-0.09852376615674885
42.099999999999994,142.642,7.28019,253.2,-7.9,-15.3,17.3,-55.40066519491887,-126.40881662222856,-0.09850707127010239
42.20000000000002,143.31,6.5824,251.4,20.2,-3.9,17.3,-55.69929897082555,-127.0084601816859,-0.09849256035404252
42.30000000000001,143.952,6.00195,254.3,29.1,3.8,17.3,-56.01169320648604,-127.5747151084839,-0.09847852452053374
42.400000000000006,144.511,5.46128,255.4,25.3,3.6,17.4,-56.28626496401439,-128.06669439982727,-0.19846624796880263
42.5,145.033,4.71889,255.2,30.0,4.6,17.4,-56.54530201115017,-128.52422877273057,-0.1984547547549127
42.599999999999994,145.468,4.02668,254.9,30.3,5.0,17.4,-56.76417519143825,-128.9051179895342,-0.19844512510930912
42.70000000000002,145.848,3.4777,254.5,29.6,3.4,17.5,-56.974439111342,-129.2297399219263,-0.29843667938533613
42.80000000000001,146.166,2.84513,254.4,32.2,4.5,17.4,-57.14208669782952,-129.50421289541868,-0.19842961293295858
42.900000000000006,146.449,2.23943,254.1,30.5,3.5,17.4,-57.297489658168814,-129.74665827388148,-0.1984232908627135
43.0,146.653,1.77141,253.4,25.2,2.0,17.4,-57.41425438919326,-129.91869025776853,-0.19841873733177806
43.099999999999994,146.812,1.38147,252.7,19.1,-0.1,17.4,-57.51240512510214,-130.0502154984931,-0.1984151731009547
43.20000000000002,146.921,1.07988,252.0,14.9,-1.4,17.4,-57.58489138111568,-130.13824021202402,-0.1984127233508879
43.30000000000001,147.013,0.841043,251.4,10.7,-2.0,17.4,-57.65041401147262,-130.21067012268665,-0.19841065246336953
43.400000000000006,147.076,0.655669,251.0,5.5,-2.0,17.4,-57.70108466142878,-130.25739379565167,-0.19840923925713128
43.5,147.122,0.501,250.8,1.2,-1.8,17.4,-57.72913020906935,-130.2949833471635,-0.1984082179027702
43.599999999999994,147.15,0.370487,251.1,-2.3,-2.3,17.4,-57.75873058336087,-130.31367904494266,-0.19840756721520236
43.70000000000002,147.169,0.292824,251.4,-4.5,-2.9,17.4,-57.77947166612334,-130.32511950583248,-0.19840714467146725
43.80000000000001,147.182,0.246204,251.6,-5.6,-3.6,17.4,-57.79405804599098,-130.3331537974983,-0.19840684721694757
43.900000000000006,147.177,0.203,251.7,-6.4,-4.3,17.4,-57.77280818963956,-130.33684980662719,-0.1984069664338186
44.0,147.183,0.165118,251.9,-6.9,-4.5,17.4,-57.78077177518715,-130.3395992272926,-0.1984068380052193
