time,distance(meters),speed(m/s), compass_heading(degrees), pitch(degrees), roll(degrees),height_above_takeoff(meters),North,East,Down
0.0,120.761,3.1532,236.6,-5.8,21.7,14.9,0.0,0.0,0.0
0.0999999999999659,120.732,3.46401,237.2,-5.1,19.9,14.9,0.30904374886726727,-0.1045653047149758,8.13537878729953e-09
0.19999999999998863,120.7,3.55699,238.0,-4.3,13.5,14.9,0.6540220067693047,-0.22077698510872257,3.5904616280113544e-08
0.2999999999999545,120.672,3.51866,238.4,-5.5,1.5,14.9,0.980998345018629,-0.332444650798234,8.40046119332527e-08
0.39999999999997726,120.622,3.31767,239.1,-5.7,-12.3,14.9,1.3159065068419435,-0.42237751515863664,1.497863078014916e-07
0.5,120.565,2.93072,239.2,-4.1,-23.6,14.9,1.622765753419333,-0.4915989347471021,2.257517521808694e-07
0.6000000000000227,120.492,2.49324,239.0,-2.9,-26.5,14.9,1.925929264879134,-0.541888319337416,3.1477582818073557e-07
0.6999999999999318,120.402,2.11495,239.4,-3.3,-26.2,14.9,2.192181580324357,-0.5560472373370975,4.022733589570393e-07
0.7999999999999545,120.284,1.90872,239.6,-4.3,-26.3,14.9,2.450166881424543,-0.5365042376640705,4.949550769239863e-07
0.8999999999999773,120.17,1.62849,239.6,-5.3,-27.6,14.9,2.650066335237095,-0.4968989355802328,5.719193794107014e-07
1.0,120.053,1.45573,239.3,-5.6,-28.5,14.9,2.8043946017726733,-0.4340390934995384,6.338451754572816e-07
1.1000000000000227,119.941,1.34902,239.3,-5.7,-28.4,14.9,2.9358664910156707,-0.3674600541230886,6.881888201526465e-07
1.1999999999999318,119.801,1.39367,239.5,-6.2,-28.7,14.9,3.0079117760793492,-0.24475698642064392,7.162042507946609e-07
1.2999999999999545,119.658,1.55237,239.7,-6.5,-29.1,14.9,3.037679977439276,-0.10251857100073791,7.274362443521198e-07
1.3999999999999773,119.498,1.8003,239.9,-6.8,-29.4,14.9,3.026745900405014,0.07510188555256903,7.202641743031535e-07
1.5,119.335,2.10609,240.0,-6.7,-29.7,14.9,2.989860726397703,0.2680802703810393,7.085069566592495e-07
1.6000000000000227,119.135,2.41493,240.0,-6.8,-29.6,15.0,2.93361558309782,0.5079496153973682,-0.09999930250308964
1.6999999999999318,118.954,2.66518,239.7,-6.4,-24.0,15.0,2.84156301807506,0.7437561021284849,-0.09999932131783296
1.7999999999999545,118.749,2.81776,238.1,-0.6,-10.6,14.9,2.7311733091991623,1.0128291754291092,6.676499344493436e-07
1.8999999999999773,118.538,2.79805,238.2,5.5,5.3,15.0,2.639146821301222,1.2811462378405167,-0.09999932328545569
2.0,118.279,2.66292,238.7,6.0,16.6,15.0,2.555771625396524,1.5981641831522264,-0.09999928569784933
2.1000000000000227,118.04,2.59246,238.4,4.6,19.9,15.0,2.5336954677359174,1.8683522779464552,-0.09999922057548294
2.199999999999932,117.774,2.56751,239.0,5.5,22.0,15.0,2.557583475786134,2.1480025597405312,-0.09999912366274955
2.2999999999999545,117.511,2.67334,239.7,7.0,22.8,15.0,2.6228123614130414,2.406032583258888,-0.09999900526133976
2.3999999999999773,117.204,2.79944,239.6,7.1,21.7,15.0,2.711995691720504,2.7025376205025715,-0.09999884924474078
2.5,116.922,3.04328,239.4,7.2,20.3,15.0,2.8594931304147093,2.9465996174510227,-0.09999867663821149
2.6000000000000227,116.614,3.33648,239.0,7.2,19.0,15.0,3.0573439689201334,3.1966565995724405,-0.09999846356808173
2.699999999999932,116.305,3.61283,238.4,6.0,18.7,14.9,3.2895140134371155,3.4344943670965424,1.7752879353238882e-06
2.7999999999999545,115.975,3.85753,237.8,4.0,18.6,14.9,3.5566679592539163,3.680045489140201,2.0564210110318726e-06
2.8999999999999773,115.641,4.12613,237.7,3.2,16.6,14.9,3.8708118589860776,3.909940820997257,2.3767054393442066e-06
3.0,115.282,4.31531,237.8,3.1,10.9,14.9,4.234997102420021,4.146518450218259,2.7574083689696494e-06
3.1000000000000227,114.932,4.36562,237.7,-0.3,-1.3,14.9,4.596668426975821,4.374748867448413,3.1609786965702824e-06
3.199999999999932,114.558,4.23756,238.6,-5.9,-15.7,14.9,4.971449680328711,4.6240114399289975,3.6184284049056714e-06
3.2999999999999545,114.205,4.04905,239.7,-8.1,-24.7,14.9,5.3192540395637105,4.862673916732803,4.078420735798005e-06
3.3999999999999773,113.834,3.86682,239.8,-7.8,-26.0,14.9,5.620811089577128,5.139910685815886,4.554433239878364e-06
3.5,113.477,3.75491,239.9,-7.9,-26.1,14.9,5.879247313614661,5.4204695350425816,5.020495477570108e-06
3.6000000000000227,113.097,3.73076,240.0,-7.9,-26.9,14.8,6.120250773969801,5.732996602921766,0.10000552240960214
3.699999999999932,112.732,3.68537,240.1,-8.1,-28.1,14.8,6.365747595237355,6.027500511742741,0.10000603406945396
3.7999999999999545,112.355,3.67993,240.2,-8.3,-28.5,14.8,6.528267964888977,6.368994674639867,0.10000652963873025
3.8999999999999773,111.991,3.74289,240.2,-8.3,-28.7,14.8,6.644165381429765,6.715452871352893,0.10000700623914849
4.0,111.603,3.83702,240.3,-8.2,-28.9,14.8,6.724550193547909,7.102012768324993,0.10000750824755711
4.100000000000023,111.222,3.96604,240.4,-8.4,-29.4,14.8,6.787025558562341,7.487908249606094,0.10000801698515982
4.199999999999932,110.835,4.10447,240.7,-9.5,-29.6,14.8,6.786124343256899,7.907788237566155,0.1000085209036472
4.2999999999999545,110.471,4.17671,240.4,-10.9,-23.0,14.8,6.7476473642815975,8.317511109535833,0.10000900175679339
4.399999999999977,110.097,4.09478,239.1,-10.3,-7.0,14.8,6.686608766390368,8.747975989521935,0.10000951233606159
4.5,109.74,3.89843,238.1,-6.3,10.3,14.8,6.628000279891962,9.160471094835312,0.10001002816657234
4.600000000000023,109.378,3.69551,238.7,-1.1,20.7,14.8,6.621640741104904,9.555737190607697,0.10001060115420213
4.699999999999932,109.039,3.52904,239.0,1.2,22.8,14.9,6.6546196911952435,9.910244936483465,1.1176284583580554e-05
4.7999999999999545,108.684,3.49639,238.4,1.5,21.9,14.9,6.730531562953073,10.263774970533703,1.18142834844015e-05
4.899999999999977,108.34,3.52874,238.6,2.6,22.3,14.9,6.838754433540478,10.591545490884204,1.2465608506317949e-05
5.0,107.974,3.57875,238.4,2.5,22.2,14.9,6.949725318070283,10.942868386256958,1.3178198724705936e-05
5.100000000000023,107.63,3.70401,238.5,2.6,22.4,14.9,7.133275999055243,11.238991252120863,1.3895317282131003e-05
5.199999999999932,107.273,3.85709,238.4,2.5,21.7,14.8,7.370378693985501,11.527721293395333,0.10001468180496342
5.2999999999999545,106.927,4.03839,238.0,1.1,19.1,14.8,7.638882289403856,11.79003521674872,0.10001547840768987
5.399999999999977,106.578,4.1063,237.2,-2.3,14.8,14.8,7.940875821162798,12.04283343895014,0.1000163205414566
5.5,106.233,4.13026,237.2,-5.5,4.1,14.8,8.261290263576544,12.28419145861067,0.10001718835220474
5.600000000000023,105.875,4.02734,238.1,-8.3,-7.4,14.8,8.597192745030544,12.533461325701786,0.10001811801901495
5.699999999999932,105.537,3.85314,239.2,-8.7,-18.4,14.8,8.90202382206166,12.773482867909951,0.1000190140882733
5.7999999999999545,105.175,3.69722,239.4,-7.4,-25.7,14.8,9.201292557812803,13.042608845615472,0.10001998470381857
5.899999999999977,104.839,3.59451,239.5,-6.9,-27.4,14.8,9.447740218112422,13.305991878055563,0.10002088974558898
6.0,104.485,3.5881,239.7,-6.8,-27.8,14.8,9.671354647544646,13.59741784179863,0.10002184032745465
6.100000000000023,104.144,3.57194,239.8,-7.2,-28.6,14.8,9.855139462359173,13.89188335174048,0.10002275750953249
6.199999999999932,103.781,3.5794,239.9,-7.3,-29.3,14.8,10.079979096895716,14.19297004217812,0.10002377216707092
6.2999999999999545,103.429,3.65445,239.8,-7.4,-30.1,14.8,10.19718283479401,14.525406569708583,0.10002470515606632
6.399999999999977,103.054,3.75305,239.8,-7.6,-30.0,14.8,10.275247624457972,14.898601589573428,0.1000256920344178
6.5,102.692,3.91568,239.8,-7.7,-29.7,14.8,10.309758161432676,15.276012266052797,0.10002663965397929
6.600000000000023,102.307,4.06025,240.0,-7.8,-29.5,14.8,10.305412932048544,15.693707946285803,0.10002764509404916
6.699999999999932,101.931,4.22216,240.4,-8.3,-29.5,14.8,10.277072838301665,16.11185424820476,0.10002864039867809
6.7999999999999545,101.558,4.45345,240.6,-8.7,-29.3,14.8,10.20053789212734,16.54735179851283,0.10002963221112982
6.899999999999977,101.196,4.57513,240.1,-9.5,-23.8,14.8,10.097612670648079,16.98219261889453,0.10003060961161925
7.0,100.81,4.53935,238.7,-7.5,-6.5,14.8,9.97755533137147,17.450918654141674,0.10003168289047082
7.100000000000023,100.437,4.33242,238.4,-2.1,12.1,14.8,9.868903071614437,17.902087325789722,0.1000327633696676
7.199999999999932,100.057,4.1202,238.7,1.0,19.2,14.8,9.801418316267318,18.344122120376753,0.1000339136792947
7.2999999999999545,99.6952,3.94487,238.2,1.2,20.6,14.8,9.775875393561467,18.74846846602859,0.10003504797186213
7.399999999999977,99.3143,3.77628,238.8,2.5,24.9,14.9,9.796452851152777,19.154487517171823,3.628569614377852e-05
7.5,98.9485,3.72908,238.9,2.8,25.2,14.9,9.83608674055419,19.53597633109031,3.7501086248781235e-05
7.600000000000023,98.5722,3.72785,239.3,3.6,23.1,14.9,9.93657755396184,19.903000615985096,3.879164428521875e-05
7.699999999999932,98.2152,3.72501,238.9,3.5,23.3,14.9,10.073517149840125,20.23311542248547,4.004464022600018e-05
7.7999999999999545,97.8393,3.85392,238.7,3.6,23.1,14.8,10.262202764028366,20.561740571533992,0.10004139777029675
7.899999999999977,97.5031,4.04519,239.1,4.7,21.2,14.8,10.455783344242862,20.844918504042198,0.10004263190609919
8.0,97.1137,4.25586,239.2,5.0,18.1,14.8,10.733860379479964,21.1499455633043,0.1000440986690938
8.100000000000023,96.7342,4.48227,239.0,5.0,16.5,14.8,11.03278551658832,21.435574693052374,0.10004556309422252
8.199999999999932,96.331,4.6212,237.1,-0.4,16.0,14.8,11.378345212554924,21.727611113409758,0.10004715870502423
8.299999999999955,95.9489,4.63312,237.3,-4.3,2.4,14.8,11.726577706685696,21.99591949097258,0.10004871185626474
8.399999999999977,95.5572,4.4315,239.0,-9.2,-17.6,14.7,12.06332695691597,22.280074197643422,0.20005032681420687
8.5,95.1872,4.22627,240.2,-10.0,-26.1,14.7,12.376330008517952,22.55107845699042,0.20005188004713936
8.600000000000023,94.8038,3.97025,239.9,-8.0,-26.0,14.7,12.66668767168757,22.846276620305453,0.20005350187844861
8.699999999999932,94.4482,3.82464,239.7,-7.5,-26.8,14.7,12.90034358019523,23.135059859491626,0.20005501147581217
8.799999999999955,94.1134,3.89102,239.6,-7.2,-27.9,14.7,13.110712536929771,23.410951960193447,0.20005644820186586
8.899999999999977,93.7448,3.88946,239.7,-7.4,-28.8,14.7,13.28156985637894,23.739859872680174,0.2000580183160574
9.0,93.3296,3.86366,239.7,-7.6,-28.8,14.7,13.43847364868478,24.124853602383652,0.20005979026872733
9.100000000000023,92.9351,3.93037,239.9,-7.9,-29.0,14.7,13.55198210452511,24.50531870916471,0.20006148074142782
9.199999999999932,92.4678,3.95406,240.1,-8.2,-29.8,14.7,13.698772641193745,24.95083528991902,0.20006352146969508
9.299999999999955,92.0868,4.11297,240.0,-7.9,-30.2,14.8,13.72918067046685,25.35093559095673,0.1000651621510329
9.399999999999977,91.692,4.28755,240.0,-7.5,-29.7,14.8,13.714933395812519,25.78474513449342,0.10006687053035179
9.5,91.3228,4.48904,240.4,-7.7,-29.0,14.8,13.660067615826215,26.208099785050727,0.10006847558818688
9.600000000000023,90.9581,4.74801,240.1,-7.2,-29.5,14.8,13.530483808989711,26.658642204960707,0.10007006394051032
9.699999999999932,90.5834,4.92253,239.3,-4.8,-23.9,14.8,13.411209986625309,27.11661536979191,0.10007173929586965
9.799999999999955,90.1734,5.06113,238.0,0.3,-13.7,14.8,13.27528379140821,27.621273283429744,0.10007361670560044
9.899999999999977,89.7687,5.08561,237.8,5.5,0.3,14.8,13.157743837685867,28.113391277825542,0.10007552093657068
10.0,89.3278,5.02703,238.7,7.2,13.7,14.8,13.06642092381938,28.634720553814546,0.10007764986926748
10.100000000000023,88.8803,4.9289,238.4,5.8,17.7,14.9,12.981348378776872,29.16157944599393,7.985929871878739e-05
10.199999999999932,88.4159,4.85767,238.7,5.8,19.7,14.9,12.97077123417133,29.674920258102865,8.220345640630455e-05
10.299999999999955,87.9628,4.81543,239.8,7.6,23.1,14.9,12.997382623537007,30.1596987508044,8.452825811122722e-05
10.399999999999977,87.4751,4.77656,240.3,8.3,23.0,14.8,13.069013160470831,30.66263729286503,0.10008707168113773
10.5,86.9899,4.81882,239.8,7.4,22.2,14.8,13.13224109771671,31.16685170418807,0.1000896441315886
10.600000000000023,86.5056,4.95728,239.5,7.1,20.9,14.8,13.29871851199754,31.623747209373,0.10009223719129334
10.699999999999932,86.0299,5.0712,239.7,7.4,19.2,14.8,13.502705182949198,32.0541423592756,0.10009481383676988
10.799999999999955,85.5125,5.20772,239.4,6.6,17.9,14.8,13.764335684855439,32.50450028314456,0.10009765027435247
10.899999999999977,85.0181,5.34904,238.5,4.5,18.0,14.8,14.046042718818931,32.920522381521344,0.10010039911661739
11.0,84.5016,5.40632,237.6,1.5,19.0,14.7,14.374834872866277,33.3398505844472,0.20010331008010684
11.100000000000023,84.0064,5.54953,237.5,0.7,19.1,14.7,14.723336808558612,33.72732546091287,0.20010614483950473
11.199999999999932,83.482,5.61086,237.4,-0.5,16.5,14.7,15.124723434018122,34.123575003238784,0.2001091927942671
11.299999999999955,83.0147,5.57615,237.2,-6.3,1.8,14.7,15.52315674163193,34.459469681045825,0.20011195814804772
11.399999999999977,82.5015,5.43638,238.9,-10.2,-16.3,14.7,15.94926347722523,34.83393848752647,0.2001150448259823
11.5,82.0184,5.25367,239.6,-9.4,-25.2,14.7,16.32122569814599,35.19996097484664,0.2001179963207056
11.600000000000023,81.5128,5.08816,239.7,-8.2,-26.0,14.7,16.667655950236874,35.601854294187106,0.2001211245212451
11.699999999999932,81.0322,4.93936,239.8,-8.1,-26.7,14.7,16.966434534419463,35.99730980597943,0.20012413249612582
11.799999999999955,80.5154,4.9592,239.8,-8.1,-27.6,14.7,17.295767398617315,36.419250118433446,0.20012741265816558
11.899999999999977,80.0351,4.91779,239.9,-8.3,-28.4,14.7,17.532149054982494,36.84132822719525,0.20013048322882376
12.0,79.5325,4.8591,240.0,-8.6,-28.5,14.8,17.74081740568452,37.29943048947531,0.10013372210079119
12.100000000000023,79.0682,4.87677,240.1,-8.8,-28.7,14.8,17.890561630713933,37.740998390767004,0.10013673663027767
12.199999999999932,78.6394,4.8858,240.2,-8.9,-28.9,14.8,17.99492244687069,38.16316859148803,0.10013954137299486
12.299999999999955,78.1714,4.96528,240.3,-9.1,-29.1,14.8,18.067998272425825,38.64156977395257,0.10014262625271364
12.399999999999977,77.656,5.0464,240.5,-10.1,-29.0,14.8,18.120853252418097,39.18056259233902,0.1001460625268269
12.5,77.176,5.08894,240.3,-11.3,-24.1,14.9,18.134843943471317,39.69818035552717,0.00014929816014230823
12.600000000000023,76.6033,5.02776,238.9,-10.5,-8.7,14.9,18.160161816495794,40.31254234136421,0.00015322036246701032
12.699999999999932,76.1525,4.81708,237.8,-6.3,10.4,14.9,18.159184276579502,40.805858776758676,0.00015635228188060069
12.799999999999955,75.6922,4.67492,238.7,-1.2,20.3,14.9,18.184686648792237,41.29850304875906,0.0001595921115029597
12.899999999999977,75.2473,4.55734,238.5,0.3,21.2,14.9,18.242872681366684,41.76010297458788,0.00016276176505591877
13.0,74.7572,4.51167,238.0,0.3,21.5,14.9,18.30401206650689,42.27011351057408,0.00016629447253002638
13.100000000000023,74.3076,4.50215,238.1,1.0,23.1,15.0,18.4333073905323,42.70545795554172,-0.09983043322739604
13.199999999999932,73.8388,4.52614,238.1,1.2,22.7,15.0,18.608861347747286,43.14120628204351,-0.09982699291233565
13.299999999999955,73.4013,4.60629,238.1,1.3,21.7,14.9,18.817477108544047,43.52768017029186,0.0001762441648729407
13.399999999999977,72.9501,4.66747,237.9,0.7,21.1,14.9,19.080465906768936,43.90487558433962,0.00017961049633008486
13.5,72.5641,4.75366,237.1,-1.3,21.6,14.9,19.301896881903378,44.229315120945756,0.00018251894498355625
13.600000000000023,72.1228,4.86537,236.7,-2.6,21.2,14.9,19.64989044196137,44.55820640919586,0.0001858723044136923
13.699999999999932,71.701,4.99476,236.7,-2.4,20.9,14.9,20.021029204728666,44.856083914535844,0.0001891171585217677
13.799999999999955,71.2516,5.14382,237.3,-0.9,17.0,14.9,20.450239400791567,45.159719398814204,0.0001926248164032529
13.899999999999977,70.8505,5.22638,237.6,0.0,3.8,14.9,20.883835712043705,45.40985801771902,0.0001958101113288535
14.0,70.3978,5.19464,237.8,-1.0,-12.7,14.9,21.330900483108415,45.711904888687485,0.0001994495818689046
14.100000000000023,69.9569,5.11219,238.4,-2.5,-24.4,14.9,21.731784419624702,46.021821813280226,0.0002030343084697961
14.199999999999932,69.4817,4.98893,238.8,-3.3,-27.0,14.8,22.114449597124697,46.3774986638808,0.1002069276999702
14.299999999999955,69.0271,4.91479,239.0,-4.1,-27.1,14.8,22.445351611003858,46.73298552638904,0.10021068205999839
14.399999999999977,68.5485,4.84861,239.2,-4.9,-27.8,14.8,22.759008948648386,47.122067369184975,0.10021465600945056
14.5,68.0862,4.83059,239.3,-5.2,-28.9,14.8,23.023720120190625,47.513830000386704,0.10021851376710522
14.600000000000023,67.5923,4.81157,239.4,-5.5,-29.1,14.8,23.265459549699816,47.949333322112096,0.10022265067137681
14.699999999999932,67.1194,4.82243,239.4,-5.7,-29.4,14.8,23.474116440320138,48.37561136143934,0.10022663375221441
14.799999999999955,66.618,4.92516,239.4,-5.8,-29.6,14.8,23.625121196768813,48.85627617156248,0.10023085363436657
14.899999999999977,66.1355,5.04776,239.5,-5.7,-29.6,14.8,23.733923999960695,49.33372602321139,0.10023493024791819
15.0,65.6225,5.20411,239.5,-5.8,-29.7,14.8,23.81279704563387,49.8566463912746,0.10023928868406884
15.100000000000023,65.1221,5.37704,239.6,-5.8,-30.0,14.8,23.851571768327815,50.382869928760734,0.10024356407062385
15.199999999999932,64.5585,5.48548,239.5,-6.7,-27.6,14.8,23.856270413738674,50.99239744373959,0.10024842196143169
15.299999999999955,64.0674,5.55147,239.0,-6.5,-16.0,14.8,23.837681821613312,51.53376151884409,0.10025269784591373
15.399999999999977,63.5772,5.5036,238.3,-3.5,-0.3,14.8,23.812256582224094,52.07801622022637,0.1002570193999226
15.5,63.0891,5.39989,238.5,0.4,13.7,14.8,23.81624696802845,52.608192058957805,0.10026138060560541
15.600000000000023,62.5445,5.28884,239.4,3.8,21.3,14.8,23.853580229624228,53.1863506475013,0.10026631117753482
15.699999999999932,62.0225,5.19714,239.1,3.8,21.6,14.9,23.94173515668694,53.71817644534918,0.0002710950072053464
15.799999999999955,61.4724,5.21225,238.5,3.1,20.3,14.9,24.071603423443083,54.262693779354855,0.0002761898465095669
15.899999999999977,60.9528,5.25501,238.8,3.7,21.0,14.9,24.22824898844597,54.762061323056784,0.00028104935284645194
16.0,60.4003,5.29272,238.9,4.0,21.1,14.9,24.36598557563891,55.306009626592264,0.00028626477276283424
16.100000000000023,59.883,5.39326,238.7,3.1,20.2,14.9,24.599649200796023,55.76894466714811,0.00029119107728092786
16.199999999999932,59.3379,5.49126,237.9,1.3,19.2,14.8,24.89205137519415,56.23654463435163,0.10029643412966571
16.299999999999955,58.8284,5.59898,237.5,0.0,19.4,14.8,25.205486747525562,56.65606312978012,0.10030137732797151
16.399999999999977,58.3646,5.70044,237.5,0.6,19.6,14.8,25.545231209847472,57.014443884444944,0.10030592490581292
16.5,57.8487,5.86099,237.7,1.4,19.1,14.8,25.93832718213683,57.407244020300375,0.10031103677965625
16.600000000000023,57.2787,5.98753,237.7,1.2,17.8,14.8,26.39897394044789,57.8310535343425,0.10031675968903997
16.699999999999932,56.7415,6.041,237.5,-0.2,9.0,14.8,26.86244215651541,58.219316844764705,0.10032222866387208
16.799999999999955,56.1855,6.0413,237.7,-3.2,-5.2,14.8,27.356434265239013,58.6167251666234,0.10032797432120688
16.899999999999977,55.6122,5.92038,238.7,-5.7,-19.3,14.8,27.84506350760949,59.03694122227103,0.10033396782296755
17.0,55.0696,5.72181,239.1,-5.6,-26.9,14.8,28.280150692542435,59.44724479823876,0.10033969655100528
17.100000000000023,54.5523,5.60416,239.2,-5.0,-27.5,14.7,28.653561309549247,59.85585619939812,0.20034518752610175
17.199999999999932,54.0066,5.53655,239.4,-5.3,-27.7,14.7,29.003325963728045,60.30518880449254,0.20035100219125823
17.299999999999955,53.5086,5.49523,239.5,-5.6,-28.6,14.7,29.313717330912286,60.719139685014085,0.20035635128087392
17.399999999999977,52.9529,5.48426,239.3,-5.4,-28.8,14.7,29.595545923361392,61.206596258245185,0.20036231152041672
17.5,52.4117,5.50248,239.3,-5.4,-29.2,14.7,29.829315458202394,61.69716899001054,0.20036812666753434
17.600000000000023,51.8315,5.51378,239.3,-5.4,-29.4,14.7,30.035819508787668,62.24022291750451,0.20037437019589177
17.699999999999932,51.264,5.5391,239.4,-5.4,-29.5,14.7,30.242309051147934,62.769747985655286,0.20038053433435188
17.799999999999955,50.6895,5.654,239.4,-5.3,-29.6,14.7,30.353291862133116,63.343800819395526,0.20038673301857912
17.899999999999977,50.1413,5.8043,239.3,-5.0,-29.9,14.7,30.419401301021896,63.90749442710496,0.20039266691965096
18.0,49.5653,5.90088,239.3,-6.3,-27.4,14.8,30.450744396108856,64.51532313557222,0.1003989306652624
18.100000000000023,49.0266,5.85419,239.1,-9.0,-12.6,14.8,30.430321988936143,65.10463924194585,0.10040481391779821
18.199999999999932,48.4663,5.64571,238.0,-8.2,8.9,14.8,30.445861649325327,65.70390986589598,0.10041102852999728
18.299999999999955,47.9434,5.43398,238.5,-3.6,22.2,14.8,30.49211984853052,66.25086341139765,0.10041690199764908
18.399999999999977,47.4002,5.25477,239.4,-0.4,24.3,14.8,30.585327607368853,66.80089432668407,0.1004230816255145
18.5,46.8888,5.16061,238.5,-0.6,22.5,14.9,30.706529590178974,67.3051579209401,0.00042896200289455066
18.600000000000023,46.3462,5.16052,238.0,-1.0,22.0,14.9,30.81717004384397,67.84783050496488,0.00043524137184292044
18.699999999999932,45.8576,5.11708,238.2,-0.5,22.5,14.9,31.007899714858382,68.29840867115114,0.0004409723468210558
18.799999999999955,45.3678,5.13317,237.6,-1.3,21.9,14.9,31.24847410260851,68.72931753674048,0.0004467754820876024
18.899999999999977,44.8909,5.17083,236.9,-2.7,21.4,14.9,31.519736845240573,69.13349305641214,0.00045247914577117854
19.0,44.3968,5.25766,236.9,-2.2,21.4,14.9,31.818602150061743,69.545217473572,0.0004584407408785296
19.100000000000023,43.9113,5.36281,237.0,-1.7,21.6,14.9,32.17249738067294,69.9255001924834,0.00046437712560631894
19.199999999999932,43.4101,5.4304,236.9,-1.8,21.2,14.9,32.58568049520517,70.2996843763702,0.0004705912040190441
19.299999999999955,42.9441,5.56941,237.0,-2.1,20.8,14.9,33.01026261975271,70.63295353980007,0.00047646030161807573
19.399999999999977,42.4642,5.62335,236.9,-4.6,14.2,14.9,33.48488173925459,70.96383959941235,0.0004826142718794557
19.5,42.0253,5.54614,237.5,-8.3,-2.5,14.9,33.94367162687629,71.25939344889596,0.0004883398690260776
19.600000000000023,41.5742,5.29443,239.0,-9.5,-19.6,14.9,34.4141209587968,71.56644840986247,0.000494305027617159
19.699999999999932,41.1557,5.01266,239.4,-8.2,-26.3,14.8,34.82003725589321,71.8648691233478,0.10049986957004897
19.799999999999955,40.7586,4.81916,239.5,-7.4,-26.3,14.8,35.21609191084628,72.14608881631126,0.10050522307291132
19.899999999999977,40.3482,4.67794,239.8,-7.7,-27.0,14.8,35.53042737639933,72.47172549163614,0.1005106606296664
20.0,39.9146,4.60753,239.9,-7.8,-27.7,14.8,35.816149293153444,72.83261446921534,0.10051637221951992
20.100000000000023,39.4814,4.53332,239.9,-7.9,-28.4,14.8,36.063015464265675,73.20684925560717,0.10052204832684453
20.199999999999932,39.002,4.44227,239.9,-8.2,-28.5,14.8,36.296010741353,73.63491306587608,0.10052829824538279
20.299999999999955,38.5215,4.41396,240.0,-8.4,-28.7,14.8,36.5422762916823,74.05991816737912,0.10053462541389635
20.399999999999977,38.0468,4.44186,239.9,-8.4,-29.0,14.8,36.68671269317937,74.51291720449831,0.10054072928954838
20.5,37.6032,4.52418,239.9,-8.4,-29.1,14.8,36.77376098188928,74.95231527843725,0.10054637648758202
20.600000000000023,37.146,4.59075,240.1,-9.1,-28.8,14.8,36.81192980370671,75.42262802376052,0.1005521332643653
20.699999999999932,36.7017,4.61142,240.4,-11.5,-25.7,14.8,36.816546563532164,75.89120363618436,0.10055771443910189
20.799999999999955,36.2595,4.60502,239.5,-12.9,-13.2,14.8,36.79118861163853,76.36857339908539,0.10056326048579578
20.899999999999977,35.8432,4.39752,237.8,-12.1,5.0,14.9,36.76790284868243,76.81868813312691,0.0005685241079298464
21.0,35.4148,4.07622,236.9,-9.8,19.1,14.9,36.76836294249135,77.27401750894522,0.000574022185922729
21.100000000000023,35.002,3.7973,237.1,-7.6,23.9,14.9,36.78560109334613,77.70732183763198,0.0005793805869060975
21.199999999999932,34.6117,3.57742,236.6,-7.3,23.9,14.9,36.8638114110295,78.09474488212064,0.0005845600595790756
21.299999999999955,34.2609,3.4257,236.1,-8.2,24.2,14.9,36.967793288094555,78.43077113294726,0.0005892854013005433
21.399999999999977,33.9143,3.33228,235.9,-8.7,24.9,14.9,37.109886826070756,78.74843024809283,0.0005940231145267205
21.5,33.6506,3.29339,236.0,-8.2,24.9,14.9,37.227496533524004,78.98666160207249,0.0005976544610852841
21.600000000000023,33.3554,3.31378,236.1,-7.6,24.2,14.9,37.44635769275747,79.22191946598068,0.0006018543190293713
21.699999999999932,33.0834,3.40011,236.1,-7.2,23.6,14.9,37.691523666725274,79.42371205430806,0.0006058113862188463
21.799999999999955,32.8034,3.57312,236.1,-6.4,23.0,14.9,37.98748218584346,79.61717805822636,0.0006099832151775786
21.899999999999977,32.5479,3.76762,236.2,-6.0,22.0,14.9,38.30270657266059,79.77977731724822,0.0006139060140064601
22.0,32.2804,3.9268,236.6,-6.0,18.8,14.9,38.65010693279518,79.9464639734761,0.0006180947991119012
22.100000000000023,32.0478,3.9832,237.3,-6.6,7.5,14.9,39.0143819690305,80.07361025483655,0.000621914473260432
22.199999999999932,31.8132,3.85985,238.1,-8.3,-7.5,14.9,39.397793803421095,80.2001950549392,0.0006258684268694026
22.299999999999955,31.5922,3.63952,239.1,-8.0,-20.2,14.9,39.74459569947765,80.32700543283264,0.0006296232928626466
22.399999999999977,31.3678,3.35356,239.0,-5.8,-26.4,14.9,40.08922760641485,80.46083989478484,0.0006334737722539785
22.5,31.1337,3.16776,238.8,-4.7,-26.7,14.9,40.36792226642636,80.62590229637308,0.0006373186360590921
22.600000000000023,30.876,3.07599,239.1,-5.0,-27.0,14.9,40.62317566647158,80.82342566597785,0.0006414443447937401
22.699999999999932,30.6176,2.9962,239.1,-5.1,-28.3,14.9,40.832928808428406,81.0350929934848,0.0006454710048338086
22.799999999999955,30.3503,2.99268,239.1,-4.8,-28.9,14.8,41.06635185637714,81.25061358913214,0.10064971484409924
22.899999999999977,30.062,3.06832,239.0,-4.5,-29.3,14.8,41.21167192132057,81.51132198430804,0.10065397906566176
23.0,29.7411,3.1932,239.0,-4.5,-29.7,14.8,41.326859331368176,81.81364809066261,0.10065859309245795
23.100000000000023,29.4211,3.38845,239.1,-4.6,-29.8,14.8,41.391373428920154,82.12799131491319,0.10066305096311723
23.199999999999932,29.0682,3.5862,239.2,-4.7,-29.6,14.9,41.42312893121933,82.4848700031845,0.0006678565106561507
23.299999999999955,28.7193,3.85032,239.3,-4.6,-29.7,14.9,41.40843569506845,82.84987347742084,0.0006724879301494013
23.399999999999977,28.3372,4.12567,239.2,-4.4,-29.9,14.9,41.35766241489016,83.25932038109127,0.0006774835343250629
23.5,27.9613,4.35761,239.3,-5.5,-27.8,14.9,41.27652355238486,83.67157030598099,0.000682346307439019
23.600000000000023,27.5603,4.38568,239.0,-7.4,-14.3,14.9,41.170717585059364,84.11820001366445,0.0006875285154421817
23.699999999999932,27.1877,4.22509,237.9,-5.0,5.7,14.9,41.05507827101512,84.5400651359943,0.0006923526010425007
23.799999999999955,26.8176,4.06097,238.6,0.0,19.3,15.0,40.99137636180249,84.94554803415178,-0.09930267741939502
23.899999999999977,26.4456,3.88527,238.9,2.1,23.1,15.0,40.97166432069841,85.34089693529633,-0.09929753078884929
24.0,26.0303,3.76164,238.5,2.5,23.0,15.0,40.99659187946776,85.76839120555204,-0.09929164204831764
24.100000000000023,25.612,3.76488,238.9,4.1,22.9,15.0,41.051619186817675,86.19005822877374,-0.0992856078419706
24.199999999999932,25.2086,3.84356,239.0,5.0,22.0,15.0,41.15452545426549,86.58126302297927,-0.0992796488136598
24.299999999999955,24.8261,3.94735,238.6,4.5,21.5,15.0,41.29591311581499,86.93839719841775,-0.09927387813939248
24.399999999999977,24.4269,4.07067,238.2,2.8,21.5,15.0,41.491445998888494,87.29642250491881,-0.09926772008940432
24.5,24.0552,4.22133,237.9,1.9,21.2,14.9,41.70857303214915,87.6192953352629,0.0007381242011206268
24.600000000000023,23.674,4.38065,237.8,1.7,20.6,14.9,41.96762671641039,87.94016255319553,0.0007442421750631922
24.699999999999932,23.3074,4.57513,237.8,1.9,20.0,14.9,42.26693675263583,88.23544375795541,0.000750300381941571
24.799999999999955,22.9174,4.82133,237.7,1.5,20.1,14.9,42.64093681257185,88.53623623450041,0.0007569626780394856
24.899999999999977,22.5505,5.04048,237.6,0.2,19.9,14.9,43.05270237370404,88.807072481066,0.000763500894123581
25.0,22.1731,5.11111,237.4,-3.0,9.4,14.9,43.49988349571215,89.0852226694882,0.0007704209260133155
25.100000000000023,21.8162,5.04038,238.2,-6.2,-12.3,14.9,43.92617050857194,89.3533533603593,0.0007771007602208613
25.199999999999932,21.4374,4.83953,239.0,-6.1,-25.1,14.9,44.34812202426521,89.65083279102478,0.0007842024746160803
25.299999999999955,21.0774,4.68091,239.0,-5.0,-26.1,14.9,44.7092054040983,89.94671663289385,0.0007908941579621853
25.399999999999977,20.7073,4.55675,239.4,-5.3,-26.2,14.9,45.06455605196641,90.25828102272227,0.0007978007838929102
25.5,20.3359,4.48761,239.6,-5.4,-27.9,14.9,45.353124895030746,90.58640477710276,0.0008045008833263978
25.600000000000023,19.9323,4.50035,239.3,-4.6,-28.6,14.8,45.623138105617265,90.95268136040553,0.10081164369892548
25.699999999999932,19.5278,4.49811,239.0,-3.8,-29.8,14.8,45.839214972996956,91.32995701048903,0.1008185828970376
25.799999999999955,19.0895,4.51133,238.9,-3.7,-30.3,14.8,46.05665352534782,91.74267753516429,0.10082607443821345
25.899999999999977,18.6409,4.63228,238.9,-3.6,-30.1,14.8,46.19729945729294,92.17714299236818,0.10083335282876149
26.0,18.149,4.75642,239.0,-3.5,-29.9,14.8,46.30914386025589,92.65944642915116,0.10084114885500384
26.100000000000023,17.6664,4.92108,239.2,-3.3,-30.0,14.9,46.3793725025606,93.13788742206336,0.0008486212330822696
26.199999999999932,17.1155,5.09568,239.0,-2.5,-30.0,14.9,46.43709222466238,93.68707939114887,0.0008570774742473475
26.299999999999955,16.6015,5.31976,238.9,-1.9,-29.9,14.9,46.44033129059959,94.20615565262983,0.00086474047646945
26.399999999999977,16.0436,5.58338,239.0,-1.8,-30.2,14.9,46.411247384695514,94.77444267139087,0.0008729378756520134
26.5,15.4938,5.82897,238.2,0.2,-25.9,14.9,46.3594132725794,95.33879212397926,0.0008809622593304312
26.600000000000023,14.8862,5.93477,237.6,3.5,-11.0,14.9,46.30116225430163,95.96392396090008,0.0008899035257421417
26.699999999999932,14.3208,5.89179,238.4,6.0,8.1,14.9,46.258412589137755,96.5451776871266,0.0008983555481698602
26.799999999999955,13.7336,5.84201,239.3,6.8,18.5,15.0,46.24757070618746,97.14421329669449,-0.09909263562647297
26.899999999999977,13.166,5.76079,238.8,4.5,20.3,15.0,46.27524745674282,97.71715926981895,-0.09908369058825528
27.0,12.562,5.65805,238.9,3.8,22.6,15.0,46.34712100548237,98.31929791209086,-0.09907392365241918
27.100000000000023,11.9871,5.60991,239.7,4.6,25.2,15.0,46.44078043063604,98.88774029135465,-0.09906445982485224
27.199999999999932,11.4028,5.59418,239.5,4.0,24.1,15.0,46.6022275568402,99.45308997509207,-0.09905449678792877
27.299999999999955,10.8675,5.58659,238.7,1.8,20.8,15.0,46.799795774031374,99.96262097290435,-0.09904508607182194
27.399999999999977,10.3311,5.54832,237.5,-2.1,18.0,14.9,47.0480976791027,100.46615200462156,0.0009646508886085314
27.5,9.86349,5.42574,236.5,-9.4,10.2,14.9,47.27776025316611,100.90549543991708,0.0009732835812847895
27.600000000000023,9.40688,5.08219,237.1,-21.7,-0.9,14.9,47.541488223051104,101.33247718777784,0.0009820126842363663
27.699999999999932,8.9883,4.54225,238.3,-28.6,-3.8,14.9,47.78125895836597,101.72832531456248,0.0009901074802023402
27.799999999999955,8.56412,4.06427,238.4,-28.6,-2.5,14.9,48.01691733579503,102.13463795132245,0.0009983709367915594
27.899999999999977,8.20201,3.6637,238.4,-28.7,-2.6,14.9,48.222580042683575,102.48515836465663,0.0010055451414032746
28.0,7.8651,3.23064,238.5,-29.1,-3.2,14.9,48.420400098671244,102.81495938388139,0.0010123522439791088
28.100000000000023,7.58885,2.82295,238.5,-29.4,-3.4,14.8,48.58406806427473,103.08873320968783,0.10101801735775595
28.199999999999932,7.34567,2.40126,238.5,-29.4,-3.9,14.8,48.728522032885635,103.33259355981065,0.10102306588225929
28.299999999999955,7.14503,2.01619,238.7,-29.7,-4.3,14.8,48.85557060470367,103.5362428106045,0.1010273392932497
28.399999999999977,6.99166,1.61568,238.8,-29.7,-4.9,14.8,48.95953671356354,103.6938903137314,0.10103069863269099
28.5,6.8817,1.20206,238.9,-29.7,-5.4,14.8,49.03568276176386,103.80809736105033,0.1010331412772203
28.600000000000023,6.80167,0.843517,238.9,-28.3,-5.1,14.8,49.092322723044006,103.89192921208605,0.10103494253242573
28.699999999999932,6.75132,0.526724,238.6,-24.6,-4.6,14.8,49.12609554616505,103.9448212541489,0.1010360653308986
28.799999999999955,6.73657,0.361352,238.4,-20.9,-4.5,14.8,49.141219768518425,103.96074313293941,0.10103644033521064
28.899999999999977,6.71834,0.218046,238.3,-18.2,-4.7,14.9,49.1490563783958,103.97964702087351,0.001036808571384995
29.0,6.70856,0.159551,238.1,-15.6,-4.8,14.9,49.14945225738124,103.98950819923277,0.001036972484175891
